Clock:Tick#,Clock:offsetTime,IMU_ATTI(0):Longitude,IMU_ATTI(0):Latitude,IMU_ATTI(0):press:D,IMU_ATTI(0):alti:D,IMU_ATTI(0):relativeHeight:C,IMU_ATTI(0):absoluteHeight:C,IMU_ATTI(0):numSats,IMU_ATTI(0):roll:C,IMU_ATTI(0):pitch:C,IMU_ATTI(0):yaw:C,IMU_ATTI(0):accelX,IMU_ATTI(0):accelY,IMU_ATTI(0):accelZ,IMU_ATTI(0):accelComposite:C,IMU_ATTI(0):gyroX,IMU_ATTI(0):gyroY,IMU_ATTI(0):gyroZ,IMU_ATTI(0):gyroComposite:C,IMU_ATTI(0):velN,IMU_ATTI(0):velE,IMU_ATTI(0):velD,IMU_ATTI(0):velComposite:C,IMU_ATTI(0):velH:C,IMU_ATTI(0):magX,IMU_ATTI(0):magY,IMU_ATTI(0):magZ,IMU_ATTI(0):magMod:C,IMU_ATTI(0):temperature,IMU_ATTI(0):yawUnWrapped:C,IMU_ATTI(0):tiltInclination:C,IMU_ATTI(0):tiltDirectionEarthFrame:C,IMU_ATTI(0):tiltDirectionBodyFrame:C,IMU_ATTI(0):yaw360:C,IMU_ATTI(0):magYaw:C,IMU_ATTI(0):Yaw-magYaw:C,IMUCalcs(0):PosN:C,IMUCalcs(0):PosE:C,IMUCalcs(0):PosD:C,IMUCalcs(0):height:C,IMUCalcs(0):velN:C,IMUCalcs(0):velE:C,IMUCalcs(0):velD:C,IMUCalcs(0):diffVelN:C,IMUCalcs(0):diffVelE:C,IMUCalcs(0):diffVelD:C,IMUCalcs(0):Lat:C,IMUCalcs(0):Long:C,IMUCalcs(0):VelocityError:C,IMUCalcs(0):PositionError:C,IMUCalcs(0):totalGyroZ:C,IMUCalcs(0):totalGyroX:C,IMUCalcs(0):totalGyroY:C,IMU_ATTI(0):distanceHP:C,IMU_ATTI(0):distanceTravelled:C,IMU_ATTI(0):directionOfTravel[mag]:C,IMU_ATTI(0):directionOfTravel[true]:C,IMU_ATTI(0):quatW:D,IMU_ATTI(0):quatX:D,IMU_ATTI(0):quatY:D,IMU_ATTI(0):quatZ:D,IMU_ATTI(0):agX:D,IMU_ATTI(0):agY:D,IMU_ATTI(0):agZ:D,IMU_ATTI(0):gbX:D,IMU_ATTI(0):gbY:D,IMU_ATTI(0):gbZ:D,IMU_ATTI(0):ty:D,IMU_ATTI(0):tz:D,IMU_ATTI(0):sensor_stat:D,IMU_ATTI(0):filter_stat:D,IMU_ATTI(0):atti_cnt:D,Controller:ctrl_tick:D,Controller:ctrl_pitch:D,Controller:ctrl_roll:D,Controller:ctrl_yaw:D,Controller:ctrl_thr:D,Controller:ctrl_mode,Controller:mode_switch:D,Controller:motor_state:D,Controller:sig_level:D,Controller:ctrl_level:D,Controller:sim_model:D,Controller:max_height:D,Controller:max_radius:D,Controller:D2H_x:D,Controller:D2H_y:D,Controller:act_req_id:D,Controller:act_act_id:D,Controller:cmd_mod:D,Controller:mod_req_id:D,Controller:is_soaring_up:D,Controller:eagle_temp_level:D,MVO:velX,MVO:velY,MVO:velZ,MVO:posX,MVO:posY,MVO:posZ,MVO:hoverPointUncertainty1,MVO:hoverPointUncertainty2,MVO:hoverPointUncertainty3,MVO:hoverPointUncertainty4,MVO:hoverPointUncertainty5,MVO:hoverPointUncertainty6,MVO:velocityUncertainty1,MVO:velocityUncertainty2,MVO:velocityUncertainty3,MVO:velocityUncertainty4,MVO:velocityUncertainty5,MVO:velocityUncertainty6,MVO:height,MVO:heightUncertainty,AirSpeed:comp_alti:D,AirSpeed:windSpeed,AirSpeed:windDirection,AirSpeed:windFromDir,AirSpeed:windN,AirSpeed:windE,AirSpeed:MotorSpd:D,AirSpeed:vel_level:D,ATTI_MINI0:s_qw0,ATTI_MINI0:s_qx0,ATTI_MINI0:s_qy0,ATTI_MINI0:s_qz0,ATTI_MINI0:roll:C,ATTI_MINI0:pitch:C,ATTI_MINI0:yaw:C,ATTI_MINI0:s_pgz0,ATTI_MINI0:s_vgz0,ATTI_MINI0:s_agz0,ATTI_MINI0:s_rsv00,ATTI_MINI0:s_rsv10,ATTI_MINI0:s_cnt0,osd_data:flyCState,osd_data:flycCommand,osd_data:flightAction,osd_data:nonGPSCause,osd_data:compassError,osd_data:connectedToRC,osd_data:lowVoltage,osd_data:ModeSwitch,osd_data:gpsUsed,osd_data:visionUsed,osd_data:notEnoughForce,osd_data:flightTime,osd_data:navHealth,osd_data:vpsHeight,osd_data:relativeHeight,usonic:usonic_h,MotorCtrl:PWM:RFront,MotorCtrl:PWM:LFront,MotorCtrl:PWM:LBack,MotorCtrl:PWM:RBack,Attribute|Value,ConvertDatV3,4.3.0
0,-1.809,,,,,,,,,,,,,,,,,,,,,,,,,,,,,,,,,,,,,,,,,,,,,,,,,,,,,,,,,,,,,,,,,,,,,,,,,,,,,,,,,,,,,,,,,,,,,,,,,,,,,,,,,,,,,,,,,,,,,,,,,,,,,,,,,,,,,,,,,,,,,,,,,,,,,,,,,
8138573,.000,,,32.8731,-0.0,,,0,NaN,0.0,0.0,-0.010676009,0.009858537,-1.0071324,1.0072372,1.7566555,1.3435134,0.88214713,2.3809767,0.0,0.0,0.0,0.0,0.0,0,0,0,0.0,52.82,0.0,NaN,NaN,NaN,0.0,NaN,NaN,0.0,0.0,0.0,-0.0,NaN,NaN,NaN,NaN,NaN,NaN,NaN,NaN,false,false,0.0,0.0,0.0,,0.0,,,0.0,0.0,0.0,0.0,0.0,0.0,0.0,0.0,0.0,0.0,200,5007,0,0,39,,,,,,,,,,,,,,,,,,,,,,,,,,,,,,,,,,,,,,,,0.0,,,,,,,,,,,,,,,,,,,,,,,,,,,,,,P,,,,,,,,,,,,,Firmware Date| May  7 2019
8342730,.045,,,32.8731,-0.0,,,0,NaN,0.0,0.0,-0.010676009,0.009858537,-1.0071324,1.0072372,1.7566555,1.3435134,0.88214713,2.3809767,0.0,0.0,0.0,0.0,0.0,0,0,0,0.0,52.82,0.0,NaN,NaN,NaN,0.0,NaN,NaN,0.0,0.0,0.0,-0.0,NaN,NaN,NaN,NaN,NaN,NaN,NaN,NaN,false,false,0.0,0.0,0.0,,0.0,,,0.0,0.0,0.0,0.0,0.0,0.0,0.0,0.0,0.0,0.0,200,5007,0,0,39,10,0.0,0.0,0.0,0.0,Manual,0,0,0,0,0,500,5000,0.0,0.0,17,5,26,17,0,0,,,,,,,,,,,,,,,,,,,0.0,,,,,,,,,,0.0,0.0,0.0,0.0,NaN,NaN,NaN,-0.0,0.0,0.0,0,0,20,,,,,,,,P,,,,,,,,,,,,,ACType|Tello
8607327,.104,,,32.833466,-0.0,,,0,NaN,0.0,0.0,0.002460296,-0.0011860719,-1.0059375,1.0059412,-0.8805069,0.8772875,0.5407346,1.3554777,0.0,0.0,0.0,0.0,0.0,0,0,0,0.0,52.74,0.0,NaN,NaN,NaN,0.0,NaN,NaN,0.0,0.0,0.0,-0.0,NaN,NaN,NaN,NaN,NaN,NaN,NaN,NaN,false,false,0.01408160843761408,-0.02292983149958161,0.02284599396934084,,0.0,,,0.0,0.0,0.0,0.0,0.0,0.0,0.0,0.0,0.0,0.0,200,5012,0,0,119,10,0.0,0.0,0.0,0.0,Manual,0,0,0,0,0,500,5000,0.0,0.0,17,5,26,17,0,0,,,,,,,,,,,,,,,,,,,0.0,,,,,,,,,,0.0,0.0,0.0,0.0,NaN,NaN,NaN,-0.0,0.0,0.0,0,0,40,,,,,,,,P,,,,,,,,,,,,,
8811483,.150,,,32.833466,-0.0,,,0,NaN,0.0,0.0,0.002460296,-0.0011860719,-1.0059375,1.0059412,-0.8805069,0.8772875,0.5407346,1.3554777,0.0,0.0,0.0,0.0,0.0,0,0,0,0.0,52.74,0.0,NaN,NaN,NaN,0.0,NaN,NaN,0.0,0.0,0.0,-0.0,NaN,NaN,NaN,NaN,NaN,NaN,NaN,NaN,false,false,0.01408160843761408,-0.02292983149958161,0.02284599396934084,,0.0,,,0.0,0.0,0.0,0.0,0.0,0.0,0.0,0.0,0.0,0.0,200,5012,0,0,119,20,0.0,0.0,0.0,0.0,Manual,0,0,0,0,0,500,5000,0.0,0.0,17,5,26,17,0,0,,,,,,,,,,,,,,,,,,,0.0,,,,,,,,,,0.0,0.0,0.0,0.0,NaN,NaN,NaN,-0.0,0.0,0.0,0,0,60,,,,,,,,P,,,,,,,,,,,,,
9076103,.208,,,32.83611,-0.0,,,0,NaN,0.0,0.0,0.0028393392,-0.0019792775,-1.0063034,1.0063094,-1.0149894,0.8076403,0.65415525,1.4527235,0.0,0.0,0.0,0.0,0.0,0,0,0,0.0,52.75,0.0,NaN,NaN,NaN,0.0,NaN,NaN,0.0,0.0,0.0,-0.0,NaN,NaN,NaN,NaN,NaN,NaN,NaN,NaN,false,false,0.07356459534850401,-0.12113134028059847,0.10471647761341529,,0.0,,,0.0,0.0,0.0,0.0,0.0,0.0,0.0,0.0,0.0,0.0,200,5014,0,0,199,20,0.0,0.0,0.0,0.0,Manual,0,0,0,0,0,500,5000,0.0,0.0,17,5,26,17,0,0,,,,,,,,,,,,,,,,,,,0.0,,0.0,0.0,0.0,180.0,0.0,0.0,0.0,0,0.0,0.0,0.0,0.0,NaN,NaN,NaN,-0.0,0.0,0.0,0,0,80,,,,,,,,P,,,,,,,,,,,,,
9234723,.244,,,32.83611,-0.0,,,0,NaN,0.0,0.0,0.0028393392,-0.0019792775,-1.0063034,1.0063094,-1.0149894,0.8076403,0.65415525,1.4527235,0.0,0.0,0.0,0.0,0.0,0,0,0,0.0,52.75,0.0,NaN,NaN,NaN,0.0,NaN,NaN,0.0,0.0,0.0,-0.0,NaN,NaN,NaN,NaN,NaN,NaN,NaN,NaN,false,false,0.07356459534850401,-0.12113134028059847,0.10471647761341529,,0.0,,,0.0,0.0,0.0,0.0,0.0,0.0,0.0,0.0,0.0,0.0,200,5014,0,0,199,20,0.0,0.0,0.0,0.0,Manual,0,0,0,0,0,500,5000,0.0,0.0,17,5,26,17,0,0,,,,,,,,,,,,,,,,,,,0.0,,0.0,0.0,0.0,180.0,0.0,0.0,0.0,0,0.0,0.0,0.0,0.0,NaN,NaN,NaN,-0.0,0.0,0.0,0,0,100,Manual,OTHER,NONE,GPS_POSITION_NONMATCH,False,Connected,,P,False,False,True,0,0,,0.0,,,,,,
9749003,.358,,,32.86253,-0.0,,,0,NaN,0.0,0.0,0.0051029194,-7.143056E-4,-1.0048563,1.0048696,-0.9176197,0.71566296,0.45856476,1.2507921,0.0,0.0,0.0,0.0,0.0,0,0,0,0.0,52.68,0.0,NaN,NaN,NaN,0.0,NaN,NaN,0.0,0.0,0.0,-0.0,NaN,NaN,NaN,NaN,NaN,NaN,NaN,NaN,false,false,0.1025403083305072,-0.17145732112741996,0.14438395716221208,,0.0,,,0.0,0.0,0.0,0.0,0.0,0.0,0.0,0.0,0.0,0.0,200,5014,0,0,239,30,0.0,0.0,0.0,0.0,Manual,0,0,0,0,0,500,5000,0.0,0.0,17,5,26,17,0,0,,,,,,,,,,,,,,,,,,,0.0,,0.0,0.0,0.0,180.0,0.0,0.0,0.0,0,0.0,0.0,0.0,0.0,NaN,NaN,NaN,-0.0,0.0,0.0,0,0,100,Manual,OTHER,NONE,GPS_POSITION_NONMATCH,False,Connected,,P,False,False,True,0,0,,0.0,,,,,,
36525301,6.308,,,32.86253,-0.0,,,0,NaN,0.0,0.0,0.0051029194,-7.143056E-4,-1.0048563,1.0048696,-0.9176197,0.71566296,0.45856476,1.2507921,0.0,0.0,0.0,0.0,0.0,0,0,0,0.0,52.68,0.0,NaN,NaN,NaN,0.0,NaN,NaN,0.0,0.0,0.0,-0.0,NaN,NaN,NaN,NaN,NaN,NaN,NaN,NaN,false,false,0.1025403083305072,-0.17145732112741996,0.14438395716221208,,0.0,,,0.0,0.0,0.0,0.0,0.0,0.0,0.0,0.0,0.0,0.0,200,5014,0,0,239,30,0.0,0.0,0.0,0.0,Manual,0,0,0,0,0,500,5000,0.0,0.0,17,5,26,17,0,0,,,,,,,,,,,,,,,,,,,0.0,,0.0,0.0,0.0,180.0,0.0,0.0,0.0,0,0.0,0.0,0.0,0.0,NaN,NaN,NaN,-0.0,0.0,0.0,0,0,100,Manual,OTHER,NONE,GPS_POSITION_NONMATCH,False,Connected,,P,False,False,True,0,0,,0.0,,,,,,
36825594,6.375,,,32.86253,-0.0,,,0,NaN,0.0,0.0,0.0051029194,-7.143056E-4,-1.0048563,1.0048696,-0.9176197,0.71566296,0.45856476,1.2507921,0.0,0.0,0.0,0.0,0.0,0,0,0,0.0,52.68,0.0,NaN,NaN,NaN,0.0,NaN,NaN,0.0,0.0,0.0,-0.0,NaN,NaN,NaN,NaN,NaN,NaN,NaN,NaN,false,false,0.1025403083305072,-0.17145732112741996,0.14438395716221208,,0.0,,,0.0,0.0,0.0,0.0,0.0,0.0,0.0,0.0,0.0,0.0,200,5014,0,0,239,30,0.0,0.0,0.0,0.0,Manual,0,0,0,0,0,500,5000,0.0,0.0,17,5,26,17,0,0,,,,,,,,,,,,,,,,,,,0.0,,0.0,0.0,0.0,180.0,0.0,0.0,0.0,0,0.0,0.0,0.0,0.0,NaN,NaN,NaN,-0.0,0.0,0.0,0,0,100,Manual,OTHER,NONE,GPS_POSITION_NONMATCH,False,Connected,,P,False,False,True,0,0,,0.0,0.1,,,,,
36980648,6.409,,,32.772694,32.761703,,,0,0.11244301062914915,0.23213286265433972,-0.03880314124650424,0.004036001,-3.828656E-4,-1.001602,1.0016103,-1.0389059,0.9145126,0.44620863,1.4542217,8.426275E-5,5.189168E-4,0.0012898474,0.001392868,5.257136697396838E-4,0,0,0,0.0,56.42,-0.03880314124650424,0.2579318124075081,154.1161726867275,154.154975827974,359.9611968587535,NaN,NaN,0.0,0.0,0.0,-0.0,NaN,NaN,NaN,NaN,NaN,NaN,NaN,NaN,false,false,2.883039600127052,-6.184142972391371,5.154148819491702,,0.0,,,0.99999744,9.819341E-4,0.0020254066,-3.3663266E-4,6.6131353E-4,0.014520907,0.0013885498,-0.017065631,0.014421638,0.009358442,300,5017,0,0,4971,620,0.0,0.0,0.0,0.0,GPS_Atti,4,0,0,0,0,10,5000,0.0,0.0,17,5,3,2,0,0,,,,,,,,,,,,,,,,,,,0.0,,0.0,0.0,0.0,180.0,0.0,0.0,0.0,0,0.99999577,0.0010041615,0.0021048917,-0.0017749282,-0.1154961315248598,-0.24099870198004822,0.20314950776655236,32.83181,-0.019622955,-0.008191852,0,0,2492,GPS_Atti,OTHER,NONE,GPS_POSITION_NONMATCH,False,Connected,,P,False,False,False,0,0,0.1,0.0,0.1,,,,,
37203251,6.459,,,32.78326,32.761417,,,0,0.11255236378143131,0.22907373223937616,-0.0406643592918581,0.003256874,-0.0012284287,-1.0017133,1.0017194,-0.9542782,0.9312431,0.49565798,1.422511,-4.5309447E-5,6.132169E-4,5.623653E-4,8.3327224E-4,6.148885413689593E-4,0,0,0,0.0,56.47,-0.0406643592918581,0.2552303653642384,153.79284049857264,153.8335048578645,359.95933564070816,NaN,NaN,0.0,0.0,0.0,-0.0,NaN,NaN,NaN,NaN,NaN,NaN,NaN,NaN,false,false,2.907578903673542,-6.236073200728768,5.20223796395522,,0.0,,,0.9999975,9.829119E-4,0.0019986944,-3.528991E-4,-0.010792681,0.01315752,0.0028924942,-0.017055674,0.014419312,0.009355531,300,5017,0,0,5011,620,0.0,0.0,0.0,0.0,GPS_Atti,4,0,0,0,0,10,5000,0.0,0.0,17,5,3,2,0,0,,,,,,,,,,,,,,,,,,,0.0,,0.0,0.0,0.0,180.0,0.0,0.0,0.0,0,0.99999577,0.0010041615,0.0021048917,-0.0017749282,-0.1154961315248598,-0.24099870198004822,0.20314950776655236,32.83181,-0.019622955,-0.008191852,0,0,2492,GPS_Atti,OTHER,NONE,GPS_POSITION_NONMATCH,False,Connected,,P,False,False,False,0,0,0.1,0.0,0.1,,,,,
37405338,6.504,,,32.78326,32.761417,,,0,0.11255236378143131,0.22907373223937616,-0.0406643592918581,0.003256874,-0.0012284287,-1.0017133,1.0017194,-0.9542782,0.9312431,0.49565798,1.422511,-4.5309447E-5,6.132169E-4,5.623653E-4,8.3327224E-4,6.148885413689593E-4,0,0,0,0.0,56.47,-0.0406643592918581,0.2552303653642384,153.79284049857264,153.8335048578645,359.95933564070816,NaN,NaN,0.0,0.0,0.0,-0.0,NaN,NaN,NaN,NaN,NaN,NaN,NaN,NaN,false,false,2.907578903673542,-6.236073200728768,5.20223796395522,,0.0,,,0.9999975,9.829119E-4,0.0019986944,-3.528991E-4,-0.010792681,0.01315752,0.0028924942,-0.017055674,0.014419312,0.009355531,300,5017,0,0,5011,630,0.0,0.0,0.0,0.0,GPS_Atti,4,0,0,0,0,10,5000,0.0,0.0,17,5,3,2,0,0,,,,,,,1.0000001E-6,0.0,1.0,1.0000001E-6,0.0,1.0000001E-6,1.0000001E-6,0.0,0.019251337,1.0000001E-6,-5.9127808E-5,1.0000001E-6,-0.1,0.020000001,0.0,0.0,0.0,180.0,0.0,0.0,0.0,0,0.9999957,0.0010015436,0.002071185,-0.0018243336,-0.11520101097762976,-0.2371310662489364,0.20881549205588013,32.831406,-0.021376401,-0.0065759737,0,0,2512,GPS_Atti,OTHER,NONE,GPS_POSITION_NONMATCH,False,Connected,,P,False,False,False,0,0,0.1,0.0,0.1,,,,,
37597496,6.546,,,32.748913,32.76112,,,0,0.10952070737485105,0.22817836805339212,-0.04151814505524896,0.005433712,-0.0019898901,-0.99998116,0.9999979,-1.0349903,0.7869603,0.58207697,1.4245437,3.6604854E-4,4.1034474E-4,0.0015502963,0.0016449295,5.49885770153286E-4,0,0,0,0.0,56.47,-0.04151814505524896,0.2531005715990678,154.31856887262705,154.3600870176823,359.95848185494475,NaN,NaN,0.0,0.0,0.0,-0.0,NaN,NaN,NaN,NaN,NaN,NaN,NaN,NaN,false,false,2.935604148200813,-6.287801815241565,5.246917846768277,,0.0,,,0.99999756,9.564679E-4,0.0019908831,-3.6041014E-4,0.011751037,0.0010389881,0.013062477,-0.017046679,0.014418253,0.0093507795,300,5019,0,0,5051,630,0.0,0.0,0.0,0.0,GPS_Atti,4,0,0,0,0,10,5000,0.0,0.0,17,5,3,2,0,0,,,,,,,1.0000001E-6,0.0,1.0,1.0000001E-6,0.0,1.0000001E-6,1.0000001E-6,0.0,0.019251337,1.0000001E-6,-5.9127808E-5,1.0000001E-6,-0.1,0.020000001,0.0,0.0,0.0,180.0,0.0,0.0,0.0,0,0.9999957,9.736224E-4,0.002068509,-0.0018653084,-0.11201062529407885,-0.23682562533743567,0.21351774670769058,32.83167,-0.02175688,0.003601702,0,0,2532,GPS_Atti,OTHER,NONE,GPS_POSITION_NONMATCH,False,Connected,,P,False,False,False,0,0,0.1,0.0,0.1,,,,,
37763114,6.583,,,32.743626,32.76091,,,0,0.11002438306604044,0.2249196019228253,-0.04074583894249696,0.0052748406,-7.5174734E-4,-0.999831,0.9998452,-0.9510248,0.80764,0.45087007,1.3266553,7.805687E-5,4.5975382E-4,0.0014557921,0.0015286587,4.6633298208558714E-4,0,0,0,0.0,56.61,-0.04074583894249696,0.2503875864968984,153.892754374146,153.9335002130885,359.9592541610575,NaN,NaN,0.0,0.0,0.0,-0.0,NaN,NaN,NaN,NaN,NaN,NaN,NaN,NaN,false,false,2.9625376321322143,-6.33958598571725,5.288496108473062,,0.0,,,0.99999756,9.6083974E-4,0.00196245,-3.536891E-4,0.012972191,0.011072813,0.01617527,-0.017038232,0.0144158555,0.00934549,300,5019,0,0,5091,630,0.0,0.0,0.0,0.0,GPS_Atti,4,0,0,0,0,10,5000,0.0,0.0,17,5,3,2,0,0,,,,,,,1.0000001E-6,0.0,1.0,1.0000001E-6,0.0,1.0000001E-6,1.0000001E-6,0.0,0.018825332,1.0000001E-6,-2.193451E-5,1.0000001E-6,-0.1,0.020000001,0.0,0.0,0.0,180.0,0.0,0.0,0.0,0,0.9999957,9.829099E-4,0.002033012,-0.0018921534,-0.11307356770673323,-0.23275294268094301,0.2165957895472035,32.83086,-0.020574225,0.0070011495,0,0,2552,GPS_Atti,OTHER,NONE,GPS_POSITION_NONMATCH,False,Connected,,P,False,False,False,0,0,0.1,0.0,0.1,,,,,
37917937,6.618,,,32.738342,32.76065,,,0,0.11115194761742807,0.22341568403637765,-0.04105706627510136,0.0041799704,-0.0012689901,-1.0006255,1.000635,-0.7854275,0.8239599,0.6292936,1.3006986,-2.9960522E-4,3.9415993E-4,0.0017533405,0.0018219023,4.951013382540823E-4,0,0,0,0.0,56.6,-0.04105706627510136,0.2495377183219664,153.50814131366494,153.54919837994004,359.95894293372487,NaN,NaN,0.0,0.0,0.0,-0.0,NaN,NaN,NaN,NaN,NaN,NaN,NaN,NaN,false,false,2.9906389097813992,-6.384761108943891,5.330943417544411,,0.0,,,0.99999756,9.706802E-4,0.0019493198,-3.563985E-4,0.0030507091,0.0069904053,0.012009621,-0.017030468,0.014413702,0.009341685,300,5022,0,0,5131,640,0.0,0.0,0.0,0.0,GPS_Atti,4,0,0,0,0,10,5000,0.0,0.0,17,5,3,2,0,0,,,,,,,1.0000001E-6,0.0,1.0,1.0000001E-6,0.0,1.0000001E-6,1.0000001E-6,0.0,0.018825332,1.0000001E-6,-2.193451E-5,1.0000001E-6,-0.1,0.020000001,0.0,0.0,0.0,180.0,0.0,0.0,0.0,0,0.99999565,9.985846E-4,0.0020106914,-0.0019283951,-0.11487325156708122,-0.2301876557350804,0.22074772511449536,32.82756,-0.014638154,0.0033759195,0,0,2572,GPS_Atti,OTHER,NONE,GPS_POSITION_NONMATCH,False,Connected,,P,False,False,False,0,0,0.1,0.0,0.1,,,,,
38140369,6.667,,,32.75684,32.760277,,,0,0.2454968526877138,0.2434236105836619,-0.13607454072688951,0.032983053,-0.019642882,-0.99407834,0.9948193,4.9727955,1.3161854,1.1106564,5.2625656,0.0013643003,-0.003333448,0.003955298,0.0053495397,0.0036018315727095233,0,0,0,0.0,56.53,-0.13607454072688951,0.34571998556357275,134.62096415780027,134.75703869852717,359.8639254592731,NaN,NaN,0.0,0.0,0.0,-0.0,NaN,NaN,NaN,NaN,NaN,NaN,NaN,NaN,false,false,3.035929919025211,-6.275763654097446,5.38665153437487,,0.0,,,0.99999475,0.0021448787,0.0021217198,-0.0011829177,0.15954953,-1.4387444E-4,0.044080734,-0.017023526,0.014411639,0.009338629,300,5020,0,0,5171,640,0.0,0.0,0.0,0.0,GPS_Atti,4,0,0,0,0,10,5000,0.0,0.0,17,5,3,2,0,0,,,,,,,1.0000001E-6,0.0,1.0,1.0000001E-6,0.0,1.0000001E-6,1.0000001E-6,0.0,0.018825332,1.0000001E-6,-2.193451E-5,1.0000001E-6,-0.1,0.020000001,0.0,0.0,0.0,180.0,0.0,0.0,0.0,0,0.99999565,9.985846E-4,0.0020106914,-0.0019283951,-0.11487325156708122,-0.2301876557350804,0.22074772511449536,32.82756,-0.014638154,0.0033759195,0,0,2572,GPS_Atti,OTHER,NONE,GPS_POSITION_NONMATCH,False,Connected,,P,False,False,False,0,0,0.1,0.0,0.1,,,,,
38700646,6.792,,,32.75684,32.760277,,,0,0.2454968526877138,0.2434236105836619,-0.13607454072688951,0.032983053,-0.019642882,-0.99407834,0.9948193,4.9727955,1.3161854,1.1106564,5.2625656,0.0013643003,-0.003333448,0.003955298,0.0053495397,0.0036018315727095233,0,0,0,0.0,56.53,-0.13607454072688951,0.34571998556357275,134.62096415780027,134.75703869852717,359.8639254592731,NaN,NaN,0.0,0.0,0.0,-0.0,NaN,NaN,NaN,NaN,NaN,NaN,NaN,NaN,false,false,3.035929919025211,-6.275763654097446,5.38665153437487,,0.0,,,0.99999475,0.0021448787,0.0021217198,-0.0011829177,0.15954953,-1.4387444E-4,0.044080734,-0.017023526,0.014411639,0.009338629,300,5020,0,0,5171,640,0.0,0.0,0.0,0.0,GPS_Atti,4,0,0,0,0,10,5000,0.0,0.0,17,5,3,2,0,0,,,,,,,1.0000001E-6,0.0,1.0,1.0000001E-6,0.0,1.0000001E-6,1.0000001E-6,0.0,0.05275335,1.0000001E-6,-0.19573402,1.0000001E-6,-0.1,0.020000001,0.0,0.0,0.0,180.0,0.0,0.0,0.0,0,0.99999106,0.002221285,0.0022635537,-0.0027929167,-0.2552635126119697,-0.25867437276437555,0.31947049507000325,32.8259,-0.01298871,0.035615936,0,0,2592,GPS_Atti,OTHER,NONE,GPS_POSITION_NONMATCH,False,Connected,,P,False,False,False,0,0,0.1,0.0,0.1,,,,,
38855310,6.826,,,32.828182,32.767998,,,0,5.1461350382484135,1.0449395129148145,74.78909443217898,0.42784792,0.21385942,-0.8016302,0.9334884,9.762862,-44.994194,41.571545,62.032124,0.12158031,-0.06785603,-0.09256398,0.16719541,0.13923438250952952,0,0,0,0.0,56.73,74.78909443217898,5.250038799751931,176.2383092630939,101.44921483091493,74.78909443217901,NaN,NaN,0.0,0.0,0.0,-0.0,NaN,NaN,NaN,NaN,NaN,NaN,NaN,NaN,false,false,6.371413087461992,-5.124217177493065,1.973349050909043,,0.0,,,0.7933898,0.03013289,0.034499887,0.60698795,-2.2287586,4.934979,4.666004,-0.017029338,0.014410823,0.009331165,300,5021,0,0,5291,660,0.0,0.0,0.0,0.0,GPS_Atti,2,0,0,0,0,10,5000,0.0,0.0,17,5,3,2,0,0,,,,,,,1.0000001E-6,0.0,1.0,1.0000001E-6,0.0,1.0000001E-6,1.0000001E-6,0.0,0.05275335,1.0000001E-6,-0.19573402,1.0000001E-6,-0.1,0.020000001,0.0,0.0,0.0,180.0,0.0,0.0,0.0,0,0.7951772,0.03451082,0.033417966,0.60447127,-0.8299031381986798,-5.444294991361735,-74.52159776076054,32.838936,-0.14331503,4.7051215,0,0,2652,GPS_Atti,OTHER,NONE,GPS_POSITION_NONMATCH,False,Connected,,P,False,False,False,0,0,0.1,0.0,0.1,,,,,
39077749,6.875,,,32.84932,32.77894,,,0,1.5345327499926493,8.701391465460166,79.7854623339093,0.15694177,-0.22666602,-1.0662483,1.1013145,-156.46825,191.6756,10.72904,247.663,0.025113203,0.1105801,-0.2735567,0.29612818,0.11339590830648297,0,0,0,0.0,56.6,79.7854623339093,8.831614664410374,-110.14294158776332,170.07159607832736,79.78546233390932,NaN,NaN,0.0,0.0,0.0,-0.0,NaN,NaN,NaN,NaN,NaN,NaN,NaN,NaN,false,false,7.731553694356666,-8.939469935449452,5.787978176008643,,0.0,,,0.76431555,-0.038404737,0.06676243,0.64022624,3.9848223,-0.09608117,-2.0494823,-0.017028186,0.01441141,0.0093311705,300,5022,0,0,5331,660,0.0,0.0,0.0,0.0,GPS_Atti,2,0,0,0,0,10,5000,0.0,0.0,17,5,3,2,0,0,,,,,,,1.0000001E-6,0.0,1.0,1.0000001E-6,0.0,1.0000001E-6,1.0000001E-6,0.0,0.05275335,1.0000001E-6,-0.19573402,1.0000001E-6,-0.1,0.020000001,0.0,0.0,0.0,180.0,0.0,0.0,0.0,0,0.7951772,0.03451082,0.033417966,0.60447127,-0.8299031381986798,-5.444294991361735,-74.52159776076054,32.838936,-0.14331503,4.7051215,0,0,2652,GPS_Atti,OTHER,NONE,GPS_POSITION_NONMATCH,False,Connected,,P,False,False,False,0,0,0.1,0.0,0.1,,,,,
39280352,6.920,,,32.84932,32.77894,,,0,1.5345327499926493,8.701391465460166,79.7854623339093,0.15694177,-0.22666602,-1.0662483,1.1013145,-156.46825,191.6756,10.72904,247.663,0.025113203,0.1105801,-0.2735567,0.29612818,0.11339590830648297,0,0,0,0.0,56.6,79.7854623339093,8.831614664410374,-110.14294158776332,170.07159607832736,79.78546233390932,NaN,NaN,0.0,0.0,0.0,-0.0,NaN,NaN,NaN,NaN,NaN,NaN,NaN,NaN,false,false,7.731553694356666,-8.939469935449452,5.787978176008643,,0.0,,,0.76431555,-0.038404737,0.06676243,0.64022624,3.9848223,-0.09608117,-2.0494823,-0.017028186,0.01441141,0.0093311705,300,5022,0,0,5331,670,0.0,0.0,0.0,0.0,GPS_Atti,2,0,0,0,0,10,5000,0.0,0.0,17,5,3,2,0,0,,,,,,,1.0000001E-6,0.0,1.0,1.0000001E-6,0.0,1.0000001E-6,1.0000001E-6,0.0,2.2652888,1.0000001E-6,-4.371913,1.0000001E-6,-0.1,0.020000001,0.0,0.0,0.0,180.0,0.0,0.0,0.0,0,0.76627225,-0.03668088,0.06549877,0.63811535,8.03665702999475,-3.1010908545779587,-79.3539745807274,32.8517,-0.28791356,-2.0575292,0,0,2672,GPS_Atti,OTHER,NONE,GPS_POSITION_NONMATCH,False,Connected,,P,False,False,False,0,0,0.1,0.0,0.1,,,,,
39446786,6.957,,,32.854603,32.80936,,,0,5.638525178625182,24.742776698599688,80.49438536005403,0.28208205,-0.102333464,-0.7713694,0.8276794,170.9639,71.96072,93.88282,207.89658,0.08877511,0.038626283,-0.19872391,0.22105248,0.09681431230716692,0,0,0,0.0,56.71,80.49438536005403,25.23498859184905,-111.59745289393177,167.90816174601417,80.49438536005403,NaN,NaN,0.0,0.0,0.0,-0.0,NaN,NaN,NaN,NaN,NaN,NaN,NaN,NaN,false,false,10.464982700696641,-8.560709501642705,12.676596225507843,,0.0,,,0.7378299,-0.10158511,0.1943698,0.6383634,-0.21674937,-0.258006,2.9442148,-0.017029919,0.014415132,0.0093311155,500,5023,0,0,5371,670,0.0,0.0,0.0,0.0,GPS_Atti,2,0,0,0,0,10,5000,0.0,0.0,17,5,3,2,0,0,,,,,,,1.0000001E-6,0.0,1.0,1.0000001E-6,0.0,1.0000001E-6,1.0000001E-6,0.0,2.2652888,1.0000001E-6,-4.371913,1.0000001E-6,-0.1,0.020000001,0.0,0.0,0.0,180.0,0.0,0.0,0.0,0,0.74006957,-0.09801257,0.19268514,0.6368383,22.985040938813405,-10.031776605570105,-79.38010618034527,32.88326,-0.23419432,2.9353087,0,0,2692,GPS_Atti,OTHER,NONE,GPS_POSITION_NONMATCH,False,Connected,,P,False,False,False,0,0,0.1,0.0,0.1,,,,,
39638115,7.000,,,32.8731,32.824905,,,0,13.632771134409444,33.80760905657335,78.59902297814077,0.47687712,-0.12621747,-0.8002746,0.94009686,-60.122967,20.98244,12.036434,64.80672,0.10342091,0.012555537,-0.15662037,0.18810494,0.1041802581225095,0,0,0,0.0,56.86,78.59902297814077,35.458526061643475,-121.31057376214979,160.09040325970943,78.59902297814074,NaN,NaN,0.0,0.0,0.0,-0.0,NaN,NaN,NaN,NaN,NaN,NaN,NaN,NaN,false,false,13.221158517503358,-5.676464371934927,15.095114783697888,,0.0,,,0.71331954,-0.094983935,0.29534328,0.6284311,-0.7170727,0.061836123,0.7883549,-0.017030621,0.014415389,0.009331102,400,5022,0,0,5411,670,0.0,0.0,0.0,0.0,GPS_Atti,2,0,0,0,0,10,5000,0.0,0.0,17,5,3,2,0,0,,,,,,,1.0000001E-6,0.0,1.0,1.0000001E-6,0.0,1.0000001E-6,1.0000001E-6,0.0,0.120352745,1.0000001E-6,1.7388334,1.0000001E-6,-0.1,0.020000001,0.0,0.0,0.0,180.0,0.0,0.0,0.0,0,0.7154452,-0.09068983,0.2936453,0.62744397,29.884892751810703,-20.69265503176474,-76.92267551713589,32.900692,-0.18231794,0.78338057,0,0,2712,GPS_Atti,OTHER,NONE,GPS_POSITION_NONMATCH,False,Connected,,P,False,False,False,0,0,0.1,0.0,0.1,,,,,
39793319,7.034,,,32.9418,32.833473,,,0,16.114658209497726,35.17957425933267,84.76142997521876,0.47926396,-0.1236354,-0.687133,0.84683615,-23.342096,35.741364,45.493492,62.385544,0.038428865,0.04489524,-0.067448996,0.08967568,0.059096194768556834,0,0,0,0.0,56.8,84.76142997521876,37.3001286692033,-117.52579662443127,157.71277340035,84.76142997521879,NaN,NaN,0.0,0.0,0.0,-0.0,NaN,NaN,NaN,NaN,NaN,NaN,NaN,NaN,false,false,14.716005216236812,-7.845204748492179,16.569015365720794,,0.0,,,0.6686426,-0.10299249,0.31108674,0.6674839,-0.6632303,-0.10406166,0.77885246,-0.017033167,0.014413846,0.009331024,300,5022,0,0,5451,680,0.0,0.0,0.0,0.0,GPS_Atti,2,0,0,0,0,10,5000,0.0,0.0,17,5,3,2,0,0,,,,,,,1.0000001E-6,0.0,1.0,1.0000001E-6,0.0,1.0000001E-6,1.0000001E-6,0.0,0.120352745,1.0000001E-6,1.7388334,1.0000001E-6,-0.1,0.020000001,0.0,0.0,0.0,180.0,0.0,0.0,0.0,0,0.67131275,-0.10014122,0.3088353,0.666282,33.092681038961125,-19.612203551949015,-83.68995746275121,32.913895,-0.1006379,0.7701991,0,0,2732,GPS_Atti,OTHER,NONE,GPS_POSITION_NONMATCH,False,Connected,,P,False,False,False,0,0,0.1,0.0,0.1,,,,,
40410308,7.171,,,32.9418,32.833473,,,0,16.114658209497726,35.17957425933267,84.76142997521876,0.47926396,-0.1236354,-0.687133,0.84683615,-23.342096,35.741364,45.493492,62.385544,0.038428865,0.04489524,-0.067448996,0.08967568,0.059096194768556834,0,0,0,0.0,56.8,84.76142997521876,37.3001286692033,-117.52579662443127,157.71277340035,84.76142997521879,NaN,NaN,0.0,0.0,0.0,-0.0,NaN,NaN,NaN,NaN,NaN,NaN,NaN,NaN,false,false,14.716005216236812,-7.845204748492179,16.569015365720794,,0.0,,,0.6686426,-0.10299249,0.31108674,0.6674839,-0.6632303,-0.10406166,0.77885246,-0.017033167,0.014413846,0.009331024,300,5022,0,0,5451,680,0.0,0.0,0.0,0.0,GPS_Atti,2,0,0,0,0,10,5000,0.0,0.0,17,5,3,2,0,0,,,,,,,1.0000001E-6,0.0,1.0,1.0000001E-6,0.0,1.0000001E-6,1.0000001E-6,0.0,0.120352745,1.0000001E-6,1.7388334,1.0000001E-6,-0.1,0.020000001,0.0,0.0,0.0,180.0,0.0,0.0,0.0,0,0.67131275,-0.10014122,0.3088353,0.666282,33.092681038961125,-19.612203551949015,-83.68995746275121,32.913895,-0.1006379,0.7701991,0,0,2732,GPS_Atti,OTHER,NONE,GPS_POSITION_NONMATCH,False,Connected,,P,False,False,False,0,0,0.1,0.0,0.1,,,,,
40575630,7.208,,,32.944443,32.82974,,,0,18.971364017171837,37.54030542726076,90.59919831544919,0.44807,-0.33339557,-0.7428885,0.92940986,-22.87757,11.815093,0.9634116,25.766407,-0.0384484,-0.027174547,0.058316,0.07494992,0.04708221945791876,0,0,0,0.0,56.99,90.59919831544919,40.09182280442358,-113.50244750894406,155.89835417560676,90.5991983154492,NaN,NaN,0.0,0.0,0.0,-0.0,NaN,NaN,NaN,NaN,NaN,NaN,NaN,NaN,false,false,18.347023640983696,-11.457680904847294,20.285973579606186,,0.0,,,0.6191922,-0.115830876,0.33414987,0.70109063,0.19148898,-1.0388682,0.96102905,-0.017028369,0.014419091,0.009331448,300,5026,0,0,5571,680,0.0,0.0,0.0,0.0,GPS_Atti,2,0,0,0,0,10,5000,0.0,0.0,17,5,3,2,0,0,,,,,,,1.0000001E-6,0.0,971.2289,1.0000001E-6,0.0,1.0000001E-6,1.0000001E-6,0.0,-0.51924086,1.0000001E-6,0.1065855,1.0000001E-6,-0.1,0.020000001,0.0,0.0,0.0,180.0,0.0,0.0,0.0,0,0.6227938,-0.112797864,0.3300759,0.70032454,37.07214041660499,-18.498339250770464,-90.45640186778469,32.915913,0.018632019,0.9449874,0,0,2792,GPS_Atti,OTHER,NONE,GPS_POSITION_NONMATCH,False,Connected,,P,False,False,False,0,0,0.1,0.0,0.1,,,,,
40730738,7.243,,,32.91009,32.8223,,,0,16.695338154671035,37.2096177696271,91.56102416202572,0.46208408,-0.32650542,-0.7402029,0.9316801,-6.348201,-9.280422,25.106314,27.509142,-0.033560704,-0.06926523,0.13739552,0.157485,0.07696748287332666,0,0,0,0.0,56.94,91.56102416202572,39.2280304535531,-109.99298617117692,158.44598966679737,91.56102416202572,NaN,NaN,0.0,0.0,0.0,-0.0,NaN,NaN,NaN,NaN,NaN,NaN,NaN,NaN,false,false,19.026776334517127,-12.219725599250197,20.352063624731024,,0.0,,,0.620766,-0.13026595,0.31875217,0.70432764,0.3819983,-0.9612726,0.968256,-0.017028887,0.014419473,0.009331422,400,5026,0,0,5611,700,0.0,0.0,0.0,0.0,GPS_Atti,2,0,0,0,0,10,5000,0.0,0.0,17,5,3,2,0,0,,,,,,,1.0000001E-6,0.0,971.2289,1.0000001E-6,0.0,1.0000001E-6,1.0000001E-6,0.0,-0.51924086,1.0000001E-6,0.1065855,1.0000001E-6,-0.1,0.020000001,0.0,0.0,0.0,180.0,0.0,0.0,0.0,0,0.62438476,-0.12672654,0.3143584,0.7037492,36.9208470113692,-15.540592486205275,-91.62312269414372,32.90718,0.09945627,0.9528652,0,0,2812,GPS_Atti,OTHER,NONE,GPS_POSITION_NONMATCH,False,Connected,,P,False,False,False,0,0,0.1,0.0,0.1,,,,,
40953408,7.292,,,32.931232,32.806557,,,0,12.261109430923351,33.58172915264445,89.02435911373506,0.44349983,-0.35928214,-0.99374264,1.1459931,-47.643852,-32.293137,-53.525597,78.59881,0.051291183,-0.2325626,0.19312121,0.30661368,0.23815152279635063,0,0,0,0.0,56.94,89.02435911373506,34.938224529803485,-109.10024860593572,161.8753922803292,89.02435911373504,NaN,NaN,0.0,0.0,0.0,-0.0,NaN,NaN,NaN,NaN,NaN,NaN,NaN,NaN,false,false,18.28676311595955,-13.625631338065105,19.269524591149754,,0.0,,,0.65716636,-0.12845531,0.27649936,0.68933284,0.85476995,-2.3426456,-1.2881889,-0.017029155,0.014419952,0.009331429,400,5026,0,0,5651,700,0.0,0.0,0.0,0.0,GPS_Atti,2,0,0,0,0,10,5000,0.0,0.0,17,5,3,2,0,0,,,,,,,1.0000001E-6,0.0,971.2289,1.0000001E-6,0.0,1.0000001E-6,1.0000001E-6,0.0,-0.51924086,1.0000001E-6,0.1065855,1.0000001E-6,-0.1,0.020000001,0.0,0.0,0.0,180.0,0.0,0.0,0.0,0,0.62438476,-0.12672654,0.3143584,0.7037492,36.9208470113692,-15.540592486205275,-91.62312269414372,32.90718,0.09945627,0.9528652,0,0,2812,GPS_Atti,OTHER,NONE,GPS_POSITION_NONMATCH,False,Connected,,P,False,False,False,0,0,0.1,0.0,0.1,,,,,
41111994,7.327,,,32.931232,32.806557,,,0,12.261109430923351,33.58172915264445,89.02435911373506,0.44349983,-0.35928214,-0.99374264,1.1459931,-47.643852,-32.293137,-53.525597,78.59881,0.051291183,-0.2325626,0.19312121,0.30661368,0.23815152279635063,0,0,0,0.0,56.94,89.02435911373506,34.938224529803485,-109.10024860593572,161.8753922803292,89.02435911373504,NaN,NaN,0.0,0.0,0.0,-0.0,NaN,NaN,NaN,NaN,NaN,NaN,NaN,NaN,false,false,18.28676311595955,-13.625631338065105,19.269524591149754,,0.0,,,0.65716636,-0.12845531,0.27649936,0.68933284,0.85476995,-2.3426456,-1.2881889,-0.017029155,0.014419952,0.009331429,400,5026,0,0,5651,700,0.0,0.0,0.0,0.0,GPS_Atti,2,0,0,0,0,10,5000,0.0,0.0,17,5,3,2,0,0,,,,,,,1.0000001E-6,0.0,915.4622,1.0000001E-6,0.0,1.0000001E-6,1.0000001E-6,0.0,-1.1266103,1.0000001E-6,-1.8538179,1.0000001E-6,-0.1,0.020000001,0.0,0.0,0.0,180.0,0.0,0.0,0.0,0,0.65974605,-0.12215732,0.2713143,0.6900735,32.387267526745696,-12.961196878920214,-88.79539678695573,32.89028,0.16434994,-1.3319252,0,0,2832,GPS_Atti,OTHER,NONE,GPS_POSITION_NONMATCH,False,Connected,,P,False,False,False,0,0,0.1,0.0,0.1,,,,,
41321789,7.374,,,32.91538,32.779152,,,0,-1.1246091181347697,22.909863731383176,67.10735894672717,0.3278799,0.07194681,-1.437384,1.4760604,67.38031,-173.01062,-373.61194,417.20337,0.44580895,-0.93606466,0.44773632,1.1293496,1.0368040968167933,0,0,0,0.0,56.94,67.10735894672717,22.93201193685022,-110.23316631563529,-177.34052526236246,67.10735894672717,NaN,NaN,0.0,0.0,0.0,-0.0,NaN,NaN,NaN,NaN,NaN,NaN,NaN,NaN,false,false,7.167531198839061,-13.11185244076809,13.9250631547445,,0.0,,,0.8178066,-0.117778584,0.16018027,0.5400582,-1.158276,-2.8595915,-3.3642426,-0.017054595,0.0144157605,0.009327711,400,5025,0,0,5691,710,0.0,0.0,0.0,0.0,GPS_Atti,2,0,0,0,0,10,5000,0.0,0.0,17,5,3,2,0,0,,,,,,,1.0000001E-6,0.0,915.4622,1.0000001E-6,0.0,1.0000001E-6,1.0000001E-6,0.0,-1.1266103,1.0000001E-6,-1.8538179,1.0000001E-6,-0.1,0.020000001,0.0,0.0,0.0,180.0,0.0,0.0,0.0,0,0.817877,-0.10109919,0.15555912,0.54466283,19.56207483698463,-8.81052817820502,-65.80127888615552,32.864296,0.4048625,-3.4452343,0,0,2852,GPS_Atti,OTHER,NONE,GPS_POSITION_NONMATCH,False,Connected,,P,False,False,False,0,0,0.1,0.0,0.1,,,,,
41513125,7.417,,,32.82554,32.758327,,,0,2.5218004963718856,12.158655565404624,35.60025377127624,0.82481337,0.6911958,-1.1861511,1.6015689,129.15143,-16.15183,-384.4585,405.89322,0.4103247,-1.0542583,0.14148259,1.1401072,1.1312943908243478,0,0,0,0.0,57.02,35.60025377127624,12.402382967273244,-155.95281839437834,168.44692783434542,35.60025377127624,NaN,NaN,0.0,0.0,0.0,-0.0,NaN,NaN,NaN,NaN,NaN,NaN,NaN,NaN,false,false,-12.57810358986644,-7.992745097278785,8.99790533574717,,0.0,,,0.9458325,-0.011533294,0.107500136,0.30612352,0.33329332,7.5190153,-4.2432117,-0.01706419,0.014415313,0.009326275,400,5029,0,0,5731,710,0.0,0.0,0.0,0.0,GPS_Atti,2,0,0,0,0,10,5000,0.0,0.0,17,5,3,2,0,0,,,,,,,1.0000001E-6,0.0,900.96497,1.0000001E-6,0.0,1.0000001E-6,1.0000001E-6,0.0,5.4583035,1.0000001E-6,-1.9086885,1.0000001E-6,-0.1,0.020000001,0.0,0.0,0.0,180.0,0.0,0.0,0.0,0,0.9447665,0.006708896,0.106859334,0.30976155,3.0682314484630355,-11.909499319961949,-35.98552750916073,32.84289,0.107592925,-3.9732082,0,0,2872,GPS_Atti,OTHER,NONE,GPS_POSITION_NONMATCH,False,Connected,,P,False,False,False,0,0,0.1,0.0,0.1,,,,,
41981870,7.521,,,32.82554,32.758327,,,0,2.5218004963718856,12.158655565404624,35.60025377127624,0.82481337,0.6911958,-1.1861511,1.6015689,129.15143,-16.15183,-384.4585,405.89322,0.4103247,-1.0542583,0.14148259,1.1401072,1.1312943908243478,0,0,0,0.0,57.02,35.60025377127624,12.402382967273244,-155.95281839437834,168.44692783434542,35.60025377127624,NaN,NaN,0.0,0.0,0.0,-0.0,NaN,NaN,NaN,NaN,NaN,NaN,NaN,NaN,false,false,-12.57810358986644,-7.992745097278785,8.99790533574717,,0.0,,,0.9458325,-0.011533294,0.107500136,0.30612352,0.33329332,7.5190153,-4.2432117,-0.01706419,0.014415313,0.009326275,400,5029,0,0,5731,710,0.0,0.0,0.0,0.0,GPS_Atti,2,0,0,0,0,10,5000,0.0,0.0,17,5,3,2,0,0,,,,,,,1.0000001E-6,0.0,900.96497,1.0000001E-6,0.0,1.0000001E-6,1.0000001E-6,0.0,5.4583035,1.0000001E-6,-1.9086885,1.0000001E-6,-0.1,0.020000001,0.0,0.0,0.0,180.0,0.0,0.0,0.0,0,0.9447665,0.006708896,0.106859334,0.30976155,3.0682314484630355,-11.909499319961949,-35.98552750916073,32.84289,0.107592925,-3.9732082,0,0,2872,GPS_Atti,OTHER,NONE,GPS_POSITION_NONMATCH,False,Connected,,P,False,False,False,0,0,0.1,0.0,0.1,,,,,
42136681,7.555,,,32.785904,32.73006,,,0,0.1285922823565347,-0.0815540694300593,-7.580763955876229,-0.042057984,0.016334744,-1.0142719,1.0152749,0.16607763,2.01845,1.1792936,2.3435988,0.0401059,-0.108432226,0.023621986,0.11800013,0.11561155418237401,0,0,0,0.0,57.05,-7.580763955876229,0.1522727705552178,50.03612357659419,57.61688753247042,352.41923604412375,NaN,NaN,0.0,0.0,0.0,-0.0,NaN,NaN,NaN,NaN,NaN,NaN,NaN,NaN,false,false,-42.51521185858583,2.107965165249041,7.893977587909127,,0.0,,,0.9978117,0.0010726767,-7.843194E-4,-0.06610714,-0.66750103,0.7544149,-0.14757729,-0.017038692,0.014454051,0.009334739,400,5030,0,0,5851,730,0.0,0.0,0.0,0.0,GPS_Atti,2,0,0,0,0,10,5000,0.0,0.0,17,5,3,2,0,0,,,,,,,1.0000001E-6,0.0,900.96497,1.0000001E-6,0.0,1.0000001E-6,1.0000001E-6,0.0,5.4583035,1.0000001E-6,-1.9086885,1.0000001E-6,-0.1,0.020000001,0.0,0.0,0.0,180.0,0.0,0.0,0.0,0,0.9976314,0.005964349,-0.0011523856,-0.06851937,-0.6728123032379112,0.17858394820798623,7.8590900772481325,32.808098,0.014685612,-0.1410156,0,0,2932,GPS_Atti,OTHER,NONE,GPS_POSITION_NONMATCH,False,Connected,,P,False,False,False,0,0,0.1,0.0,0.1,,,,,
42359104,7.605,,,32.81497,32.73549,,,0,0.2651876980986155,0.006055762358733595,-4.740728961133773,0.15772751,-0.10442398,-1.0304631,1.0476816,1.6286547,8.57235,108.80147,109.1508,-0.05112495,0.012985383,0.010783419,0.05383923,0.05274827429597781,0,0,0,0.0,57.17,-4.740728961133773,0.2652568310772367,86.56742695854703,91.30815591968081,355.25927103886625,NaN,NaN,0.0,0.0,0.0,-0.0,NaN,NaN,NaN,NaN,NaN,NaN,NaN,NaN,false,false,-39.65555221285622,2.1546308147378213,8.169353769395777,,0.0,,,0.9991417,0.0023144027,-4.291143E-5,-0.04135863,1.1877145,-0.74834627,-0.29896927,-0.01704504,0.014456167,0.009333962,300,5031,0,0,5891,730,0.0,0.0,0.0,0.0,GPS_Atti,2,0,0,0,0,10,5000,0.0,0.0,17,5,3,2,0,0,,,,,,,1.0000001E-6,0.0,900.96497,1.0000001E-6,0.0,1.0000001E-6,1.0000001E-6,0.0,5.4583035,1.0000001E-6,-1.9086885,1.0000001E-6,-0.1,0.020000001,0.0,0.0,0.0,180.0,0.0,0.0,0.0,0,0.9976314,0.005964349,-0.0011523856,-0.06851937,-0.6728123032379112,0.17858394820798623,7.8590900772481325,32.808098,0.014685612,-0.1410156,0,0,2932,GPS_Atti,OTHER,NONE,GPS_POSITION_NONMATCH,False,Connected,,P,False,False,False,0,0,0.1,0.0,0.1,,,,,
42518291,7.640,,,32.81497,32.73549,,,0,0.2651876980986155,0.006055762358733595,-4.740728961133773,0.15772751,-0.10442398,-1.0304631,1.0476816,1.6286547,8.57235,108.80147,109.1508,-0.05112495,0.012985383,0.010783419,0.05383923,0.05274827429597781,0,0,0,0.0,57.17,-4.740728961133773,0.2652568310772367,86.56742695854703,91.30815591968081,355.25927103886625,NaN,NaN,0.0,0.0,0.0,-0.0,NaN,NaN,NaN,NaN,NaN,NaN,NaN,NaN,false,false,-39.65555221285622,2.1546308147378213,8.169353769395777,,0.0,,,0.9991417,0.0023144027,-4.291143E-5,-0.04135863,1.1877145,-0.74834627,-0.29896927,-0.01704504,0.014456167,0.009333962,300,5031,0,0,5891,730,0.0,0.0,0.0,0.0,GPS_Atti,2,0,0,0,0,10,5000,0.0,0.0,17,5,3,2,0,0,,,,,,,1.0000001E-6,0.0,1.0,1.0000001E-6,0.0,1.0000001E-6,1.0000001E-6,0.0,1.5689555,1.0000001E-6,-0.14021301,1.0000001E-6,-0.1,0.020000001,0.0,0.0,0.0,180.0,0.0,0.0,0.0,0,0.99899226,0.0052600787,-0.0020855009,-0.044525947,-0.5915227851844325,0.2655934938056076,5.105437017301525,32.80751,0.013485354,-0.29670024,0,0,2952,GPS_Atti,OTHER,NONE,GPS_POSITION_NONMATCH,False,Connected,,P,False,False,False,0,0,0.1,0.0,0.1,,,,,
42754078,7.692,,,32.83611,32.740498,,,0,0.1748390722335329,-0.1540633488595205,5.408916880448249,0.020813443,-0.05456734,-1.007559,1.0092502,0.6663525,1.9280117,60.103657,60.138264,-0.009917026,-0.054721214,0.006852708,0.056033187,0.055612575829172985,0,0,0,0.0,57.12,5.408916880448248,0.23303201915427815,54.02332727943613,48.61441039898788,5.40891688044826,NaN,NaN,0.0,0.0,0.0,-0.0,NaN,NaN,NaN,NaN,NaN,NaN,NaN,NaN,false,false,-35.25604162192731,2.2144093953442834,8.442859090315075,,0.0,,,0.99888426,0.0015874944,-0.0012709653,0.04718203,0.53485745,-0.8086073,-0.0897274,-0.017033927,0.0144554125,0.009335561,300,5028,0,0,5931,740,0.0,0.0,0.0,0.0,GPS_Atti,2,0,0,0,0,10,5000,0.0,0.0,17,5,3,2,0,0,,,,,,,1.0000001E-6,0.0,1.0,1.0000001E-6,0.0,1.0000001E-6,1.0000001E-6,0.0,1.5689555,1.0000001E-6,-0.14021301,1.0000001E-6,-0.1,0.020000001,0.0,0.0,0.0,180.0,0.0,0.0,0.0,0,0.9990003,0.0055013043,-0.002822821,0.04427429,-0.6441078209236246,0.2952573696202419,-5.073555737755072,32.807938,0.013134622,-0.092018425,0,0,2972,GPS_Atti,OTHER,NONE,GPS_POSITION_NONMATCH,False,Connected,,P,False,False,False,0,0,0.1,0.0,0.1,,,,,
42919382,7.729,,,32.851963,32.74725,,,0,0.18493087611443548,-0.17771296494257097,7.496787330957444,-0.038576465,0.023721017,-1.0048805,1.0059005,-0.25665468,1.3524214,0.94851327,1.6717035,0.04471615,-0.108330525,-4.8145794E-4,0.11719756,0.11719657147582367,0,0,0,0.0,57.1,7.496787330957443,0.25647785122820405,53.637035590647535,46.1402482596901,7.4967873309574315,NaN,NaN,0.0,0.0,0.0,-0.0,NaN,NaN,NaN,NaN,NaN,NaN,NaN,NaN,false,false,-33.66463724344665,2.2250887032408784,8.528367853225895,,0.0,,,0.99785846,0.0017117575,-0.0014420139,0.06537249,-0.3923902,0.22981179,-0.04868889,-0.017057879,0.014444576,0.009330986,400,5030,0,0,5971,740,0.0,0.0,0.0,0.0,GPS_Atti,2,0,0,0,0,10,5000,0.0,0.0,17,5,3,2,0,0,,,,,,,1.0000001E-6,0.0,1.0,1.0000001E-6,0.0,1.0000001E-6,1.0000001E-6,0.0,-0.16724855,1.0000001E-6,0.01966858,1.0000001E-6,-0.1,0.020000001,0.0,0.0,0.0,180.0,0.0,0.0,0.0,0,0.99800754,0.0062269387,-0.002329306,0.06274381,-0.7289000235498206,0.221634315186935,-7.1933863376745775,32.809883,0.01022234,-0.042837035,0,0,2992,GPS_Atti,OTHER,NONE,GPS_POSITION_NONMATCH,False,Connected,,P,False,False,False,0,0,0.1,0.0,0.1,,,,,
43074135,7.763,,,32.83611,32.754562,,,0,0.22963077232736875,-0.1354826165475938,7.49582825316671,-0.00647224,4.503895E-5,-1.0030998,1.0031207,-0.82699835,1.0133617,0.6878196,1.4778106,0.04310973,-0.107143804,-0.009219773,0.11585874,0.11549131391063658,0,0,0,0.0,57.19,7.495828253166709,0.26661852500209376,66.9552256269645,59.459397373797806,7.495828253166735,NaN,NaN,0.0,0.0,0.0,-0.0,NaN,NaN,NaN,NaN,NaN,NaN,NaN,NaN,false,false,-33.62199267755382,2.1968475586535803,8.590022663794606,,0.0,,,0.9978588,0.0020769017,-0.0010487888,0.06536426,-0.035673622,0.02472648,-0.03209114,-0.017100172,0.014417593,0.009322294,400,5030,0,0,6011,750,0.0,0.0,0.0,0.0,GPS_Atti,2,0,0,0,0,10,5000,0.0,0.0,17,5,3,2,0,0,,,,,,,1.0000001E-6,0.0,1.0,1.0000001E-6,0.0,1.0000001E-6,1.0000001E-6,0.0,-0.16724855,1.0000001E-6,0.01966858,1.0000001E-6,-0.1,0.020000001,0.0,0.0,0.0,180.0,0.0,0.0,0.0,0,0.99801344,0.0061422237,-0.002298993,0.06265905,-0.7189748575064908,0.2188372324373438,-7.183686489354827,32.81095,0.009294282,-0.02638572,0,0,3012,GPS_Atti,OTHER,NONE,GPS_POSITION_NONMATCH,False,Connected,,P,False,False,False,0,0,0.1,0.0,0.1,,,,,
43296338,7.813,,,32.8044,32.761948,,,0,0.2305773894892966,-0.13722181099676062,7.495144782312858,-0.005804802,-7.819096E-4,-1.0015433,1.0015604,-0.87381136,0.98990977,0.48064157,1.4051633,0.0,0.0,-0.016994959,0.016994959,0.0,0,0,0,0.0,57.12,7.495144782312857,0.26831949492309404,66.73740029448066,59.242255512167816,7.495144782312877,NaN,NaN,0.0,0.0,0.0,-0.0,NaN,NaN,NaN,NaN,NaN,NaN,NaN,NaN,false,false,-33.59165667638251,2.1526905368110008,8.642032304112355,,0.0,,,0.9978591,0.0020861304,-0.0010634061,0.065358266,-0.035310514,0.02657957,-0.014548302,-0.01709845,0.014418446,0.009322616,300,5029,0,0,6051,750,0.0,0.0,0.0,0.0,GPS_Atti,2,0,0,0,0,10,5000,0.0,0.0,17,5,3,2,0,0,,,,,,,1.0000001E-6,0.0,1.0,1.0000001E-6,0.0,1.0000001E-6,1.0000001E-6,0.0,-0.16724855,1.0000001E-6,0.01966858,1.0000001E-6,-0.1,0.020000001,0.0,0.0,0.0,180.0,0.0,0.0,0.0,0,0.99801344,0.0061422237,-0.002298993,0.06265905,-0.7189748575064908,0.2188372324373438,-7.183686489354827,32.81095,0.009294282,-0.02638572,0,0,3012,GPS_Atti,OTHER,NONE,GPS_POSITION_NONMATCH,False,Connected,,P,False,False,False,0,0,0.1,0.0,0.1,,,,,
43691210,7.901,,,32.8044,32.761948,,,0,0.2305773894892966,-0.13722181099676062,7.495144782312858,-0.005804802,-7.819096E-4,-1.0015433,1.0015604,-0.87381136,0.98990977,0.48064157,1.4051633,0.0,0.0,-0.016994959,0.016994959,0.0,0,0,0,0.0,57.12,7.495144782312857,0.26831949492309404,66.73740029448066,59.242255512167816,7.495144782312877,NaN,NaN,0.0,0.0,0.0,-0.0,NaN,NaN,NaN,NaN,NaN,NaN,NaN,NaN,false,false,-33.59165667638251,2.1526905368110008,8.642032304112355,,0.0,,,0.9978591,0.0020861304,-0.0010634061,0.065358266,-0.035310514,0.02657957,-0.014548302,-0.01709845,0.014418446,0.009322616,300,5029,0,0,6051,750,0.0,0.0,0.0,0.0,GPS_Atti,2,0,0,0,0,10,5000,0.0,0.0,17,5,3,2,0,0,,,,,,,1.0000001E-6,0.0,1.0,1.0000001E-6,0.0,1.0000001E-6,1.0000001E-6,0.0,0.011778228,1.0000001E-6,-0.009835243,1.0000001E-6,-0.1,0.020000001,0.0,0.0,0.0,180.0,0.0,0.0,0.0,0,0.9980189,0.006066959,-0.002301642,0.062580034,-0.7103684974486577,0.21973657002185684,-7.174620283535524,32.81201,0.007883623,-0.007671442,0,0,3032,GPS_Atti,OTHER,NONE,GPS_POSITION_NONMATCH,False,Connected,,P,False,False,False,0,0,0.1,0.0,0.1,,,,,
43856895,7.937,,,32.888954,32.777523,,,0,0.22512600616807799,-0.13649930113949738,7.4939587639158125,-0.004552274,-0.0023440765,-0.9998043,0.99981743,-1.0093693,0.81807643,0.5444874,1.4087377,0.0,0.0,-0.030118804,0.030118804,0.0,0,0,0,0.0,57.29,7.493958763915812,0.26327437082460714,66.26460257719688,58.77064381328107,7.493958763915828,NaN,NaN,0.0,0.0,0.0,-0.0,NaN,NaN,NaN,NaN,NaN,NaN,NaN,NaN,false,false,-33.5382257617774,2.054536973949375,8.736266646478306,,0.0,,,0.9978599,0.002038237,-0.0010602451,0.065348014,-0.023859777,0.014628737,-4.339218E-4,-0.017090734,0.014421672,0.009323908,300,5030,0,0,6131,750,0.0,0.0,0.0,0.0,GPS_Atti,2,0,0,0,0,10,5000,0.0,0.0,17,5,3,2,0,0,,,,,,,1.0000001E-6,0.0,1210.7272,1.0000001E-6,0.0,1.0000001E-6,1.0000001E-6,0.0,0.038748298,1.0000001E-6,-0.019542694,1.0000001E-6,-0.1,0.020000001,0.0,0.0,0.0,180.0,0.0,0.0,0.0,0,0.99803,0.0058833603,-0.0022382473,0.062421974,-0.6888821259801067,0.21391106544766836,-7.156540557747207,32.814323,0.0069551286,0.0086343,0,0,3072,GPS_Atti,OTHER,NONE,GPS_POSITION_NONMATCH,False,Connected,,P,False,False,False,0,0,0.1,0.0,0.1,,,,,
44011874,7.972,,,32.80704,32.785248,,,0,0.22174147017222598,-0.13607499155087824,7.490220974680963,-0.0038095396,-6.9911947E-4,-1.0003182,1.0003257,-0.9496599,0.99395984,0.51349866,1.4674778,0.0,0.0,-0.035361063,0.035361063,0.0,0,0,0,0.0,57.27,7.4902209746809625,0.26016401200578193,65.95431435794256,58.4640933832616,7.490220974680938,NaN,NaN,0.0,0.0,0.0,-0.0,NaN,NaN,NaN,NaN,NaN,NaN,NaN,NaN,false,false,-33.51067622703789,2.003524638075838,8.783451346961932,,0.0,,,0.99786204,0.002008488,-0.001058546,0.065315515,-0.016888324,0.028741378,-0.007577896,-0.017086351,0.014423947,0.009324644,300,5032,0,0,6171,770,0.0,0.0,0.0,0.0,Atti,2,0,0,0,0,10,5000,0.0,0.0,17,5,2,1,0,0,,,,,,,1.0000001E-6,0.0,1210.7272,1.0000001E-6,0.0,1.0000001E-6,1.0000001E-6,0.0,0.038748298,1.0000001E-6,-0.019542694,1.0000001E-6,-0.1,0.020000001,0.0,0.0,0.0,180.0,0.0,0.0,0.0,0,0.9980374,0.0057934597,-0.0022011646,0.062314555,-0.6783122858375382,0.21038551042313047,-7.144241784607782,32.815674,0.006977183,0.0024758978,0,0,3092,Atti,OTHER,NONE,GPS_POSITION_NONMATCH,False,Connected,,P,False,False,False,0,0,0.1,0.0,0.1,,,,,
44234184,8.021,,,32.799114,32.79115,,,0,0.2219178266070969,-0.13607326447789217,7.488633587690762,-0.0045278138,-0.0015898554,-1.0026101,1.0026215,-0.84894127,0.80596435,0.50070226,1.2731781,0.0,0.0,-0.038330674,0.038330674,0.0,0,0,0,0.0,57.3,7.488633587690761,0.2603134355270727,65.97335347747682,58.48471988978606,7.488633587690742,NaN,NaN,0.0,0.0,0.0,-0.0,NaN,NaN,NaN,NaN,NaN,NaN,NaN,NaN,false,false,-33.48426200414525,1.956681206488689,8.830329236402697,,0.0,,,0.997863,0.002010008,-0.0010584582,0.06530169,-0.024613816,0.02220437,-0.02775383,-0.017080545,0.014425396,0.009325445,300,5032,0,0,6211,770,0.0,0.0,0.0,0.0,Atti,2,0,0,0,0,10,5000,0.0,0.0,17,5,2,1,0,0,,,,,,,1.0000001E-6,0.0,1210.7272,1.0000001E-6,0.0,1.0000001E-6,1.0000001E-6,0.0,0.038748298,1.0000001E-6,-0.019542694,1.0000001E-6,-0.1,0.020000001,0.0,0.0,0.0,180.0,0.0,0.0,0.0,0,0.9980374,0.0057934597,-0.0022011646,0.062314555,-0.6783122858375382,0.21038551042313047,-7.144241784607782,32.815674,0.006977183,0.0024758978,0,0,3092,Atti,OTHER,NONE,GPS_POSITION_NONMATCH,False,Connected,,P,False,False,False,0,0,0.1,0.0,0.1,,,,,
44436641,8.066,,,32.799114,32.79115,,,0,0.2219178266070969,-0.13607326447789217,7.488633587690762,-0.0045278138,-0.0015898554,-1.0026101,1.0026215,-0.84894127,0.80596435,0.50070226,1.2731781,0.0,0.0,-0.038330674,0.038330674,0.0,0,0,0,0.0,57.3,7.488633587690761,0.2603134355270727,65.97335347747682,58.48471988978606,7.488633587690742,NaN,NaN,0.0,0.0,0.0,-0.0,NaN,NaN,NaN,NaN,NaN,NaN,NaN,NaN,false,false,-33.48426200414525,1.956681206488689,8.830329236402697,,0.0,,,0.997863,0.002010008,-0.0010584582,0.06530169,-0.024613816,0.02220437,-0.02775383,-0.017080545,0.014425396,0.009325445,300,5032,0,0,6211,780,0.0,0.0,0.0,0.0,Atti,2,0,0,0,0,10,5000,0.0,0.0,17,5,2,1,0,0,,,,,,,1.0000001E-6,0.0,1106.0267,1.0000001E-6,0.0,1.0000001E-6,1.0000001E-6,0.0,0.02692839,1.0000001E-6,-0.01960659,1.0000001E-6,-0.1,0.020000001,0.0,0.0,0.0,180.0,0.0,0.0,0.0,0,0.99804336,0.0057516145,-0.0021755807,0.062224176,-0.6733249152731372,0.2078189956801631,-7.133886360241255,32.814342,0.010315644,-0.017230688,0,0,3112,Atti,OTHER,NONE,GPS_POSITION_NONMATCH,False,Connected,,P,False,False,False,0,0,0.1,0.0,0.1,,,,,
44628832,8.109,,,32.788548,32.795727,,,0,0.22195892438578413,-0.13464507291173364,7.4870898409313655,-0.0044593657,-0.0027363186,-1.0037929,1.0038066,-0.9529779,0.830451,0.6180982,1.4070754,0.0,0.0,-0.040688172,0.040688172,0.0,0,0,0,0.0,57.35,7.487089840931365,0.2596048863509794,66.24526627192752,58.75817643099616,7.4870898409313895,NaN,NaN,0.0,0.0,0.0,-0.0,NaN,NaN,NaN,NaN,NaN,NaN,NaN,NaN,false,false,-33.45516303031732,1.9098149418086834,8.872890899047952,,0.0,,,0.9978639,0.002009538,-0.0010460252,0.06528827,-0.017653493,0.004474459,-0.04378414,-0.01707734,0.014427556,0.009325992,300,5034,0,0,6251,780,0.0,0.0,0.0,0.0,Atti,2,0,0,0,0,10,5000,0.0,0.0,17,5,2,1,0,0,,,,,,,1.0000001E-6,0.0,1106.0267,1.0000001E-6,0.0,1.0000001E-6,1.0000001E-6,0.0,0.02692839,1.0000001E-6,-0.01960659,1.0000001E-6,-0.1,0.020000001,0.0,0.0,0.0,180.0,0.0,0.0,0.0,0,0.99804944,0.005686135,-0.0021400251,0.0621334,-0.6655638924406578,0.20427956333657668,-7.123496052110985,32.811405,0.014418411,-0.033052996,0,0,3132,Atti,OTHER,NONE,GPS_POSITION_NONMATCH,False,Connected,,P,False,False,False,0,0,0.1,0.0,0.1,,,,,
44794382,8.146,,,32.83875,32.798405,,,0,0.22099435462536185,-0.13454119823177185,7.487084811551598,-0.0031542662,-0.0016894648,-1.0005543,1.0005608,-1.02769,0.91050625,0.46433002,1.4494036,0.0,0.0,-0.04032922,0.04032922,0.0,0,0,0,0.0,57.45,7.487084811551597,0.2587266506217841,66.15414037676285,58.66705556521126,7.487084811551597,NaN,NaN,0.0,0.0,0.0,-0.0,NaN,NaN,NaN,NaN,NaN,NaN,NaN,NaN,false,false,-33.426898062391416,1.8580946381740588,8.918351743793274,,0.0,,,0.9978639,0.0020010793,-0.0010456704,0.06528824,-0.012713811,0.021991732,-0.013022423,-0.017073004,0.014430211,0.00932668,500,5033,0,0,6291,780,0.0,0.0,0.0,0.0,Atti,2,0,0,0,0,10,5000,0.0,0.0,17,5,2,1,0,0,,,,,,,1.0000001E-6,0.0,1106.027,1.0000001E-6,0.0,1.0000001E-6,1.0000001E-6,0.0,0.028164864,1.0000001E-6,0.00981617,1.0000001E-6,-0.1,0.020000001,0.0,0.0,0.0,180.0,0.0,0.0,0.0,0,0.9980547,0.0056182034,-0.0021021087,0.062056217,-0.6575090023920803,0.2004771692790614,-7.114667461645677,32.80881,0.01525348,-0.0024498277,0,0,3152,Atti,OTHER,NONE,GPS_POSITION_NONMATCH,False,Connected,,P,False,False,False,0,0,0.1,0.0,0.1,,,,,
44949506,8.180,,,32.83611,32.798256,,,0,0.22136459015434984,-0.13146257870070416,7.487066480445707,-0.0051427307,-3.8869778E-4,-1.0020636,1.0020769,-0.91091585,0.90145415,0.63385004,1.4297389,-5.7432207E-4,1.8992394E-4,-6.9240376E-4,9.194237E-4,6.049106930125168E-4,0,0,0,0.0,57.46,7.487066480445706,0.2574574671889417,66.78219074290585,59.29512426246014,7.487066480445719,NaN,NaN,0.0,0.0,0.0,-0.0,NaN,NaN,NaN,NaN,NaN,NaN,NaN,NaN,false,false,-33.398353734258905,1.8077056306731194,8.965448931482918,,0.0,,,0.99786395,0.0020025491,-0.0010186511,0.06528813,-0.028464288,0.028386496,-0.021479607,-0.017069772,0.014431162,0.009327089,300,5033,0,0,6331,790,0.0,0.0,0.0,0.0,Atti,2,0,0,0,0,10,5000,0.0,0.0,17,5,2,1,0,0,,,,,,,1.0000001E-6,0.0,1106.027,1.0000001E-6,0.0,1.0000001E-6,1.0000001E-6,0.0,0.028164864,1.0000001E-6,0.00981617,1.0000001E-6,-0.1,0.020000001,0.0,0.0,0.0,180.0,0.0,0.0,0.0,0,0.99805987,0.0055650272,-0.0020627703,0.061979193,-0.6511322336915664,0.19640602379757607,-7.105855145971068,32.809402,0.009242845,-0.011563746,0,0,3172,Atti,OTHER,NONE,GPS_POSITION_NONMATCH,False,Connected,,P,False,False,False,0,0,0.1,0.0,0.1,,,,,
45566972,8.317,,,32.83611,32.798256,,,0,0.22136459015434984,-0.13146257870070416,7.487066480445707,-0.0051427307,-3.8869778E-4,-1.0020636,1.0020769,-0.91091585,0.90145415,0.63385004,1.4297389,-5.7432207E-4,1.8992394E-4,-6.9240376E-4,9.194237E-4,6.049106930125168E-4,0,0,0,0.0,57.46,7.487066480445706,0.2574574671889417,66.78219074290585,59.29512426246014,7.487066480445719,NaN,NaN,0.0,0.0,0.0,-0.0,NaN,NaN,NaN,NaN,NaN,NaN,NaN,NaN,false,false,-33.398353734258905,1.8077056306731194,8.965448931482918,,0.0,,,0.99786395,0.0020025491,-0.0010186511,0.06528813,-0.028464288,0.028386496,-0.021479607,-0.017069772,0.014431162,0.009327089,300,5033,0,0,6331,790,0.0,0.0,0.0,0.0,Atti,2,0,0,0,0,10,5000,0.0,0.0,17,5,2,1,0,0,,,,,,,1.0000001E-6,0.0,1106.027,1.0000001E-6,0.0,1.0000001E-6,1.0000001E-6,0.0,0.028164864,1.0000001E-6,0.00981617,1.0000001E-6,-0.1,0.020000001,0.0,0.0,0.0,180.0,0.0,0.0,0.0,0,0.99805987,0.0055650272,-0.0020627703,0.061979193,-0.6511322336915664,0.19640602379757607,-7.105855145971068,32.809402,0.009242845,-0.011563746,0,0,3172,Atti,OTHER,NONE,GPS_POSITION_NONMATCH,False,Connected,,P,False,False,False,0,0,0.1,0.0,0.1,,,,,
45731887,8.354,,,32.86253,32.796032,,,0,0.22301143348573477,-0.14153585708845987,7.485029335832912,-0.0026336613,-0.0016800791,-1.0026544,1.0026593,-0.9614998,0.9777021,0.4795842,1.4527161,-5.013078E-4,7.580697E-4,-5.5329595E-4,0.0010640091,9.088339233476126E-4,0,0,0,0.0,57.54,7.485029335832911,0.2641327197834789,65.08355112517805,57.598521789345135,7.485029335832905,NaN,NaN,0.0,0.0,0.0,-0.0,NaN,NaN,NaN,NaN,NaN,NaN,NaN,NaN,false,false,-33.31135872150354,1.661409764533623,9.112271452871319,,0.0,,,0.99786496,0.0020226093,-0.0011054669,0.06527019,0.0010851584,0.016761981,-0.02945137,-0.01702882,0.014471544,0.009320524,300,5033,0,0,6451,790,0.0,0.0,0.0,0.0,Atti,2,0,0,0,0,10,5000,0.0,0.0,17,5,2,1,0,0,,,,,,,1.0000001E-6,0.0,1.0,1.0000001E-6,0.0,1.0000001E-6,1.0000001E-6,0.0,0.03574372,1.0000001E-6,0.029406548,1.0000001E-6,-0.1,0.020000001,0.0,0.0,0.0,180.0,0.0,0.0,0.0,0,0.99807626,0.005446457,-0.002000165,0.061725598,-0.6370781400970932,0.19024917306782121,-7.076794032599921,32.807297,0.009317137,-0.020128211,0,0,3232,Atti,OTHER,NONE,GPS_POSITION_NONMATCH,False,Connected,,P,False,False,False,0,0,0.1,0.0,0.1,,,,,
45886855,8.389,,,32.828182,32.795647,,,0,0.221032573871702,-0.14100700666097693,7.482365068835538,-0.0029138727,-0.0015791177,-1.0005691,1.0005746,-1.0017662,0.7954693,0.41212365,1.3439318,-1.5532903E-4,7.4981543E-4,-7.926337E-4,0.0011020973,7.657351531295302E-4,0,0,0,0.0,57.55,7.482365068835537,0.26217929000422496,64.946735365351,57.464370296515455,7.48236506883552,NaN,NaN,0.0,0.0,0.0,-0.0,NaN,NaN,NaN,NaN,NaN,NaN,NaN,NaN,false,false,-33.28813050177543,1.6102683789133536,9.158461036894245,,0.0,,,0.9978666,0.0020050507,-0.0011020354,0.06524702,-0.0069835708,0.022663374,-0.0075654984,-0.017013824,0.014482646,0.009318433,300,5037,0,0,6491,810,0.0,0.0,0.0,0.0,GPS_Atti,2,0,0,0,0,10,5000,0.0,0.0,17,5,3,2,0,0,,,,,,,1.0000001E-6,0.0,1.0,1.0000001E-6,0.0,1.0000001E-6,1.0000001E-6,0.0,0.03574372,1.0000001E-6,0.029406548,1.0000001E-6,-0.1,0.020000001,0.0,0.0,0.0,180.0,0.0,0.0,0.0,0,0.998083,0.0053874864,-0.0019490824,0.061623283,-0.6299531896335899,0.1848879737784747,-7.065085525244921,32.806618,0.01052531,0.0017392943,0,0,3252,Atti,OTHER,NONE,GPS_POSITION_NONMATCH,False,Connected,,P,False,False,False,0,0,0.1,0.0,0.1,,,,,
46109582,8.438,,,32.83875,32.795307,,,0,0.22139583214013522,-0.1433462544907293,7.4794722934032905,-0.003945754,-0.0031361924,-1.0015665,1.0015793,-0.89752966,0.7323005,0.51423675,1.2673843,-4.7521188E-4,2.9090545E-4,-0.0013102742,0.0014238227,5.571824850333714E-4,0,0,0,0.0,57.6,7.47947229340329,0.2637496049148558,64.55786706576421,57.07839477236093,7.479472293403319,NaN,NaN,0.0,0.0,0.0,-0.0,NaN,NaN,NaN,NaN,NaN,NaN,NaN,NaN,false,false,-33.26396869212155,1.56072996462526,9.198309116818372,,0.0,,,0.9978682,0.0020095175,-0.0011222495,0.06522179,-0.013087458,0.004836741,-0.017189026,-0.01699922,0.0144934775,0.009315761,400,5036,0,0,6531,810,0.0,0.0,0.0,0.0,GPS_Atti,2,0,0,0,0,10,5000,0.0,0.0,17,5,3,2,0,0,,,,,,,1.0000001E-6,0.0,1.0,1.0000001E-6,0.0,1.0000001E-6,1.0000001E-6,0.0,0.03574372,1.0000001E-6,0.029406548,1.0000001E-6,-0.1,0.020000001,0.0,0.0,0.0,180.0,0.0,0.0,0.0,0,0.998083,0.0053874864,-0.0019490824,0.061623283,-0.6299531896335899,0.1848879737784747,-7.065085525244921,32.806618,0.01052531,0.0017392943,0,0,3252,Atti,OTHER,NONE,GPS_POSITION_NONMATCH,False,Connected,,P,False,False,False,0,0,0.1,0.0,0.1,,,,,
46311658,8.483,,,32.83875,32.795307,,,0,0.22139583214013522,-0.1433462544907293,7.4794722934032905,-0.003945754,-0.0031361924,-1.0015665,1.0015793,-0.89752966,0.7323005,0.51423675,1.2673843,-4.7521188E-4,2.9090545E-4,-0.0013102742,0.0014238227,5.571824850333714E-4,0,0,0,0.0,57.6,7.47947229340329,0.2637496049148558,64.55786706576421,57.07839477236093,7.479472293403319,NaN,NaN,0.0,0.0,0.0,-0.0,NaN,NaN,NaN,NaN,NaN,NaN,NaN,NaN,false,false,-33.26396869212155,1.56072996462526,9.198309116818372,,0.0,,,0.9978682,0.0020095175,-0.0011222495,0.06522179,-0.013087458,0.004836741,-0.017189026,-0.01699922,0.0144934775,0.009315761,400,5036,0,0,6531,820,0.0,0.0,0.0,0.0,GPS_Atti,2,0,0,0,0,10,5000,0.0,0.0,17,5,3,2,0,0,,,,,,,1.0000001E-6,0.0,1.0,1.0000001E-6,0.0,1.0000001E-6,1.0000001E-6,0.0,0.017395906,1.0000001E-6,0.019554138,1.0000001E-6,-0.1,0.020000001,0.0,0.0,0.0,180.0,0.0,0.0,0.0,0,0.99808973,0.0053536156,-0.0019357182,0.061518297,-0.6259654920909618,0.18366431515156104,-7.053042515208234,32.805733,0.011094917,-0.008100048,0,0,3272,Atti,OTHER,NONE,GPS_POSITION_NONMATCH,False,Connected,,P,False,False,False,0,0,0.1,0.0,0.1,,,,,
46502783,8.525,,,32.830822,32.794914,,,0,0.2213914946892799,-0.1449284746298548,7.478707127641599,-0.0036740021,-0.0017005494,-0.9999394,0.99994755,-0.8916315,0.813675,0.4319981,1.2820671,-4.4115318E-4,4.4802437E-4,-0.0016003691,0.0017194543,6.287622529349945E-4,0,0,0,0.0,57.67,7.478707127641598,0.2646092185517653,64.26900873986918,56.79030161222757,7.478707127641599,NaN,NaN,0.0,0.0,0.0,-0.0,NaN,NaN,NaN,NaN,NaN,NaN,NaN,NaN,false,false,-33.239365661910114,1.514210027609714,9.238505989724025,,0.0,,,0.9978686,0.0020103727,-0.0011360435,0.065215096,-0.009333976,0.016009402,-0.0019407272,-0.01698617,0.014504587,0.009312187,300,5036,0,0,6571,820,0.0,0.0,0.0,0.0,GPS_Atti,2,0,0,0,0,10,5000,0.0,0.0,17,5,3,2,0,0,,,,,,,1.0000001E-6,0.0,1.0,1.0000001E-6,0.0,1.0000001E-6,1.0000001E-6,0.0,0.017395906,1.0000001E-6,0.019554138,1.0000001E-6,-0.1,0.020000001,0.0,0.0,0.0,180.0,0.0,0.0,0.0,0,0.99809545,0.0053081117,-0.0019134814,0.061430812,-0.6205882462762112,0.18149591608086746,-7.043015688441047,32.80485,0.010813609,0.007033638,0,0,3292,GPS_Atti,OTHER,NONE,GPS_POSITION_NONMATCH,False,Connected,,P,False,False,False,0,0,0.1,0.0,0.1,,,,,
46669398,8.562,,,32.785904,32.79442,,,0,0.22004117207118842,-0.14529907072028858,7.48003016331055,-0.0029882262,-0.0021040414,-0.99912375,0.9991304,-1.0274395,0.9647497,0.6136671,1.5371927,-4.610262E-4,2.9542687E-4,-9.56244E-4,0.0011019186,5.475602290132657E-4,0,0,0,0.0,57.69,7.480030163310549,0.26368451261281733,64.04225340818431,56.562223244873756,7.480030163310573,NaN,NaN,0.0,0.0,0.0,-0.0,NaN,NaN,NaN,NaN,NaN,NaN,NaN,NaN,false,false,-33.212132969741006,1.464230866074125,9.284822241841319,,0.0,,,0.9978678,0.001998838,-0.0011400161,0.06522663,-0.0037457412,0.014646538,0.0069208145,-0.016972262,0.01451568,0.009308087,300,5039,0,0,6611,820,0.0,0.0,0.0,0.0,GPS_Atti,2,0,0,0,0,10,5000,0.0,0.0,17,5,3,2,0,0,,,,,,,1.0000001E-6,0.0,1.0,1.0000001E-6,0.0,1.0000001E-6,1.0000001E-6,0.0,0.007574521,1.0000001E-6,-8.392334E-5,1.0000001E-6,-0.1,0.020000001,0.0,0.0,0.0,180.0,0.0,0.0,0.0,0,0.9981001,0.0052633043,-0.0018776647,0.06136019,-0.6151986505376661,0.17775803855307423,-7.034934232668132,32.802956,0.013332736,0.015778229,0,0,3312,GPS_Atti,OTHER,NONE,GPS_POSITION_NONMATCH,False,Connected,,P,False,False,False,0,0,0.1,0.0,0.1,,,,,
47138144,8.667,,,32.785904,32.79442,,,0,0.22004117207118842,-0.14529907072028858,7.48003016331055,-0.0029882262,-0.0021040414,-0.99912375,0.9991304,-1.0274395,0.9647497,0.6136671,1.5371927,-4.610262E-4,2.9542687E-4,-9.56244E-4,0.0011019186,5.475602290132657E-4,0,0,0,0.0,57.69,7.480030163310549,0.26368451261281733,64.04225340818431,56.562223244873756,7.480030163310573,NaN,NaN,0.0,0.0,0.0,-0.0,NaN,NaN,NaN,NaN,NaN,NaN,NaN,NaN,false,false,-33.212132969741006,1.464230866074125,9.284822241841319,,0.0,,,0.9978678,0.001998838,-0.0011400161,0.06522663,-0.0037457412,0.014646538,0.0069208145,-0.016972262,0.01451568,0.009308087,300,5039,0,0,6611,820,0.0,0.0,0.0,0.0,GPS_Atti,2,0,0,0,0,10,5000,0.0,0.0,17,5,3,2,0,0,,,,,,,1.0000001E-6,0.0,1.0,1.0000001E-6,0.0,1.0000001E-6,1.0000001E-6,0.0,0.007574521,1.0000001E-6,-8.392334E-5,1.0000001E-6,-0.1,0.020000001,0.0,0.0,0.0,180.0,0.0,0.0,0.0,0,0.9981001,0.0052633043,-0.0018776647,0.06136019,-0.6151986505376661,0.17775803855307423,-7.034934232668132,32.802956,0.013332736,0.015778229,0,0,3312,GPS_Atti,OTHER,NONE,GPS_POSITION_NONMATCH,False,Connected,,P,False,False,False,0,0,0.1,0.0,0.1,,,,,
47293331,8.701,,,32.809685,32.792786,,,0,0.21549172079765452,-0.15620936472769476,7.480786194734989,-0.004436561,-0.00355972,-1.0025003,1.0025164,-0.9587458,0.87862825,0.6022529,1.4331398,-5.5948785E-4,2.0331396E-4,-0.0017938173,0.0018900116,5.952841413968798E-4,0,0,0,0.0,57.74,7.480786194734988,0.26615331510667484,61.54259271387839,54.06180651914341,7.480786194735003,NaN,NaN,0.0,0.0,0.0,-0.0,NaN,NaN,NaN,NaN,NaN,NaN,NaN,NaN,false,false,-33.117074284837955,1.3089540694732236,9.428934591017203,,0.0,,,0.99786735,0.0019654396,-0.0012376002,0.06523308,-0.016597426,3.4978613E-5,-0.028482437,-0.016936045,0.014543795,0.009295381,400,5041,0,0,6731,840,0.0,0.0,0.0,0.0,GPS_Atti,2,0,0,0,0,10,5000,0.0,0.0,17,5,3,2,0,0,,,,,,,1.0000001E-6,0.0,1.0,1.0000001E-6,0.0,1.0000001E-6,1.0000001E-6,0.0,0.007574521,1.0000001E-6,-8.392334E-5,1.0000001E-6,-0.1,0.020000001,0.0,0.0,0.0,180.0,0.0,0.0,0.0,0,0.99811596,0.0051133274,-0.0018644921,0.06111496,-0.5979085133798239,0.17745246697161016,-7.006802109751571,32.799786,0.011479928,-0.020282978,0,0,3372,GPS_Atti,OTHER,NONE,GPS_POSITION_NONMATCH,False,Connected,,P,False,False,False,0,0,0.1,0.0,0.1,,,,,
