Clock:Tick#;Clock:offsetTime;IMU_ATTI(0):Longitude;IMU_ATTI(0):Latitude;IMU_ATTI(0):press:D;IMU_ATTI(0):alti:D;IMU_ATTI(0):relativeHeight:C;IMU_ATTI(0):absoluteHeight:C;IMU_ATTI(0):numSats;IMU_ATTI(0):roll:C;IMU_ATTI(0):pitch:C;IMU_ATTI(0):yaw:C;IMU_ATTI(0):accelX;IMU_ATTI(0):accelY;IMU_ATTI(0):accelZ;IMU_ATTI(0):accelComposite:C;IMU_ATTI(0):gyroX;IMU_ATTI(0):gyroY;IMU_ATTI(0):gyroZ;IMU_ATTI(0):gyroComposite:C;IMU_ATTI(0):velN;IMU_ATTI(0):velE;IMU_ATTI(0):velD;IMU_ATTI(0):velComposite:C;IMU_ATTI(0):velH:C;IMU_ATTI(0):magX;IMU_ATTI(0):magY;IMU_ATTI(0):magZ;IMU_ATTI(0):magMod:C;IMU_ATTI(0):temperature;IMU_ATTI(0):yawUnWrapped:C;IMU_ATTI(0):tiltInclination:C;IMU_ATTI(0):tiltDirectionEarthFrame:C;IMU_ATTI(0):tiltDirectionBodyFrame:C;IMU_ATTI(0):yaw360:C;IMU_ATTI(0):magYaw:C;IMU_ATTI(0):Yaw-magYaw:C;IMUCalcs(0):PosN:C;IMUCalcs(0):PosE:C;IMUCalcs(0):PosD:C;IMUCalcs(0):height:C;IMUCalcs(0):velN:C;IMUCalcs(0):velE:C;IMUCalcs(0):velD:C;IMUCalcs(0):diffVelN:C;IMUCalcs(0):diffVelE:C;IMUCalcs(0):diffVelD:C;IMUCalcs(0):Lat:C;IMUCalcs(0):Long:C;IMUCalcs(0):VelocityError:C;IMUCalcs(0):PositionError:C;IMUCalcs(0):totalGyroZ:C;IMUCalcs(0):totalGyroX:C;IMUCalcs(0):totalGyroY:C;IMU_ATTI(0):distanceHP:C;IMU_ATTI(0):distanceTravelled:C;IMU_ATTI(0):directionOfTravel[mag]:C;IMU_ATTI(0):directionOfTravel[true]:C;IMU_ATTI(0):quatW:D;IMU_ATTI(0):quatX:D;IMU_ATTI(0):quatY:D;IMU_ATTI(0):quatZ:D;IMU_ATTI(0):agX:D;IMU_ATTI(0):agY:D;IMU_ATTI(0):agZ:D;IMU_ATTI(0):gbX:D;IMU_ATTI(0):gbY:D;IMU_ATTI(0):gbZ:D;IMU_ATTI(0):ty:D;IMU_ATTI(0):tz:D;IMU_ATTI(0):sensor_stat:D;IMU_ATTI(0):filter_stat:D;IMU_ATTI(0):atti_cnt:D;Controller:ctrl_tick:D;Controller:ctrl_pitch:D;Controller:ctrl_roll:D;Controller:ctrl_yaw:D;Controller:ctrl_thr:D;Controller:ctrl_mode;Controller:mode_switch:D;Controller:motor_state:D;Controller:sig_level:D;Controller:ctrl_level:D;Controller:sim_model:D;Controller:max_height:D;Controller:max_radius:D;Controller:D2H_x:D;Controller:D2H_y:D;Controller:act_req_id:D;Controller:act_act_id:D;Controller:cmd_mod:D;Controller:mod_req_id:D;Controller:is_soaring_up:D;Controller:eagle_temp_level:D;MVO:velX;MVO:velY;MVO:velZ;MVO:posX;MVO:posY;MVO:posZ;MVO:hoverPointUncertainty1;MVO:hoverPointUncertainty2;MVO:hoverPointUncertainty3;MVO:hoverPointUncertainty4;MVO:hoverPointUncertainty5;MVO:hoverPointUncertainty6;MVO:velocityUncertainty1;MVO:velocityUncertainty2;MVO:velocityUncertainty3;MVO:velocityUncertainty4;MVO:velocityUncertainty5;MVO:velocityUncertainty6;MVO:height;MVO:heightUncertainty;AirSpeed:comp_alti:D;AirSpeed:windSpeed;AirSpeed:windDirection;AirSpeed:windFromDir;AirSpeed:windN;AirSpeed:windE;AirSpeed:MotorSpd:D;AirSpeed:vel_level:D;ATTI_MINI0:s_qw0;ATTI_MINI0:s_qx0;ATTI_MINI0:s_qy0;ATTI_MINI0:s_qz0;ATTI_MINI0:roll:C;ATTI_MINI0:pitch:C;ATTI_MINI0:yaw:C;ATTI_MINI0:s_pgz0;ATTI_MINI0:s_vgz0;ATTI_MINI0:s_agz0;ATTI_MINI0:s_rsv00;ATTI_MINI0:s_rsv10;ATTI_MINI0:s_cnt0;osd_data:flyCState;osd_data:flycCommand;osd_data:flightAction;osd_data:nonGPSCause;osd_data:compassError;osd_data:connectedToRC;osd_data:lowVoltage;osd_data:ModeSwitch;osd_data:gpsUsed;osd_data:visionUsed;osd_data:notEnoughForce;osd_data:flightTime;osd_data:navHealth;osd_data:vpsHeight;osd_data:relativeHeight;usonic:usonic_h;MotorCtrl:PWM:RFront;MotorCtrl:PWM:LFront;MotorCtrl:PWM:LBack;MotorCtrl:PWM:RBack;Attribute|Value;ConvertDatV3;4.3.0
0;-1.809;;;;;;;;;;;;;;;;;;;;;;;;;;;;;;;;;;;;;;;;;;;;;;;;;;;;;;;;;;;;;;;;;;;;;;;;;;;;;;;;;;;;;;;;;;;;;;;;;;;;;;;;;;;;;;;;;;;;;;;;;;;;;;;;;;;;;;;;;;;;;;;;;;;;;;;;;;;;
8138573;.000;;;328.731;-0.0;;;0;NaN;0.0;0.0;-0.010676009;0.009858537;-10.071.324;10.072.372;17.566.555;13.435.134;0.88214713;23.809.767;0.0;0.0;0.0;0.0;0.0;0;0;0;0.0;52.82;0.0;NaN;NaN;NaN;0.0;NaN;NaN;0.0;0.0;0.0;-0.0;NaN;NaN;NaN;NaN;NaN;NaN;NaN;NaN;FALSE;FALSE;0.0;0.0;0.0;;0.0;;;0.0;0.0;0.0;0.0;0.0;0.0;0.0;0.0;0.0;0.0;200;5007;0;0;39;;;;;;;;;;;;;;;;;;;;;;;;;;;;;;;;;;;;;;;;0.0;;;;;;;;;;;;;;;;;;;;;;;;;;;;;;P;;;;;;;;;;;;;Firmware Date| May  7 2019;;
8342730;.045;;;328.731;-0.0;;;0;NaN;0.0;0.0;-0.010676009;0.009858537;-10.071.324;10.072.372;17.566.555;13.435.134;0.88214713;23.809.767;0.0;0.0;0.0;0.0;0.0;0;0;0;0.0;52.82;0.0;NaN;NaN;NaN;0.0;NaN;NaN;0.0;0.0;0.0;-0.0;NaN;NaN;NaN;NaN;NaN;NaN;NaN;NaN;FALSE;FALSE;0.0;0.0;0.0;;0.0;;;0.0;0.0;0.0;0.0;0.0;0.0;0.0;0.0;0.0;0.0;200;5007;0;0;39;10;0.0;0.0;0.0;0.0;Manual;0;0;0;0;0;500;5000;0.0;0.0;17;5;26;17;0;0;;;;;;;;;;;;;;;;;;;0.0;;;;;;;;;;0.0;0.0;0.0;0.0;NaN;NaN;NaN;-0.0;0.0;0.0;0;0;20;;;;;;;;P;;;;;;;;;;;;;ACType|Tello;;
8607327;.104;;;32.833.466;-0.0;;;0;NaN;0.0;0.0;0.002460296;-0.0011860719;-10.059.375;10.059.412;-0.8805069;0.8772875;0.5407346;13.554.777;0.0;0.0;0.0;0.0;0.0;0;0;0;0.0;52.74;0.0;NaN;NaN;NaN;0.0;NaN;NaN;0.0;0.0;0.0;-0.0;NaN;NaN;NaN;NaN;NaN;NaN;NaN;NaN;FALSE;FALSE;0.01408160843761408;-0.02292983149958161;0.02284599396934084;;0.0;;;0.0;0.0;0.0;0.0;0.0;0.0;0.0;0.0;0.0;0.0;200;5012;0;0;119;10;0.0;0.0;0.0;0.0;Manual;0;0;0;0;0;500;5000;0.0;0.0;17;5;26;17;0;0;;;;;;;;;;;;;;;;;;;0.0;;;;;;;;;;0.0;0.0;0.0;0.0;NaN;NaN;NaN;-0.0;0.0;0.0;0;0;40;;;;;;;;P;;;;;;;;;;;;;;;
8811483;.150;;;32.833.466;-0.0;;;0;NaN;0.0;0.0;0.002460296;-0.0011860719;-10.059.375;10.059.412;-0.8805069;0.8772875;0.5407346;13.554.777;0.0;0.0;0.0;0.0;0.0;0;0;0;0.0;52.74;0.0;NaN;NaN;NaN;0.0;NaN;NaN;0.0;0.0;0.0;-0.0;NaN;NaN;NaN;NaN;NaN;NaN;NaN;NaN;FALSE;FALSE;0.01408160843761408;-0.02292983149958161;0.02284599396934084;;0.0;;;0.0;0.0;0.0;0.0;0.0;0.0;0.0;0.0;0.0;0.0;200;5012;0;0;119;20;0.0;0.0;0.0;0.0;Manual;0;0;0;0;0;500;5000;0.0;0.0;17;5;26;17;0;0;;;;;;;;;;;;;;;;;;;0.0;;;;;;;;;;0.0;0.0;0.0;0.0;NaN;NaN;NaN;-0.0;0.0;0.0;0;0;60;;;;;;;;P;;;;;;;;;;;;;;;
9076103;.208;;;3.283.611;-0.0;;;0;NaN;0.0;0.0;0.0028393392;-0.0019792775;-10.063.034;10.063.094;-10.149.894;0.8076403;0.65415525;14.527.235;0.0;0.0;0.0;0.0;0.0;0;0;0;0.0;52.75;0.0;NaN;NaN;NaN;0.0;NaN;NaN;0.0;0.0;0.0;-0.0;NaN;NaN;NaN;NaN;NaN;NaN;NaN;NaN;FALSE;FALSE;0.07356459534850401;-0.12113134028059847;0.10471647761341529;;0.0;;;0.0;0.0;0.0;0.0;0.0;0.0;0.0;0.0;0.0;0.0;200;5014;0;0;199;20;0.0;0.0;0.0;0.0;Manual;0;0;0;0;0;500;5000;0.0;0.0;17;5;26;17;0;0;;;;;;;;;;;;;;;;;;;0.0;;0.0;0.0;0.0;180.0;0.0;0.0;0.0;0;0.0;0.0;0.0;0.0;NaN;NaN;NaN;-0.0;0.0;0.0;0;0;80;;;;;;;;P;;;;;;;;;;;;;;;
9234723;.244;;;3.283.611;-0.0;;;0;NaN;0.0;0.0;0.0028393392;-0.0019792775;-10.063.034;10.063.094;-10.149.894;0.8076403;0.65415525;14.527.235;0.0;0.0;0.0;0.0;0.0;0;0;0;0.0;52.75;0.0;NaN;NaN;NaN;0.0;NaN;NaN;0.0;0.0;0.0;-0.0;NaN;NaN;NaN;NaN;NaN;NaN;NaN;NaN;FALSE;FALSE;0.07356459534850401;-0.12113134028059847;0.10471647761341529;;0.0;;;0.0;0.0;0.0;0.0;0.0;0.0;0.0;0.0;0.0;0.0;200;5014;0;0;199;20;0.0;0.0;0.0;0.0;Manual;0;0;0;0;0;500;5000;0.0;0.0;17;5;26;17;0;0;;;;;;;;;;;;;;;;;;;0.0;;0.0;0.0;0.0;180.0;0.0;0.0;0.0;0;0.0;0.0;0.0;0.0;NaN;NaN;NaN;-0.0;0.0;0.0;0;0;100;Manual;OTHER;NONE;GPS_POSITION_NONMATCH;FALSE;Connected;;P;FALSE;FALSE;TRUE;0;0;;0.0;;;;;;;;
9749003;.358;;;3.286.253;-0.0;;;0;NaN;0.0;0.0;0.0051029194;-7,14E+02;-10.048.563;10.048.696;-0.9176197;0.71566296;0.45856476;12.507.921;0.0;0.0;0.0;0.0;0.0;0;0;0;0.0;52.68;0.0;NaN;NaN;NaN;0.0;NaN;NaN;0.0;0.0;0.0;-0.0;NaN;NaN;NaN;NaN;NaN;NaN;NaN;NaN;FALSE;FALSE;0.1025403083305072;-0.17145732112741996;0.14438395716221208;;0.0;;;0.0;0.0;0.0;0.0;0.0;0.0;0.0;0.0;0.0;0.0;200;5014;0;0;239;30;0.0;0.0;0.0;0.0;Manual;0;0;0;0;0;500;5000;0.0;0.0;17;5;26;17;0;0;;;;;;;;;;;;;;;;;;;0.0;;0.0;0.0;0.0;180.0;0.0;0.0;0.0;0;0.0;0.0;0.0;0.0;NaN;NaN;NaN;-0.0;0.0;0.0;0;0;100;Manual;OTHER;NONE;GPS_POSITION_NONMATCH;FALSE;Connected;;P;FALSE;FALSE;TRUE;0;0;;0.0;;;;;;;;
36525301;6.308;;;3.286.253;-0.0;;;0;NaN;0.0;0.0;0.0051029194;-7,14E+02;-10.048.563;10.048.696;-0.9176197;0.71566296;0.45856476;12.507.921;0.0;0.0;0.0;0.0;0.0;0;0;0;0.0;52.68;0.0;NaN;NaN;NaN;0.0;NaN;NaN;0.0;0.0;0.0;-0.0;NaN;NaN;NaN;NaN;NaN;NaN;NaN;NaN;FALSE;FALSE;0.1025403083305072;-0.17145732112741996;0.14438395716221208;;0.0;;;0.0;0.0;0.0;0.0;0.0;0.0;0.0;0.0;0.0;0.0;200;5014;0;0;239;30;0.0;0.0;0.0;0.0;Manual;0;0;0;0;0;500;5000;0.0;0.0;17;5;26;17;0;0;;;;;;;;;;;;;;;;;;;0.0;;0.0;0.0;0.0;180.0;0.0;0.0;0.0;0;0.0;0.0;0.0;0.0;NaN;NaN;NaN;-0.0;0.0;0.0;0;0;100;Manual;OTHER;NONE;GPS_POSITION_NONMATCH;FALSE;Connected;;P;FALSE;FALSE;TRUE;0;0;;0.0;;;;;;;;
36825594;6.375;;;3.286.253;-0.0;;;0;NaN;0.0;0.0;0.0051029194;-7,14E+02;-10.048.563;10.048.696;-0.9176197;0.71566296;0.45856476;12.507.921;0.0;0.0;0.0;0.0;0.0;0;0;0;0.0;52.68;0.0;NaN;NaN;NaN;0.0;NaN;NaN;0.0;0.0;0.0;-0.0;NaN;NaN;NaN;NaN;NaN;NaN;NaN;NaN;FALSE;FALSE;0.1025403083305072;-0.17145732112741996;0.14438395716221208;;0.0;;;0.0;0.0;0.0;0.0;0.0;0.0;0.0;0.0;0.0;0.0;200;5014;0;0;239;30;0.0;0.0;0.0;0.0;Manual;0;0;0;0;0;500;5000;0.0;0.0;17;5;26;17;0;0;;;;;;;;;;;;;;;;;;;0.0;;0.0;0.0;0.0;180.0;0.0;0.0;0.0;0;0.0;0.0;0.0;0.0;NaN;NaN;NaN;-0.0;0.0;0.0;0;0;100;Manual;OTHER;NONE;GPS_POSITION_NONMATCH;FALSE;Connected;;P;FALSE;FALSE;TRUE;0;0;;0.0;0.1;;;;;;;
36980648;6.409;;;32.772.694;32.761.703;;;0;0.11244301062914915;0.23213286265433972;-0.03880314124650424;0.004036001;-3,83E+02;-1.001.602;10.016.103;-10.389.059;0.9145126;0.44620863;14.542.217;8,43E+01;5,19E+02;0.0012898474;0.001392868;5,26E+11;0;0;0;0.0;56.42;-0.03880314124650424;0.2579318124075081;1.541.161.726.867.270;154.154.975.827.974;3.599.611.968.587.530;NaN;NaN;0.0;0.0;0.0;-0.0;NaN;NaN;NaN;NaN;NaN;NaN;NaN;NaN;FALSE;FALSE;2.883.039.600.127.050;-6.184.142.972.391.370;5.154.148.819.491.700;;0.0;;;0.99999744;9,82E+02;0.0020254066;-3,37E+03;6,61E+03;0.014520907;0.0013885498;-0.017065631;0.014421638;0.009358442;300;5017;0;0;4971;620;0.0;0.0;0.0;0.0;GPS_Atti;4;0;0;0;0;10;5000;0.0;0.0;17;5;3;2;0;0;;;;;;;;;;;;;;;;;;;0.0;;0.0;0.0;0.0;180.0;0.0;0.0;0.0;0;0.99999577;0.0010041615;0.0021048917;-0.0017749282;-0.1154961315248598;-0.24099870198004822;0.20314950776655236;3.283.181;-0.019622955;-0.008191852;0;0;2492;GPS_Atti;OTHER;NONE;GPS_POSITION_NONMATCH;FALSE;Connected;;P;FALSE;FALSE;FALSE;0;0;0.1;0.0;0.1;;;;;;;
37203251;6.459;;;3.278.326;32.761.417;;;0;0.11255236378143131;0.22907373223937616;-0.0406643592918581;0.003256874;-0.0012284287;-10.017.133;10.017.194;-0.9542782;0.9312431;0.49565798;1.422.511;-4,53E+02;6,13E+02;5,62E+02;8,33E+03;6,15E+11;0;0;0;0.0;56.47;-0.0406643592918581;0.2552303653642384;15.379.284.049.857.200;1.538.335.048.578.640;35.995.933.564.070.800;NaN;NaN;0.0;0.0;0.0;-0.0;NaN;NaN;NaN;NaN;NaN;NaN;NaN;NaN;FALSE;FALSE;2.907.578.903.673.540;-6.236.073.200.728.760;520.223.796.395.522;;0.0;;;0.9999975;9,83E+02;0.0019986944;-3,53E+02;-0.010792681;0.01315752;0.0028924942;-0.017055674;0.014419312;0.009355531;300;5017;0;0;5011;620;0.0;0.0;0.0;0.0;GPS_Atti;4;0;0;0;0;10;5000;0.0;0.0;17;5;3;2;0;0;;;;;;;;;;;;;;;;;;;0.0;;0.0;0.0;0.0;180.0;0.0;0.0;0.0;0;0.99999577;0.0010041615;0.0021048917;-0.0017749282;-0.1154961315248598;-0.24099870198004822;0.20314950776655236;3.283.181;-0.019622955;-0.008191852;0;0;2492;GPS_Atti;OTHER;NONE;GPS_POSITION_NONMATCH;FALSE;Connected;;P;FALSE;FALSE;FALSE;0;0;0.1;0.0;0.1;;;;;;;
37405338;6.504;;;3.278.326;32.761.417;;;0;0.11255236378143131;0.22907373223937616;-0.0406643592918581;0.003256874;-0.0012284287;-10.017.133;10.017.194;-0.9542782;0.9312431;0.49565798;1.422.511;-4,53E+02;6,13E+02;5,62E+02;8,33E+03;6,15E+11;0;0;0;0.0;56.47;-0.0406643592918581;0.2552303653642384;15.379.284.049.857.200;1.538.335.048.578.640;35.995.933.564.070.800;NaN;NaN;0.0;0.0;0.0;-0.0;NaN;NaN;NaN;NaN;NaN;NaN;NaN;NaN;FALSE;FALSE;2.907.578.903.673.540;-6.236.073.200.728.760;520.223.796.395.522;;0.0;;;0.9999975;9,83E+02;0.0019986944;-3,53E+02;-0.010792681;0.01315752;0.0028924942;-0.017055674;0.014419312;0.009355531;300;5017;0;0;5011;630;0.0;0.0;0.0;0.0;GPS_Atti;4;0;0;0;0;10;5000;0.0;0.0;17;5;3;2;0;0;;;;;;;1,00E+01;0.0;1.0;1,00E+01;0.0;1,00E+01;1,00E+01;0.0;0.019251337;1,00E+01;-5,91E+02;1,00E+01;-0.1;0.020000001;0.0;0.0;0.0;180.0;0.0;0.0;0.0;0;0.9999957;0.0010015436;0.002071185;-0.0018243336;-0.11520101097762976;-0.2371310662489364;0.20881549205588013;32.831.406;-0.021376401;-0.0065759737;0;0;2512;GPS_Atti;OTHER;NONE;GPS_POSITION_NONMATCH;FALSE;Connected;;P;FALSE;FALSE;FALSE;0;0;0.1;0.0;0.1;;;;;;;
37597496;6.546;;;32.748.913;3.276.112;;;0;0.10952070737485105;0.22817836805339212;-0.04151814505524896;0.005433712;-0.0019898901;-0.99998116;0.9999979;-10.349.903;0.7869603;0.58207697;14.245.437;3,66E+03;4,10E+03;0.0015502963;0.0016449295;5,50E+10;0;0;0;0.0;56.47;-0.04151814505524896;0.2531005715990678;15.431.856.887.262.700;1.543.600.870.176.820;35.995.848.185.494.400;NaN;NaN;0.0;0.0;0.0;-0.0;NaN;NaN;NaN;NaN;NaN;NaN;NaN;NaN;FALSE;FALSE;2.935.604.148.200.810;-6.287.801.815.241.560;5.246.917.846.768.270;;0.0;;;0.99999756;9,56E+02;0.0019908831;-3,60E+03;0.011751037;0.0010389881;0.013062477;-0.017046679;0.014418253;0.0093507795;300;5019;0;0;5051;630;0.0;0.0;0.0;0.0;GPS_Atti;4;0;0;0;0;10;5000;0.0;0.0;17;5;3;2;0;0;;;;;;;1,00E+01;0.0;1.0;1,00E+01;0.0;1,00E+01;1,00E+01;0.0;0.019251337;1,00E+01;-5,91E+02;1,00E+01;-0.1;0.020000001;0.0;0.0;0.0;180.0;0.0;0.0;0.0;0;0.9999957;9,74E+02;0.002068509;-0.0018653084;-0.11201062529407885;-0.23682562533743567;0.21351774670769058;3.283.167;-0.02175688;0.003601702;0;0;2532;GPS_Atti;OTHER;NONE;GPS_POSITION_NONMATCH;FALSE;Connected;;P;FALSE;FALSE;FALSE;0;0;0.1;0.0;0.1;;;;;;;
37763114;6.583;;;32.743.626;3.276.091;;;0;0.11002438306604044;0.2249196019228253;-0.04074583894249696;0.0052748406;-7,52E+03;-0.999831;0.9998452;-0.9510248;0.80764;0.45087007;13.266.553;7,81E+01;4,60E+03;0.0014557921;0.0015286587;4,66E+12;0;0;0;0.0;56.61;-0.04074583894249696;0.2503875864968984;153.892.754.374.146;1.539.335.002.130.880;3.599.592.541.610.570;NaN;NaN;0.0;0.0;0.0;-0.0;NaN;NaN;NaN;NaN;NaN;NaN;NaN;NaN;FALSE;FALSE;29.625.376.321.322.100;-633.958.598.571.725;5.288.496.108.473.060;;0.0;;;0.99999756;9,61E+03;0.00196245;-3,54E+02;0.012972191;0.011072813;0.01617527;-0.017038232;0.0144158555;0.00934549;300;5019;0;0;5091;630;0.0;0.0;0.0;0.0;GPS_Atti;4;0;0;0;0;10;5000;0.0;0.0;17;5;3;2;0;0;;;;;;;1,00E+01;0.0;1.0;1,00E+01;0.0;1,00E+01;1,00E+01;0.0;0.018825332;1,00E+01;-2,19E+01;1,00E+01;-0.1;0.020000001;0.0;0.0;0.0;180.0;0.0;0.0;0.0;0;0.9999957;9,83E+02;0.002033012;-0.0018921534;-0.11307356770673323;-0.23275294268094301;0.2165957895472035;3.283.086;-0.020574225;0.0070011495;0;0;2552;GPS_Atti;OTHER;NONE;GPS_POSITION_NONMATCH;FALSE;Connected;;P;FALSE;FALSE;FALSE;0;0;0.1;0.0;0.1;;;;;;;
37917937;6.618;;;32.738.342;3.276.065;;;0;0.11115194761742807;0.22341568403637765;-0.04105706627510136;0.0041799704;-0.0012689901;-10.006.255;1.000.635;-0.7854275;0.8239599;0.6292936;13.006.986;-3,00E+03;3,94E+03;0.0017533405;0.0018219023;4,95E+11;0;0;0;0.0;56.6;-0.04105706627510136;0.2495377183219664;15.350.814.131.366.400;15.354.919.837.994.000;35.995.894.293.372.400;NaN;NaN;0.0;0.0;0.0;-0.0;NaN;NaN;NaN;NaN;NaN;NaN;NaN;NaN;FALSE;FALSE;29.906.389.097.813.900;-6.384.761.108.943.890;5.330.943.417.544.410;;0.0;;;0.99999756;9,71E+02;0.0019493198;-3,56E+02;0.0030507091;0.0069904053;0.012009621;-0.017030468;0.014413702;0.009341685;300;5022;0;0;5131;640;0.0;0.0;0.0;0.0;GPS_Atti;4;0;0;0;0;10;5000;0.0;0.0;17;5;3;2;0;0;;;;;;;1,00E+01;0.0;1.0;1,00E+01;0.0;1,00E+01;1,00E+01;0.0;0.018825332;1,00E+01;-2,19E+01;1,00E+01;-0.1;0.020000001;0.0;0.0;0.0;180.0;0.0;0.0;0.0;0;0.99999565;9,99E+02;0.0020106914;-0.0019283951;-0.11487325156708122;-0.2301876557350804;0.22074772511449536;3.282.756;-0.014638154;0.0033759195;0;0;2572;GPS_Atti;OTHER;NONE;GPS_POSITION_NONMATCH;FALSE;Connected;;P;FALSE;FALSE;FALSE;0;0;0.1;0.0;0.1;;;;;;;
38140369;6.667;;;3.275.684;32.760.277;;;0;0.2454968526877138;0.2434236105836619;-0.13607454072688951;0.032983053;-0.019642882;-0.99407834;0.9948193;49.727.955;13.161.854;11.106.564;52.625.656;0.0013643003;-0.003333448;0.003955298;0.0053495397;0.0036018315727095233;0;0;0;0.0;56.53;-0.13607454072688951;0.34571998556357275;13.462.096.415.780.000;13.475.703.869.852.700;3.598.639.254.592.730;NaN;NaN;0.0;0.0;0.0;-0.0;NaN;NaN;NaN;NaN;NaN;NaN;NaN;NaN;FALSE;FALSE;3.035.929.919.025.210;-6.275.763.654.097.440;538.665.153.437.487;;0.0;;;0.99999475;0.0021448787;0.0021217198;-0.0011829177;0.15954953;-1,44E+03;0.044080734;-0.017023526;0.014411639;0.009338629;300;5020;0;0;5171;640;0.0;0.0;0.0;0.0;GPS_Atti;4;0;0;0;0;10;5000;0.0;0.0;17;5;3;2;0;0;;;;;;;1,00E+01;0.0;1.0;1,00E+01;0.0;1,00E+01;1,00E+01;0.0;0.018825332;1,00E+01;-2,19E+01;1,00E+01;-0.1;0.020000001;0.0;0.0;0.0;180.0;0.0;0.0;0.0;0;0.99999565;9,99E+02;0.0020106914;-0.0019283951;-0.11487325156708122;-0.2301876557350804;0.22074772511449536;3.282.756;-0.014638154;0.0033759195;0;0;2572;GPS_Atti;OTHER;NONE;GPS_POSITION_NONMATCH;FALSE;Connected;;P;FALSE;FALSE;FALSE;0;0;0.1;0.0;0.1;;;;;;;
38700646;6.792;;;3.275.684;32.760.277;;;0;0.2454968526877138;0.2434236105836619;-0.13607454072688951;0.032983053;-0.019642882;-0.99407834;0.9948193;49.727.955;13.161.854;11.106.564;52.625.656;0.0013643003;-0.003333448;0.003955298;0.0053495397;0.0036018315727095233;0;0;0;0.0;56.53;-0.13607454072688951;0.34571998556357275;13.462.096.415.780.000;13.475.703.869.852.700;3.598.639.254.592.730;NaN;NaN;0.0;0.0;0.0;-0.0;NaN;NaN;NaN;NaN;NaN;NaN;NaN;NaN;FALSE;FALSE;3.035.929.919.025.210;-6.275.763.654.097.440;538.665.153.437.487;;0.0;;;0.99999475;0.0021448787;0.0021217198;-0.0011829177;0.15954953;-1,44E+03;0.044080734;-0.017023526;0.014411639;0.009338629;300;5020;0;0;5171;640;0.0;0.0;0.0;0.0;GPS_Atti;4;0;0;0;0;10;5000;0.0;0.0;17;5;3;2;0;0;;;;;;;1,00E+01;0.0;1.0;1,00E+01;0.0;1,00E+01;1,00E+01;0.0;0.05275335;1,00E+01;-0.19573402;1,00E+01;-0.1;0.020000001;0.0;0.0;0.0;180.0;0.0;0.0;0.0;0;0.99999106;0.002221285;0.0022635537;-0.0027929167;-0.2552635126119697;-0.25867437276437555;0.31947049507000325;328.259;-0.01298871;0.035615936;0;0;2592;GPS_Atti;OTHER;NONE;GPS_POSITION_NONMATCH;FALSE;Connected;;P;FALSE;FALSE;FALSE;0;0;0.1;0.0;0.1;;;;;;;
38855310;6.826;;;32.828.182;32.767.998;;;0;51.461.350.382.484.100;10.449.395.129.148.100;7.478.909.443.217.890;0.42784792;0.21385942;-0.8016302;0.9334884;9.762.862;-44.994.194;41.571.545;62.032.124;0.12158031;-0.06785603;-0.09256398;0.16719541;0.13923438250952952;0;0;0;0.0;56.73;7.478.909.443.217.890;5.250.038.799.751.930;1.762.383.092.630.930;10.144.921.483.091.400;7.478.909.443.217.900;NaN;NaN;0.0;0.0;0.0;-0.0;NaN;NaN;NaN;NaN;NaN;NaN;NaN;NaN;FALSE;FALSE;6.371.413.087.461.990;-5.124.217.177.493.060;1.973.349.050.909.040;;0.0;;;0.7933898;0.03013289;0.034499887;0.60698795;-22.287.586;4.934.979;4.666.004;-0.017029338;0.014410823;0.009331165;300;5021;0;0;5291;660;0.0;0.0;0.0;0.0;GPS_Atti;2;0;0;0;0;10;5000;0.0;0.0;17;5;3;2;0;0;;;;;;;1,00E+01;0.0;1.0;1,00E+01;0.0;1,00E+01;1,00E+01;0.0;0.05275335;1,00E+01;-0.19573402;1,00E+01;-0.1;0.020000001;0.0;0.0;0.0;180.0;0.0;0.0;0.0;0;0.7951772;0.03451082;0.033417966;0.60447127;-0.8299031381986798;-5.444.294.991.361.730;-7.452.159.776.076.050;32.838.936;-0.14331503;47.051.215;0;0;2652;GPS_Atti;OTHER;NONE;GPS_POSITION_NONMATCH;FALSE;Connected;;P;FALSE;FALSE;FALSE;0;0;0.1;0.0;0.1;;;;;;;
39077749;6.875;;;3.284.932;3.277.894;;;0;15.345.327.499.926.400;8.701.391.465.460.160;797.854.623.339.093;0.15694177;-0.22666602;-10.662.483;11.013.145;-15.646.825;1.916.756;1.072.904;247.663;0.025113203;0.1105801;-0.2735567;0.29612818;0.11339590830648297;0;0;0;0.0;56.6;797.854.623.339.093;8.831.614.664.410.370;-11.014.294.158.776.300;17.007.159.607.832.700;7.978.546.233.390.930;NaN;NaN;0.0;0.0;0.0;-0.0;NaN;NaN;NaN;NaN;NaN;NaN;NaN;NaN;FALSE;FALSE;7.731.553.694.356.660;-8.939.469.935.449.450;5.787.978.176.008.640;;0.0;;;0.76431555;-0.038404737;0.06676243;0.64022624;39.848.223;-0.09608117;-20.494.823;-0.017028186;0.01441141;0.0093311705;300;5022;0;0;5331;660;0.0;0.0;0.0;0.0;GPS_Atti;2;0;0;0;0;10;5000;0.0;0.0;17;5;3;2;0;0;;;;;;;1,00E+01;0.0;1.0;1,00E+01;0.0;1,00E+01;1,00E+01;0.0;0.05275335;1,00E+01;-0.19573402;1,00E+01;-0.1;0.020000001;0.0;0.0;0.0;180.0;0.0;0.0;0.0;0;0.7951772;0.03451082;0.033417966;0.60447127;-0.8299031381986798;-5.444.294.991.361.730;-7.452.159.776.076.050;32.838.936;-0.14331503;47.051.215;0;0;2652;GPS_Atti;OTHER;NONE;GPS_POSITION_NONMATCH;FALSE;Connected;;P;FALSE;FALSE;FALSE;0;0;0.1;0.0;0.1;;;;;;;
39280352;6.920;;;3.284.932;3.277.894;;;0;15.345.327.499.926.400;8.701.391.465.460.160;797.854.623.339.093;0.15694177;-0.22666602;-10.662.483;11.013.145;-15.646.825;1.916.756;1.072.904;247.663;0.025113203;0.1105801;-0.2735567;0.29612818;0.11339590830648297;0;0;0;0.0;56.6;797.854.623.339.093;8.831.614.664.410.370;-11.014.294.158.776.300;17.007.159.607.832.700;7.978.546.233.390.930;NaN;NaN;0.0;0.0;0.0;-0.0;NaN;NaN;NaN;NaN;NaN;NaN;NaN;NaN;FALSE;FALSE;7.731.553.694.356.660;-8.939.469.935.449.450;5.787.978.176.008.640;;0.0;;;0.76431555;-0.038404737;0.06676243;0.64022624;39.848.223;-0.09608117;-20.494.823;-0.017028186;0.01441141;0.0093311705;300;5022;0;0;5331;670;0.0;0.0;0.0;0.0;GPS_Atti;2;0;0;0;0;10;5000;0.0;0.0;17;5;3;2;0;0;;;;;;;1,00E+01;0.0;1.0;1,00E+01;0.0;1,00E+01;1,00E+01;0.0;22.652.888;1,00E+01;-4.371.913;1,00E+01;-0.1;0.020000001;0.0;0.0;0.0;180.0;0.0;0.0;0.0;0;0.76627225;-0.03668088;0.06549877;0.63811535;803.665.702.999.475;-31.010.908.545.779.500;-793.539.745.807.274;328.517;-0.28791356;-20.575.292;0;0;2672;GPS_Atti;OTHER;NONE;GPS_POSITION_NONMATCH;FALSE;Connected;;P;FALSE;FALSE;FALSE;0;0;0.1;0.0;0.1;;;;;;;
39446786;6.957;;;32.854.603;3.280.936;;;0;5.638.525.178.625.180;24.742.776.698.599.600;8.049.438.536.005.400;0.28208205;-0.102333464;-0.7713694;0.8276794;1.709.639;7.196.072;9.388.282;20.789.658;0.08877511;0.038626283;-0.19872391;0.22105248;0.09681431230716692;0;0;0;0.0;56.71;8.049.438.536.005.400;2.523.498.859.184.900;-11.159.745.289.393.100;16.790.816.174.601.400;8.049.438.536.005.400;NaN;NaN;0.0;0.0;0.0;-0.0;NaN;NaN;NaN;NaN;NaN;NaN;NaN;NaN;FALSE;FALSE;10.464.982.700.696.600;-8.560.709.501.642.700;12.676.596.225.507.800;;0.0;;;0.7378299;-0.10158511;0.1943698;0.6383634;-0.21674937;-0.258006;29.442.148;-0.017029919;0.014415132;0.0093311155;500;5023;0;0;5371;670;0.0;0.0;0.0;0.0;GPS_Atti;2;0;0;0;0;10;5000;0.0;0.0;17;5;3;2;0;0;;;;;;;1,00E+01;0.0;1.0;1,00E+01;0.0;1,00E+01;1,00E+01;0.0;22.652.888;1,00E+01;-4.371.913;1,00E+01;-0.1;0.020000001;0.0;0.0;0.0;180.0;0.0;0.0;0.0;0;0.74006957;-0.09801257;0.19268514;0.6368383;22.985.040.938.813.400;-10.031.776.605.570.100;-7.938.010.618.034.520;3.288.326;-0.23419432;29.353.087;0;0;2692;GPS_Atti;OTHER;NONE;GPS_POSITION_NONMATCH;FALSE;Connected;;P;FALSE;FALSE;FALSE;0;0;0.1;0.0;0.1;;;;;;;
39638115;7.000;;;328.731;32.824.905;;;0;13.632.771.134.409.400;3.380.760.905.657.330;7.859.902.297.814.070;0.47687712;-0.12621747;-0.8002746;0.94009686;-60.122.967;2.098.244;12.036.434;6.480.672;0.10342091;0.012555537;-0.15662037;0.18810494;0.1041802581225095;0;0;0;0.0;56.86;7.859.902.297.814.070;35.458.526.061.643.400;-12.131.057.376.214.900;16.009.040.325.970.900;7.859.902.297.814.070;NaN;NaN;0.0;0.0;0.0;-0.0;NaN;NaN;NaN;NaN;NaN;NaN;NaN;NaN;FALSE;FALSE;13.221.158.517.503.300;-5.676.464.371.934.920;15.095.114.783.697.800;;0.0;;;0.71331954;-0.094983935;0.29534328;0.6284311;-0.7170727;0.061836123;0.7883549;-0.017030621;0.014415389;0.009331102;400;5022;0;0;5411;670;0.0;0.0;0.0;0.0;GPS_Atti;2;0;0;0;0;10;5000;0.0;0.0;17;5;3;2;0;0;;;;;;;1,00E+01;0.0;1.0;1,00E+01;0.0;1,00E+01;1,00E+01;0.0;0.120352745;1,00E+01;17.388.334;1,00E+01;-0.1;0.020000001;0.0;0.0;0.0;180.0;0.0;0.0;0.0;0;0.7154452;-0.09068983;0.2936453;0.62744397;29.884.892.751.810.700;-2.069.265.503.176.470;-7.692.267.551.713.580;32.900.692;-0.18231794;0.78338057;0;0;2712;GPS_Atti;OTHER;NONE;GPS_POSITION_NONMATCH;FALSE;Connected;;P;FALSE;FALSE;FALSE;0;0;0.1;0.0;0.1;;;;;;;
39793319;7.034;;;329.418;32.833.473;;;0;16.114.658.209.497.700;3.517.957.425.933.260;8.476.142.997.521.870;0.47926396;-0.1236354;-0.687133;0.84683615;-23.342.096;35.741.364;45.493.492;62.385.544;0.038428865;0.04489524;-0.067448996;0.08967568;0.059096194768556834;0;0;0;0.0;56.8;8.476.142.997.521.870;373.001.286.692.033;-11.752.579.662.443.100;15.771.277.340.035;8.476.142.997.521.870;NaN;NaN;0.0;0.0;0.0;-0.0;NaN;NaN;NaN;NaN;NaN;NaN;NaN;NaN;FALSE;FALSE;14.716.005.216.236.800;-7.845.204.748.492.170;16.569.015.365.720.700;;0.0;;;0.6686426;-0.10299249;0.31108674;0.6674839;-0.6632303;-0.10406166;0.77885246;-0.017033167;0.014413846;0.009331024;300;5022;0;0;5451;680;0.0;0.0;0.0;0.0;GPS_Atti;2;0;0;0;0;10;5000;0.0;0.0;17;5;3;2;0;0;;;;;;;1,00E+01;0.0;1.0;1,00E+01;0.0;1,00E+01;1,00E+01;0.0;0.120352745;1,00E+01;17.388.334;1,00E+01;-0.1;0.020000001;0.0;0.0;0.0;180.0;0.0;0.0;0.0;0;0.67131275;-0.10014122;0.3088353;0.666282;33.092.681.038.961.100;-19.612.203.551.949.000;-8.368.995.746.275.120;32.913.895;-0.1006379;0.7701991;0;0;2732;GPS_Atti;OTHER;NONE;GPS_POSITION_NONMATCH;FALSE;Connected;;P;FALSE;FALSE;FALSE;0;0;0.1;0.0;0.1;;;;;;;
40410308;7.171;;;329.418;32.833.473;;;0;16.114.658.209.497.700;3.517.957.425.933.260;8.476.142.997.521.870;0.47926396;-0.1236354;-0.687133;0.84683615;-23.342.096;35.741.364;45.493.492;62.385.544;0.038428865;0.04489524;-0.067448996;0.08967568;0.059096194768556834;0;0;0;0.0;56.8;8.476.142.997.521.870;373.001.286.692.033;-11.752.579.662.443.100;15.771.277.340.035;8.476.142.997.521.870;NaN;NaN;0.0;0.0;0.0;-0.0;NaN;NaN;NaN;NaN;NaN;NaN;NaN;NaN;FALSE;FALSE;14.716.005.216.236.800;-7.845.204.748.492.170;16.569.015.365.720.700;;0.0;;;0.6686426;-0.10299249;0.31108674;0.6674839;-0.6632303;-0.10406166;0.77885246;-0.017033167;0.014413846;0.009331024;300;5022;0;0;5451;680;0.0;0.0;0.0;0.0;GPS_Atti;2;0;0;0;0;10;5000;0.0;0.0;17;5;3;2;0;0;;;;;;;1,00E+01;0.0;1.0;1,00E+01;0.0;1,00E+01;1,00E+01;0.0;0.120352745;1,00E+01;17.388.334;1,00E+01;-0.1;0.020000001;0.0;0.0;0.0;180.0;0.0;0.0;0.0;0;0.67131275;-0.10014122;0.3088353;0.666282;33.092.681.038.961.100;-19.612.203.551.949.000;-8.368.995.746.275.120;32.913.895;-0.1006379;0.7701991;0;0;2732;GPS_Atti;OTHER;NONE;GPS_POSITION_NONMATCH;FALSE;Connected;;P;FALSE;FALSE;FALSE;0;0;0.1;0.0;0.1;;;;;;;
40575630;7.208;;;32.944.443;3.282.974;;;0;18.971.364.017.171.800;3.754.030.542.726.070;9.059.919.831.544.910;0.44807;-0.33339557;-0.7428885;0.92940986;-2.287.757;11.815.093;0.9634116;25.766.407;-0.0384484;-0.027174547;0.058316;0.07494992;0.04708221945791876;0;0;0;0.0;56.99;9.059.919.831.544.910;4.009.182.280.442.350;-11.350.244.750.894.400;15.589.835.417.560.600;905.991.983.154.492;NaN;NaN;0.0;0.0;0.0;-0.0;NaN;NaN;NaN;NaN;NaN;NaN;NaN;NaN;FALSE;FALSE;18.347.023.640.983.600;-11.457.680.904.847.200;20.285.973.579.606.100;;0.0;;;0.6191922;-0.115830876;0.33414987;0.70109063;0.19148898;-10.388.682;0.96102905;-0.017028369;0.014419091;0.009331448;300;5026;0;0;5571;680;0.0;0.0;0.0;0.0;GPS_Atti;2;0;0;0;0;10;5000;0.0;0.0;17;5;3;2;0;0;;;;;;;1,00E+01;0.0;9.712.289;1,00E+01;0.0;1,00E+01;1,00E+01;0.0;-0.51924086;1,00E+01;0.1065855;1,00E+01;-0.1;0.020000001;0.0;0.0;0.0;180.0;0.0;0.0;0.0;0;0.6227938;-0.112797864;0.3300759;0.70032454;3.707.214.041.660.490;-18.498.339.250.770.400;-9.045.640.186.778.460;32.915.913;0.018632019;0.9449874;0;0;2792;GPS_Atti;OTHER;NONE;GPS_POSITION_NONMATCH;FALSE;Connected;;P;FALSE;FALSE;FALSE;0;0;0.1;0.0;0.1;;;;;;;
40730738;7.243;;;3.291.009;328.223;;;0;16.695.338.154.671.000;372.096.177.696.271;9.156.102.416.202.570;0.46208408;-0.32650542;-0.7402029;0.9316801;-6.348.201;-9.280.422;25.106.314;27.509.142;-0.033560704;-0.06926523;0.13739552;0.157485;0.07696748287332666;0;0;0;0.0;56.94;9.156.102.416.202.570;392.280.304.535.531;-10.999.298.617.117.600;15.844.598.966.679.700;9.156.102.416.202.570;NaN;NaN;0.0;0.0;0.0;-0.0;NaN;NaN;NaN;NaN;NaN;NaN;NaN;NaN;FALSE;FALSE;19.026.776.334.517.100;-12.219.725.599.250.100;20.352.063.624.731.000;;0.0;;;0.620766;-0.13026595;0.31875217;0.70432764;0.3819983;-0.9612726;0.968256;-0.017028887;0.014419473;0.009331422;400;5026;0;0;5611;700;0.0;0.0;0.0;0.0;GPS_Atti;2;0;0;0;0;10;5000;0.0;0.0;17;5;3;2;0;0;;;;;;;1,00E+01;0.0;9.712.289;1,00E+01;0.0;1,00E+01;1,00E+01;0.0;-0.51924086;1,00E+01;0.1065855;1,00E+01;-0.1;0.020000001;0.0;0.0;0.0;180.0;0.0;0.0;0.0;0;0.62438476;-0.12672654;0.3143584;0.7037492;369.208.470.113.692;-15.540.592.486.205.200;-9.162.312.269.414.370;3.290.718;0.09945627;0.9528652;0;0;2812;GPS_Atti;OTHER;NONE;GPS_POSITION_NONMATCH;FALSE;Connected;;P;FALSE;FALSE;FALSE;0;0;0.1;0.0;0.1;;;;;;;
40953408;7.292;;;32.931.232;32.806.557;;;0;12.261.109.430.923.300;3.358.172.915.264.440;8.902.435.911.373.500;0.44349983;-0.35928214;-0.99374264;11.459.931;-47.643.852;-32.293.137;-53.525.597;7.859.881;0.051291183;-0.2325626;0.19312121;0.30661368;0.23815152279635063;0;0;0;0.0;56.94;8.902.435.911.373.500;34.938.224.529.803.400;-10.910.024.860.593.500;1.618.753.922.803.290;8.902.435.911.373.500;NaN;NaN;0.0;0.0;0.0;-0.0;NaN;NaN;NaN;NaN;NaN;NaN;NaN;NaN;FALSE;FALSE;1.828.676.311.595.950;-13.625.631.338.065.100;19.269.524.591.149.700;;0.0;;;0.65716636;-0.12845531;0.27649936;0.68933284;0.85476995;-23.426.456;-12.881.889;-0.017029155;0.014419952;0.009331429;400;5026;0;0;5651;700;0.0;0.0;0.0;0.0;GPS_Atti;2;0;0;0;0;10;5000;0.0;0.0;17;5;3;2;0;0;;;;;;;1,00E+01;0.0;9.712.289;1,00E+01;0.0;1,00E+01;1,00E+01;0.0;-0.51924086;1,00E+01;0.1065855;1,00E+01;-0.1;0.020000001;0.0;0.0;0.0;180.0;0.0;0.0;0.0;0;0.62438476;-0.12672654;0.3143584;0.7037492;369.208.470.113.692;-15.540.592.486.205.200;-9.162.312.269.414.370;3.290.718;0.09945627;0.9528652;0;0;2812;GPS_Atti;OTHER;NONE;GPS_POSITION_NONMATCH;FALSE;Connected;;P;FALSE;FALSE;FALSE;0;0;0.1;0.0;0.1;;;;;;;
41111994;7.327;;;32.931.232;32.806.557;;;0;12.261.109.430.923.300;3.358.172.915.264.440;8.902.435.911.373.500;0.44349983;-0.35928214;-0.99374264;11.459.931;-47.643.852;-32.293.137;-53.525.597;7.859.881;0.051291183;-0.2325626;0.19312121;0.30661368;0.23815152279635063;0;0;0;0.0;56.94;8.902.435.911.373.500;34.938.224.529.803.400;-10.910.024.860.593.500;1.618.753.922.803.290;8.902.435.911.373.500;NaN;NaN;0.0;0.0;0.0;-0.0;NaN;NaN;NaN;NaN;NaN;NaN;NaN;NaN;FALSE;FALSE;1.828.676.311.595.950;-13.625.631.338.065.100;19.269.524.591.149.700;;0.0;;;0.65716636;-0.12845531;0.27649936;0.68933284;0.85476995;-23.426.456;-12.881.889;-0.017029155;0.014419952;0.009331429;400;5026;0;0;5651;700;0.0;0.0;0.0;0.0;GPS_Atti;2;0;0;0;0;10;5000;0.0;0.0;17;5;3;2;0;0;;;;;;;1,00E+01;0.0;9.154.622;1,00E+01;0.0;1,00E+01;1,00E+01;0.0;-11.266.103;1,00E+01;-18.538.179;1,00E+01;-0.1;0.020000001;0.0;0.0;0.0;180.0;0.0;0.0;0.0;0;0.65974605;-0.12215732;0.2713143;0.6900735;32.387.267.526.745.600;-12.961.196.878.920.200;-8.879.539.678.695.570;3.289.028;0.16434994;-13.319.252;0;0;2832;GPS_Atti;OTHER;NONE;GPS_POSITION_NONMATCH;FALSE;Connected;;P;FALSE;FALSE;FALSE;0;0;0.1;0.0;0.1;;;;;;;
41321789;7.374;;;3.291.538;32.779.152;;;0;-11.246.091.181.347.600;22.909.863.731.383.100;6.710.735.894.672.710;0.3278799;0.07194681;-1.437.384;14.760.604;6.738.031;-17.301.062;-37.361.194;41.720.337;0.44580895;-0.93606466;0.44773632;11.293.496;10.368.040.968.167.900;0;0;0;0.0;56.94;6.710.735.894.672.710;2.293.201.193.685.020;-11.023.316.631.563.500;-17.734.052.526.236.200;6.710.735.894.672.710;NaN;NaN;0.0;0.0;0.0;-0.0;NaN;NaN;NaN;NaN;NaN;NaN;NaN;NaN;FALSE;FALSE;7.167.531.198.839.060;-1.311.185.244.076.800;139.250.631.547.445;;0.0;;;0.8178066;-0.117778584;0.16018027;0.5400582;-1.158.276;-28.595.915;-33.642.426;-0.017054595;0.0144157605;0.009327711;400;5025;0;0;5691;710;0.0;0.0;0.0;0.0;GPS_Atti;2;0;0;0;0;10;5000;0.0;0.0;17;5;3;2;0;0;;;;;;;1,00E+01;0.0;9.154.622;1,00E+01;0.0;1,00E+01;1,00E+01;0.0;-11.266.103;1,00E+01;-18.538.179;1,00E+01;-0.1;0.020000001;0.0;0.0;0.0;180.0;0.0;0.0;0.0;0;0.817877;-0.10109919;0.15555912;0.54466283;1.956.207.483.698.460;-881.052.817.820.502;-6.580.127.888.615.550;32.864.296;0.4048625;-34.452.343;0;0;2852;GPS_Atti;OTHER;NONE;GPS_POSITION_NONMATCH;FALSE;Connected;;P;FALSE;FALSE;FALSE;0;0;0.1;0.0;0.1;;;;;;;
41513125;7.417;;;3.282.554;32.758.327;;;0;25.218.004.963.718.800;12.158.655.565.404.600;3.560.025.377.127.620;0.82481337;0.6911958;-11.861.511;16.015.689;12.915.143;-1.615.183;-3.844.585;40.589.322;0.4103247;-10.542.583;0.14148259;11.401.072;11.312.943.908.243.400;0;0;0;0.0;57.02;3.560.025.377.127.620;12.402.382.967.273.200;-15.595.281.839.437.800;16.844.692.783.434.500;3.560.025.377.127.620;NaN;NaN;0.0;0.0;0.0;-0.0;NaN;NaN;NaN;NaN;NaN;NaN;NaN;NaN;FALSE;FALSE;-1.257.810.358.986.640;-7.992.745.097.278.780;899.790.533.574.717;;0.0;;;0.9458325;-0.011533294;0.107500136;0.30612352;0.33329332;75.190.153;-42.432.117;-0.01706419;0.014415313;0.009326275;400;5029;0;0;5731;710;0.0;0.0;0.0;0.0;GPS_Atti;2;0;0;0;0;10;5000;0.0;0.0;17;5;3;2;0;0;;;;;;;1,00E+01;0.0;90.096.497;1,00E+01;0.0;1,00E+01;1,00E+01;0.0;54.583.035;1,00E+01;-19.086.885;1,00E+01;-0.1;0.020000001;0.0;0.0;0.0;180.0;0.0;0.0;0.0;0;0.9447665;0.006708896;0.106859334;0.30976155;30.682.314.484.630.300;-11.909.499.319.961.900;-3.598.552.750.916.070;3.284.289;0.107592925;-39.732.082;0;0;2872;GPS_Atti;OTHER;NONE;GPS_POSITION_NONMATCH;FALSE;Connected;;P;FALSE;FALSE;FALSE;0;0;0.1;0.0;0.1;;;;;;;
41981870;7.521;;;3.282.554;32.758.327;;;0;25.218.004.963.718.800;12.158.655.565.404.600;3.560.025.377.127.620;0.82481337;0.6911958;-11.861.511;16.015.689;12.915.143;-1.615.183;-3.844.585;40.589.322;0.4103247;-10.542.583;0.14148259;11.401.072;11.312.943.908.243.400;0;0;0;0.0;57.02;3.560.025.377.127.620;12.402.382.967.273.200;-15.595.281.839.437.800;16.844.692.783.434.500;3.560.025.377.127.620;NaN;NaN;0.0;0.0;0.0;-0.0;NaN;NaN;NaN;NaN;NaN;NaN;NaN;NaN;FALSE;FALSE;-1.257.810.358.986.640;-7.992.745.097.278.780;899.790.533.574.717;;0.0;;;0.9458325;-0.011533294;0.107500136;0.30612352;0.33329332;75.190.153;-42.432.117;-0.01706419;0.014415313;0.009326275;400;5029;0;0;5731;710;0.0;0.0;0.0;0.0;GPS_Atti;2;0;0;0;0;10;5000;0.0;0.0;17;5;3;2;0;0;;;;;;;1,00E+01;0.0;90.096.497;1,00E+01;0.0;1,00E+01;1,00E+01;0.0;54.583.035;1,00E+01;-19.086.885;1,00E+01;-0.1;0.020000001;0.0;0.0;0.0;180.0;0.0;0.0;0.0;0;0.9447665;0.006708896;0.106859334;0.30976155;30.682.314.484.630.300;-11.909.499.319.961.900;-3.598.552.750.916.070;3.284.289;0.107592925;-39.732.082;0;0;2872;GPS_Atti;OTHER;NONE;GPS_POSITION_NONMATCH;FALSE;Connected;;P;FALSE;FALSE;FALSE;0;0;0.1;0.0;0.1;;;;;;;
42136681;7.555;;;32.785.904;3.273.006;;;0;0.1285922823565347;-0.0815540694300593;-7.580.763.955.876.220;-0.042057984;0.016334744;-10.142.719;10.152.749;0.16607763;201.845;11.792.936;23.435.988;0.0401059;-0.108432226;0.023621986;0.11800013;0.11561155418237401;0;0;0;0.0;57.05;-7.580.763.955.876.220;0.1522727705552178;5.003.612.357.659.410;5.761.688.753.247.040;35.241.923.604.412.300;NaN;NaN;0.0;0.0;0.0;-0.0;NaN;NaN;NaN;NaN;NaN;NaN;NaN;NaN;FALSE;FALSE;-4.251.521.185.858.580;2.107.965.165.249.040;7.893.977.587.909.120;;0.0;;;0.9978117;0.0010726767;-7,84E+02;-0.06610714;-0.66750103;0.7544149;-0.14757729;-0.017038692;0.014454051;0.009334739;400;5030;0;0;5851;730;0.0;0.0;0.0;0.0;GPS_Atti;2;0;0;0;0;10;5000;0.0;0.0;17;5;3;2;0;0;;;;;;;1,00E+01;0.0;90.096.497;1,00E+01;0.0;1,00E+01;1,00E+01;0.0;54.583.035;1,00E+01;-19.086.885;1,00E+01;-0.1;0.020000001;0.0;0.0;0.0;180.0;0.0;0.0;0.0;0;0.9976314;0.005964349;-0.0011523856;-0.06851937;-0.6728123032379112;0.17858394820798623;78.590.900.772.481.300;32.808.098;0.014685612;-0.1410156;0;0;2932;GPS_Atti;OTHER;NONE;GPS_POSITION_NONMATCH;FALSE;Connected;;P;FALSE;FALSE;FALSE;0;0;0.1;0.0;0.1;;;;;;;
42359104;7.605;;;3.281.497;3.273.549;;;0;0.2651876980986155;0.006055762358733595;-4.740.728.961.133.770;0.15772751;-0.10442398;-10.304.631;10.476.816;16.286.547;857.235;10.880.147;1.091.508;-0.05112495;0.012985383;0.010783419;0.05383923;0.05274827429597781;0;0;0;0.0;57.17;-4.740.728.961.133.770;0.2652568310772367;8.656.742.695.854.700;9.130.815.591.968.080;35.525.927.103.886.600;NaN;NaN;0.0;0.0;0.0;-0.0;NaN;NaN;NaN;NaN;NaN;NaN;NaN;NaN;FALSE;FALSE;-3.965.555.221.285.620;21.546.308.147.378.200;8.169.353.769.395.770;;0.0;;;0.9991417;0.0023144027;-4,29E+01;-0.04135863;11.877.145;-0.74834627;-0.29896927;-0.01704504;0.014456167;0.009333962;300;5031;0;0;5891;730;0.0;0.0;0.0;0.0;GPS_Atti;2;0;0;0;0;10;5000;0.0;0.0;17;5;3;2;0;0;;;;;;;1,00E+01;0.0;90.096.497;1,00E+01;0.0;1,00E+01;1,00E+01;0.0;54.583.035;1,00E+01;-19.086.885;1,00E+01;-0.1;0.020000001;0.0;0.0;0.0;180.0;0.0;0.0;0.0;0;0.9976314;0.005964349;-0.0011523856;-0.06851937;-0.6728123032379112;0.17858394820798623;78.590.900.772.481.300;32.808.098;0.014685612;-0.1410156;0;0;2932;GPS_Atti;OTHER;NONE;GPS_POSITION_NONMATCH;FALSE;Connected;;P;FALSE;FALSE;FALSE;0;0;0.1;0.0;0.1;;;;;;;
42518291;7.640;;;3.281.497;3.273.549;;;0;0.2651876980986155;0.006055762358733595;-4.740.728.961.133.770;0.15772751;-0.10442398;-10.304.631;10.476.816;16.286.547;857.235;10.880.147;1.091.508;-0.05112495;0.012985383;0.010783419;0.05383923;0.05274827429597781;0;0;0;0.0;57.17;-4.740.728.961.133.770;0.2652568310772367;8.656.742.695.854.700;9.130.815.591.968.080;35.525.927.103.886.600;NaN;NaN;0.0;0.0;0.0;-0.0;NaN;NaN;NaN;NaN;NaN;NaN;NaN;NaN;FALSE;FALSE;-3.965.555.221.285.620;21.546.308.147.378.200;8.169.353.769.395.770;;0.0;;;0.9991417;0.0023144027;-4,29E+01;-0.04135863;11.877.145;-0.74834627;-0.29896927;-0.01704504;0.014456167;0.009333962;300;5031;0;0;5891;730;0.0;0.0;0.0;0.0;GPS_Atti;2;0;0;0;0;10;5000;0.0;0.0;17;5;3;2;0;0;;;;;;;1,00E+01;0.0;1.0;1,00E+01;0.0;1,00E+01;1,00E+01;0.0;15.689.555;1,00E+01;-0.14021301;1,00E+01;-0.1;0.020000001;0.0;0.0;0.0;180.0;0.0;0.0;0.0;0;0.99899226;0.0052600787;-0.0020855009;-0.044525947;-0.5915227851844325;0.2655934938056076;5.105.437.017.301.520;3.280.751;0.013485354;-0.29670024;0;0;2952;GPS_Atti;OTHER;NONE;GPS_POSITION_NONMATCH;FALSE;Connected;;P;FALSE;FALSE;FALSE;0;0;0.1;0.0;0.1;;;;;;;
42754078;7.692;;;3.283.611;32.740.498;;;0;0.1748390722335329;-0.1540633488595205;5.408.916.880.448.240;0.020813443;-0.05456734;-1.007.559;10.092.502;0.6663525;19.280.117;60.103.657;60.138.264;-0.009917026;-0.054721214;0.006852708;0.056033187;0.055612575829172985;0;0;0;0.0;57.12;5.408.916.880.448.240;0.23303201915427815;5.402.332.727.943.610;4.861.441.039.898.780;540.891.688.044.826;NaN;NaN;0.0;0.0;0.0;-0.0;NaN;NaN;NaN;NaN;NaN;NaN;NaN;NaN;FALSE;FALSE;-3.525.604.162.192.730;22.144.093.953.442.800;8.442.859.090.315.070;;0.0;;;0.99888426;0.0015874944;-0.0012709653;0.04718203;0.53485745;-0.8086073;-0.0897274;-0.017033927;0.0144554125;0.009335561;300;5028;0;0;5931;740;0.0;0.0;0.0;0.0;GPS_Atti;2;0;0;0;0;10;5000;0.0;0.0;17;5;3;2;0;0;;;;;;;1,00E+01;0.0;1.0;1,00E+01;0.0;1,00E+01;1,00E+01;0.0;15.689.555;1,00E+01;-0.14021301;1,00E+01;-0.1;0.020000001;0.0;0.0;0.0;180.0;0.0;0.0;0.0;0;0.9990003;0.0055013043;-0.002822821;0.04427429;-0.6441078209236246;0.2952573696202419;-5.073.555.737.755.070;32.807.938;0.013134622;-0.092018425;0;0;2972;GPS_Atti;OTHER;NONE;GPS_POSITION_NONMATCH;FALSE;Connected;;P;FALSE;FALSE;FALSE;0;0;0.1;0.0;0.1;;;;;;;
42919382;7.729;;;32.851.963;3.274.725;;;0;0.18493087611443548;-0.17771296494257097;7.496.787.330.957.440;-0.038576465;0.023721017;-10.048.805;10.059.005;-0.25665468;13.524.214;0.94851327;16.717.035;0.04471615;-0.108330525;-4,81E+03;0.11719756;0.11719657147582367;0;0;0;0.0;57.1;7.496.787.330.957.440;0.25647785122820405;53.637.035.590.647.500;461.402.482.596.901;74.967.873.309.574.300;NaN;NaN;0.0;0.0;0.0;-0.0;NaN;NaN;NaN;NaN;NaN;NaN;NaN;NaN;FALSE;FALSE;-3.366.463.724.344.660;22.250.887.032.408.700;8.528.367.853.225.890;;0.0;;;0.99785846;0.0017117575;-0.0014420139;0.06537249;-0.3923902;0.22981179;-0.04868889;-0.017057879;0.014444576;0.009330986;400;5030;0;0;5971;740;0.0;0.0;0.0;0.0;GPS_Atti;2;0;0;0;0;10;5000;0.0;0.0;17;5;3;2;0;0;;;;;;;1,00E+01;0.0;1.0;1,00E+01;0.0;1,00E+01;1,00E+01;0.0;-0.16724855;1,00E+01;0.01966858;1,00E+01;-0.1;0.020000001;0.0;0.0;0.0;180.0;0.0;0.0;0.0;0;0.99800754;0.0062269387;-0.002329306;0.06274381;-0.7289000235498206;0.221634315186935;-71.933.863.376.745.700;32.809.883;0.01022234;-0.042837035;0;0;2992;GPS_Atti;OTHER;NONE;GPS_POSITION_NONMATCH;FALSE;Connected;;P;FALSE;FALSE;FALSE;0;0;0.1;0.0;0.1;;;;;;;
43074135;7.763;;;3.283.611;32.754.562;;;0;0.22963077232736875;-0.1354826165475938;749.582.825.316.671;-0.00647224;4,50E+01;-10.030.998;10.031.207;-0.82699835;10.133.617;0.6878196;14.778.106;0.04310973;-0.107143804;-0.009219773;0.11585874;0.11549131391063658;0;0;0;0.0;57.19;7.495.828.253.166.700;0.26661852500209376;669.552.256.269.645;59.459.397.373.797.800;7.495.828.253.166.730;NaN;NaN;0.0;0.0;0.0;-0.0;NaN;NaN;NaN;NaN;NaN;NaN;NaN;NaN;FALSE;FALSE;-3.362.199.267.755.380;21.968.475.586.535.800;8.590.022.663.794.600;;0.0;;;0.9978588;0.0020769017;-0.0010487888;0.06536426;-0.035673622;0.02472648;-0.03209114;-0.017100172;0.014417593;0.009322294;400;5030;0;0;6011;750;0.0;0.0;0.0;0.0;GPS_Atti;2;0;0;0;0;10;5000;0.0;0.0;17;5;3;2;0;0;;;;;;;1,00E+01;0.0;1.0;1,00E+01;0.0;1,00E+01;1,00E+01;0.0;-0.16724855;1,00E+01;0.01966858;1,00E+01;-0.1;0.020000001;0.0;0.0;0.0;180.0;0.0;0.0;0.0;0;0.99801344;0.0061422237;-0.002298993;0.06265905;-0.7189748575064908;0.2188372324373438;-7.183.686.489.354.820;3.281.095;0.009294282;-0.02638572;0;0;3012;GPS_Atti;OTHER;NONE;GPS_POSITION_NONMATCH;FALSE;Connected;;P;FALSE;FALSE;FALSE;0;0;0.1;0.0;0.1;;;;;;;
43296338;7.813;;;328.044;32.761.948;;;0;0.2305773894892966;-0.13722181099676062;7.495.144.782.312.850;-0.005804802;-7,82E+02;-10.015.433;10.015.604;-0.87381136;0.98990977;0.48064157;14.051.633;0.0;0.0;-0.016994959;0.016994959;0.0;0;0;0;0.0;57.12;7.495.144.782.312.850;0.26831949492309404;6.673.740.029.448.060;59.242.255.512.167.800;7.495.144.782.312.870;NaN;NaN;0.0;0.0;0.0;-0.0;NaN;NaN;NaN;NaN;NaN;NaN;NaN;NaN;FALSE;FALSE;-3.359.165.667.638.250;21.526.905.368.110.000;8.642.032.304.112.350;;0.0;;;0.9978591;0.0020861304;-0.0010634061;0.065358266;-0.035310514;0.02657957;-0.014548302;-0.01709845;0.014418446;0.009322616;300;5029;0;0;6051;750;0.0;0.0;0.0;0.0;GPS_Atti;2;0;0;0;0;10;5000;0.0;0.0;17;5;3;2;0;0;;;;;;;1,00E+01;0.0;1.0;1,00E+01;0.0;1,00E+01;1,00E+01;0.0;-0.16724855;1,00E+01;0.01966858;1,00E+01;-0.1;0.020000001;0.0;0.0;0.0;180.0;0.0;0.0;0.0;0;0.99801344;0.0061422237;-0.002298993;0.06265905;-0.7189748575064908;0.2188372324373438;-7.183.686.489.354.820;3.281.095;0.009294282;-0.02638572;0;0;3012;GPS_Atti;OTHER;NONE;GPS_POSITION_NONMATCH;FALSE;Connected;;P;FALSE;FALSE;FALSE;0;0;0.1;0.0;0.1;;;;;;;
43691210;7.901;;;328.044;32.761.948;;;0;0.2305773894892966;-0.13722181099676062;7.495.144.782.312.850;-0.005804802;-7,82E+02;-10.015.433;10.015.604;-0.87381136;0.98990977;0.48064157;14.051.633;0.0;0.0;-0.016994959;0.016994959;0.0;0;0;0;0.0;57.12;7.495.144.782.312.850;0.26831949492309404;6.673.740.029.448.060;59.242.255.512.167.800;7.495.144.782.312.870;NaN;NaN;0.0;0.0;0.0;-0.0;NaN;NaN;NaN;NaN;NaN;NaN;NaN;NaN;FALSE;FALSE;-3.359.165.667.638.250;21.526.905.368.110.000;8.642.032.304.112.350;;0.0;;;0.9978591;0.0020861304;-0.0010634061;0.065358266;-0.035310514;0.02657957;-0.014548302;-0.01709845;0.014418446;0.009322616;300;5029;0;0;6051;750;0.0;0.0;0.0;0.0;GPS_Atti;2;0;0;0;0;10;5000;0.0;0.0;17;5;3;2;0;0;;;;;;;1,00E+01;0.0;1.0;1,00E+01;0.0;1,00E+01;1,00E+01;0.0;0.011778228;1,00E+01;-0.009835243;1,00E+01;-0.1;0.020000001;0.0;0.0;0.0;180.0;0.0;0.0;0.0;0;0.9980189;0.006066959;-0.002301642;0.062580034;-0.7103684974486577;0.21973657002185684;-7.174.620.283.535.520;3.281.201;0.007883623;-0.007671442;0;0;3032;GPS_Atti;OTHER;NONE;GPS_POSITION_NONMATCH;FALSE;Connected;;P;FALSE;FALSE;FALSE;0;0;0.1;0.0;0.1;;;;;;;
43856895;7.937;;;32.888.954;32.777.523;;;0;0.22512600616807799;-0.13649930113949738;74.939.587.639.158.100;-0.004552274;-0.0023440765;-0.9998043;0.99981743;-10.093.693;0.81807643;0.5444874;14.087.377;0.0;0.0;-0.030118804;0.030118804;0.0;0;0;0;0.0;57.29;7.493.958.763.915.810;0.26327437082460714;6.626.460.257.719.680;5.877.064.381.328.100;7.493.958.763.915.820;NaN;NaN;0.0;0.0;0.0;-0.0;NaN;NaN;NaN;NaN;NaN;NaN;NaN;NaN;FALSE;FALSE;-335.382.257.617.774;2.054.536.973.949.370;8.736.266.646.478.300;;0.0;;;0.9978599;0.002038237;-0.0010602451;0.065348014;-0.023859777;0.014628737;-4,34E+02;-0.017090734;0.014421672;0.009323908;300;5030;0;0;6131;750;0.0;0.0;0.0;0.0;GPS_Atti;2;0;0;0;0;10;5000;0.0;0.0;17;5;3;2;0;0;;;;;;;1,00E+01;0.0;12.107.272;1,00E+01;0.0;1,00E+01;1,00E+01;0.0;0.038748298;1,00E+01;-0.019542694;1,00E+01;-0.1;0.020000001;0.0;0.0;0.0;180.0;0.0;0.0;0.0;0;0.99803;0.0058833603;-0.0022382473;0.062421974;-0.6888821259801067;0.21391106544766836;-7.156.540.557.747.200;32.814.323;0.0069551286;0.0086343;0;0;3072;GPS_Atti;OTHER;NONE;GPS_POSITION_NONMATCH;FALSE;Connected;;P;FALSE;FALSE;FALSE;0;0;0.1;0.0;0.1;;;;;;;
44011874;7.972;;;3.280.704;32.785.248;;;0;0.22174147017222598;-0.13607499155087824;7.490.220.974.680.960;-0.0038095396;-6,99E+03;-10.003.182;10.003.257;-0.9496599;0.99395984;0.51349866;14.674.778;0.0;0.0;-0.035361063;0.035361063;0.0;0;0;0;0.0;57.27;74.902.209.746.809.600;0.26016401200578193;6.595.431.435.794.250;584.640.933.832.616;7.490.220.974.680.930;NaN;NaN;0.0;0.0;0.0;-0.0;NaN;NaN;NaN;NaN;NaN;NaN;NaN;NaN;FALSE;FALSE;-3.351.067.622.703.780;2.003.524.638.075.830;8.783.451.346.961.930;;0.0;;;0.99786204;0.002008488;-0.001058546;0.065315515;-0.016888324;0.028741378;-0.007577896;-0.017086351;0.014423947;0.009324644;300;5032;0;0;6171;770;0.0;0.0;0.0;0.0;Atti;2;0;0;0;0;10;5000;0.0;0.0;17;5;2;1;0;0;;;;;;;1,00E+01;0.0;12.107.272;1,00E+01;0.0;1,00E+01;1,00E+01;0.0;0.038748298;1,00E+01;-0.019542694;1,00E+01;-0.1;0.020000001;0.0;0.0;0.0;180.0;0.0;0.0;0.0;0;0.9980374;0.0057934597;-0.0022011646;0.062314555;-0.6783122858375382;0.21038551042313047;-7.144.241.784.607.780;32.815.674;0.006977183;0.0024758978;0;0;3092;Atti;OTHER;NONE;GPS_POSITION_NONMATCH;FALSE;Connected;;P;FALSE;FALSE;FALSE;0;0;0.1;0.0;0.1;;;;;;;
44234184;8.021;;;32.799.114;3.279.115;;;0;0.2219178266070969;-0.13607326447789217;7.488.633.587.690.760;-0.0045278138;-0.0015898554;-10.026.101;10.026.215;-0.84894127;0.80596435;0.50070226;12.731.781;0.0;0.0;-0.038330674;0.038330674;0.0;0;0;0;0.0;57.3;7.488.633.587.690.760;0.2603134355270727;6.597.335.347.747.680;5.848.471.988.978.600;7.488.633.587.690.740;NaN;NaN;0.0;0.0;0.0;-0.0;NaN;NaN;NaN;NaN;NaN;NaN;NaN;NaN;FALSE;FALSE;-3.348.426.200.414.520;1.956.681.206.488.680;8.830.329.236.402.690;;0.0;;;0.997863;0.002010008;-0.0010584582;0.06530169;-0.024613816;0.02220437;-0.02775383;-0.017080545;0.014425396;0.009325445;300;5032;0;0;6211;770;0.0;0.0;0.0;0.0;Atti;2;0;0;0;0;10;5000;0.0;0.0;17;5;2;1;0;0;;;;;;;1,00E+01;0.0;12.107.272;1,00E+01;0.0;1,00E+01;1,00E+01;0.0;0.038748298;1,00E+01;-0.019542694;1,00E+01;-0.1;0.020000001;0.0;0.0;0.0;180.0;0.0;0.0;0.0;0;0.9980374;0.0057934597;-0.0022011646;0.062314555;-0.6783122858375382;0.21038551042313047;-7.144.241.784.607.780;32.815.674;0.006977183;0.0024758978;0;0;3092;Atti;OTHER;NONE;GPS_POSITION_NONMATCH;FALSE;Connected;;P;FALSE;FALSE;FALSE;0;0;0.1;0.0;0.1;;;;;;;
44436641;8.066;;;32.799.114;3.279.115;;;0;0.2219178266070969;-0.13607326447789217;7.488.633.587.690.760;-0.0045278138;-0.0015898554;-10.026.101;10.026.215;-0.84894127;0.80596435;0.50070226;12.731.781;0.0;0.0;-0.038330674;0.038330674;0.0;0;0;0;0.0;57.3;7.488.633.587.690.760;0.2603134355270727;6.597.335.347.747.680;5.848.471.988.978.600;7.488.633.587.690.740;NaN;NaN;0.0;0.0;0.0;-0.0;NaN;NaN;NaN;NaN;NaN;NaN;NaN;NaN;FALSE;FALSE;-3.348.426.200.414.520;1.956.681.206.488.680;8.830.329.236.402.690;;0.0;;;0.997863;0.002010008;-0.0010584582;0.06530169;-0.024613816;0.02220437;-0.02775383;-0.017080545;0.014425396;0.009325445;300;5032;0;0;6211;780;0.0;0.0;0.0;0.0;Atti;2;0;0;0;0;10;5000;0.0;0.0;17;5;2;1;0;0;;;;;;;1,00E+01;0.0;11.060.267;1,00E+01;0.0;1,00E+01;1,00E+01;0.0;0.02692839;1,00E+01;-0.01960659;1,00E+01;-0.1;0.020000001;0.0;0.0;0.0;180.0;0.0;0.0;0.0;0;0.99804336;0.0057516145;-0.0021755807;0.062224176;-0.6733249152731372;0.2078189956801631;-7.133.886.360.241.250;32.814.342;0.010315644;-0.017230688;0;0;3112;Atti;OTHER;NONE;GPS_POSITION_NONMATCH;FALSE;Connected;;P;FALSE;FALSE;FALSE;0;0;0.1;0.0;0.1;;;;;;;
44628832;8.109;;;32.788.548;32.795.727;;;0;0.22195892438578413;-0.13464507291173364;74.870.898.409.313.600;-0.0044593657;-0.0027363186;-10.037.929;10.038.066;-0.9529779;0.830451;0.6180982;14.070.754;0.0;0.0;-0.040688172;0.040688172;0.0;0;0;0;0.0;57.35;7.487.089.840.931.360;0.2596048863509794;6.624.526.627.192.750;5.875.817.643.099.610;74.870.898.409.313.800;NaN;NaN;0.0;0.0;0.0;-0.0;NaN;NaN;NaN;NaN;NaN;NaN;NaN;NaN;FALSE;FALSE;-3.345.516.303.031.730;19.098.149.418.086.800;8.872.890.899.047.950;;0.0;;;0.9978639;0.002009538;-0.0010460252;0.06528827;-0.017653493;0.004474459;-0.04378414;-0.01707734;0.014427556;0.009325992;300;5034;0;0;6251;780;0.0;0.0;0.0;0.0;Atti;2;0;0;0;0;10;5000;0.0;0.0;17;5;2;1;0;0;;;;;;;1,00E+01;0.0;11.060.267;1,00E+01;0.0;1,00E+01;1,00E+01;0.0;0.02692839;1,00E+01;-0.01960659;1,00E+01;-0.1;0.020000001;0.0;0.0;0.0;180.0;0.0;0.0;0.0;0;0.99804944;0.005686135;-0.0021400251;0.0621334;-0.6655638924406578;0.20427956333657668;-7.123.496.052.110.980;32.811.405;0.014418411;-0.033052996;0;0;3132;Atti;OTHER;NONE;GPS_POSITION_NONMATCH;FALSE;Connected;;P;FALSE;FALSE;FALSE;0;0;0.1;0.0;0.1;;;;;;;
44794382;8.146;;;3.283.875;32.798.405;;;0;0.22099435462536185;-0.13454119823177185;7.487.084.811.551.590;-0.0031542662;-0.0016894648;-10.005.543;10.005.608;-102.769;0.91050625;0.46433002;14.494.036;0.0;0.0;-0.04032922;0.04032922;0.0;0;0;0;0.0;57.45;7.487.084.811.551.590;0.2587266506217841;6.615.414.037.676.280;5.866.705.556.521.120;7.487.084.811.551.590;NaN;NaN;0.0;0.0;0.0;-0.0;NaN;NaN;NaN;NaN;NaN;NaN;NaN;NaN;FALSE;FALSE;-33.426.898.062.391.400;18.580.946.381.740.500;8.918.351.743.793.270;;0.0;;;0.9978639;0.0020010793;-0.0010456704;0.06528824;-0.012713811;0.021991732;-0.013022423;-0.017073004;0.014430211;0.00932668;500;5033;0;0;6291;780;0.0;0.0;0.0;0.0;Atti;2;0;0;0;0;10;5000;0.0;0.0;17;5;2;1;0;0;;;;;;;1,00E+01;0.0;1.106.027;1,00E+01;0.0;1,00E+01;1,00E+01;0.0;0.028164864;1,00E+01;0.00981617;1,00E+01;-0.1;0.020000001;0.0;0.0;0.0;180.0;0.0;0.0;0.0;0;0.9980547;0.0056182034;-0.0021021087;0.062056217;-0.6575090023920803;0.2004771692790614;-7.114.667.461.645.670;3.280.881;0.01525348;-0.0024498277;0;0;3152;Atti;OTHER;NONE;GPS_POSITION_NONMATCH;FALSE;Connected;;P;FALSE;FALSE;FALSE;0;0;0.1;0.0;0.1;;;;;;;
44949506;8.180;;;3.283.611;32.798.256;;;0;0.22136459015434984;-0.13146257870070416;7.487.066.480.445.700;-0.0051427307;-3,89E+03;-10.020.636;10.020.769;-0.91091585;0.90145415;0.63385004;14.297.389;-5,74E+03;1,90E+03;-6,92E+03;9,19E+02;6,05E+11;0;0;0;0.0;57.46;7.487.066.480.445.700;0.2574574671889417;6.678.219.074.290.580;5.929.512.426.246.010;7.487.066.480.445.710;NaN;NaN;0.0;0.0;0.0;-0.0;NaN;NaN;NaN;NaN;NaN;NaN;NaN;NaN;FALSE;FALSE;-33.398.353.734.258.900;18.077.056.306.731.100;8.965.448.931.482.910;;0.0;;;0.99786395;0.0020025491;-0.0010186511;0.06528813;-0.028464288;0.028386496;-0.021479607;-0.017069772;0.014431162;0.009327089;300;5033;0;0;6331;790;0.0;0.0;0.0;0.0;Atti;2;0;0;0;0;10;5000;0.0;0.0;17;5;2;1;0;0;;;;;;;1,00E+01;0.0;1.106.027;1,00E+01;0.0;1,00E+01;1,00E+01;0.0;0.028164864;1,00E+01;0.00981617;1,00E+01;-0.1;0.020000001;0.0;0.0;0.0;180.0;0.0;0.0;0.0;0;0.99805987;0.0055650272;-0.0020627703;0.061979193;-0.6511322336915664;0.19640602379757607;-7.105.855.145.971.060;32.809.402;0.009242845;-0.011563746;0;0;3172;Atti;OTHER;NONE;GPS_POSITION_NONMATCH;FALSE;Connected;;P;FALSE;FALSE;FALSE;0;0;0.1;0.0;0.1;;;;;;;
45566972;8.317;;;3.283.611;32.798.256;;;0;0.22136459015434984;-0.13146257870070416;7.487.066.480.445.700;-0.0051427307;-3,89E+03;-10.020.636;10.020.769;-0.91091585;0.90145415;0.63385004;14.297.389;-5,74E+03;1,90E+03;-6,92E+03;9,19E+02;6,05E+11;0;0;0;0.0;57.46;7.487.066.480.445.700;0.2574574671889417;6.678.219.074.290.580;5.929.512.426.246.010;7.487.066.480.445.710;NaN;NaN;0.0;0.0;0.0;-0.0;NaN;NaN;NaN;NaN;NaN;NaN;NaN;NaN;FALSE;FALSE;-33.398.353.734.258.900;18.077.056.306.731.100;8.965.448.931.482.910;;0.0;;;0.99786395;0.0020025491;-0.0010186511;0.06528813;-0.028464288;0.028386496;-0.021479607;-0.017069772;0.014431162;0.009327089;300;5033;0;0;6331;790;0.0;0.0;0.0;0.0;Atti;2;0;0;0;0;10;5000;0.0;0.0;17;5;2;1;0;0;;;;;;;1,00E+01;0.0;1.106.027;1,00E+01;0.0;1,00E+01;1,00E+01;0.0;0.028164864;1,00E+01;0.00981617;1,00E+01;-0.1;0.020000001;0.0;0.0;0.0;180.0;0.0;0.0;0.0;0;0.99805987;0.0055650272;-0.0020627703;0.061979193;-0.6511322336915664;0.19640602379757607;-7.105.855.145.971.060;32.809.402;0.009242845;-0.011563746;0;0;3172;Atti;OTHER;NONE;GPS_POSITION_NONMATCH;FALSE;Connected;;P;FALSE;FALSE;FALSE;0;0;0.1;0.0;0.1;;;;;;;
45731887;8.354;;;3.286.253;32.796.032;;;0;0.22301143348573477;-0.14153585708845987;7.485.029.335.832.910;-0.0026336613;-0.0016800791;-10.026.544;10.026.593;-0.9614998;0.9777021;0.4795842;14.527.161;-5,01E+02;7,58E+02;-5,53E+03;0.0010640091;9,09E+11;0;0;0;0.0;57.54;7.485.029.335.832.910;0.2641327197834789;6.508.355.112.517.800;57.598.521.789.345.100;7.485.029.335.832.900;NaN;NaN;0.0;0.0;0.0;-0.0;NaN;NaN;NaN;NaN;NaN;NaN;NaN;NaN;FALSE;FALSE;-3.331.135.872.150.350;1.661.409.764.533.620;9.112.271.452.871.310;;0.0;;;0.99786496;0.0020226093;-0.0011054669;0.06527019;0.0010851584;0.016761981;-0.02945137;-0.01702882;0.014471544;0.009320524;300;5033;0;0;6451;790;0.0;0.0;0.0;0.0;Atti;2;0;0;0;0;10;5000;0.0;0.0;17;5;2;1;0;0;;;;;;;1,00E+01;0.0;1.0;1,00E+01;0.0;1,00E+01;1,00E+01;0.0;0.03574372;1,00E+01;0.029406548;1,00E+01;-0.1;0.020000001;0.0;0.0;0.0;180.0;0.0;0.0;0.0;0;0.99807626;0.005446457;-0.002000165;0.061725598;-0.6370781400970932;0.19024917306782121;-7.076.794.032.599.920;32.807.297;0.009317137;-0.020128211;0;0;3232;Atti;OTHER;NONE;GPS_POSITION_NONMATCH;FALSE;Connected;;P;FALSE;FALSE;FALSE;0;0;0.1;0.0;0.1;;;;;;;
45886855;8.389;;;32.828.182;32.795.647;;;0;0.221032573871702;-0.14100700666097693;7.482.365.068.835.530;-0.0029138727;-0.0015791177;-10.005.691;10.005.746;-10.017.662;0.7954693;0.41212365;13.439.318;-1,55E+03;7,50E+03;-7,93E+02;0.0011020973;7,66E+11;0;0;0;0.0;57.55;7.482.365.068.835.530;0.26217929000422496;64.946.735.365.351;57.464.370.296.515.400;748.236.506.883.552;NaN;NaN;0.0;0.0;0.0;-0.0;NaN;NaN;NaN;NaN;NaN;NaN;NaN;NaN;FALSE;FALSE;-3.328.813.050.177.540;16.102.683.789.133.500;9.158.461.036.894.240;;0.0;;;0.9978666;0.0020050507;-0.0011020354;0.06524702;-0.0069835708;0.022663374;-0.0075654984;-0.017013824;0.014482646;0.009318433;300;5037;0;0;6491;810;0.0;0.0;0.0;0.0;GPS_Atti;2;0;0;0;0;10;5000;0.0;0.0;17;5;3;2;0;0;;;;;;;1,00E+01;0.0;1.0;1,00E+01;0.0;1,00E+01;1,00E+01;0.0;0.03574372;1,00E+01;0.029406548;1,00E+01;-0.1;0.020000001;0.0;0.0;0.0;180.0;0.0;0.0;0.0;0;0.998083;0.0053874864;-0.0019490824;0.061623283;-0.6299531896335899;0.1848879737784747;-7.065.085.525.244.920;32.806.618;0.01052531;0.0017392943;0;0;3252;Atti;OTHER;NONE;GPS_POSITION_NONMATCH;FALSE;Connected;;P;FALSE;FALSE;FALSE;0;0;0.1;0.0;0.1;;;;;;;
46109582;8.438;;;3.283.875;32.795.307;;;0;0.22139583214013522;-0.1433462544907293;74.794.722.934.032.900;-0.003945754;-0.0031361924;-10.015.665;10.015.793;-0.89752966;0.7323005;0.51423675;12.673.843;-4,75E+03;2,91E+03;-0.0013102742;0.0014238227;5,57E+11;0;0;0;0.0;57.6;747.947.229.340.329;0.2637496049148558;6.455.786.706.576.420;5.707.839.477.236.090;7.479.472.293.403.310;NaN;NaN;0.0;0.0;0.0;-0.0;NaN;NaN;NaN;NaN;NaN;NaN;NaN;NaN;FALSE;FALSE;-3.326.396.869.212.150;156.072.996.462.526;9.198.309.116.818.370;;0.0;;;0.9978682;0.0020095175;-0.0011222495;0.06522179;-0.013087458;0.004836741;-0.017189026;-0.01699922;0.0144934775;0.009315761;400;5036;0;0;6531;810;0.0;0.0;0.0;0.0;GPS_Atti;2;0;0;0;0;10;5000;0.0;0.0;17;5;3;2;0;0;;;;;;;1,00E+01;0.0;1.0;1,00E+01;0.0;1,00E+01;1,00E+01;0.0;0.03574372;1,00E+01;0.029406548;1,00E+01;-0.1;0.020000001;0.0;0.0;0.0;180.0;0.0;0.0;0.0;0;0.998083;0.0053874864;-0.0019490824;0.061623283;-0.6299531896335899;0.1848879737784747;-7.065.085.525.244.920;32.806.618;0.01052531;0.0017392943;0;0;3252;Atti;OTHER;NONE;GPS_POSITION_NONMATCH;FALSE;Connected;;P;FALSE;FALSE;FALSE;0;0;0.1;0.0;0.1;;;;;;;
46311658;8.483;;;3.283.875;32.795.307;;;0;0.22139583214013522;-0.1433462544907293;74.794.722.934.032.900;-0.003945754;-0.0031361924;-10.015.665;10.015.793;-0.89752966;0.7323005;0.51423675;12.673.843;-4,75E+03;2,91E+03;-0.0013102742;0.0014238227;5,57E+11;0;0;0;0.0;57.6;747.947.229.340.329;0.2637496049148558;6.455.786.706.576.420;5.707.839.477.236.090;7.479.472.293.403.310;NaN;NaN;0.0;0.0;0.0;-0.0;NaN;NaN;NaN;NaN;NaN;NaN;NaN;NaN;FALSE;FALSE;-3.326.396.869.212.150;156.072.996.462.526;9.198.309.116.818.370;;0.0;;;0.9978682;0.0020095175;-0.0011222495;0.06522179;-0.013087458;0.004836741;-0.017189026;-0.01699922;0.0144934775;0.009315761;400;5036;0;0;6531;820;0.0;0.0;0.0;0.0;GPS_Atti;2;0;0;0;0;10;5000;0.0;0.0;17;5;3;2;0;0;;;;;;;1,00E+01;0.0;1.0;1,00E+01;0.0;1,00E+01;1,00E+01;0.0;0.017395906;1,00E+01;0.019554138;1,00E+01;-0.1;0.020000001;0.0;0.0;0.0;180.0;0.0;0.0;0.0;0;0.99808973;0.0053536156;-0.0019357182;0.061518297;-0.6259654920909618;0.18366431515156104;-7.053.042.515.208.230;32.805.733;0.011094917;-0.008100048;0;0;3272;Atti;OTHER;NONE;GPS_POSITION_NONMATCH;FALSE;Connected;;P;FALSE;FALSE;FALSE;0;0;0.1;0.0;0.1;;;;;;;
46502783;8.525;;;32.830.822;32.794.914;;;0;0.2213914946892799;-0.1449284746298548;7.478.707.127.641.590;-0.0036740021;-0.0017005494;-0.9999394;0.99994755;-0.8916315;0.813675;0.4319981;12.820.671;-4,41E+03;4,48E+03;-0.0016003691;0.0017194543;6,29E+11;0;0;0;0.0;57.67;7.478.707.127.641.590;0.2646092185517653;6.426.900.873.986.910;5.679.030.161.222.750;7.478.707.127.641.590;NaN;NaN;0.0;0.0;0.0;-0.0;NaN;NaN;NaN;NaN;NaN;NaN;NaN;NaN;FALSE;FALSE;-33.239.365.661.910.100;1.514.210.027.609.710;9.238.505.989.724.020;;0.0;;;0.9978686;0.0020103727;-0.0011360435;0.065215096;-0.009333976;0.016009402;-0.0019407272;-0.01698617;0.014504587;0.009312187;300;5036;0;0;6571;820;0.0;0.0;0.0;0.0;GPS_Atti;2;0;0;0;0;10;5000;0.0;0.0;17;5;3;2;0;0;;;;;;;1,00E+01;0.0;1.0;1,00E+01;0.0;1,00E+01;1,00E+01;0.0;0.017395906;1,00E+01;0.019554138;1,00E+01;-0.1;0.020000001;0.0;0.0;0.0;180.0;0.0;0.0;0.0;0;0.99809545;0.0053081117;-0.0019134814;0.061430812;-0.6205882462762112;0.18149591608086746;-7.043.015.688.441.040;3.280.485;0.010813609;0.007033638;0;0;3292;GPS_Atti;OTHER;NONE;GPS_POSITION_NONMATCH;FALSE;Connected;;P;FALSE;FALSE;FALSE;0;0;0.1;0.0;0.1;;;;;;;
46669398;8.562;;;32.785.904;3.279.442;;;0;0.22004117207118842;-0.14529907072028858;748.003.016.331.055;-0.0029882262;-0.0021040414;-0.99912375;0.9991304;-10.274.395;0.9647497;0.6136671;15.371.927;-4,61E+02;2,95E+03;-9,56E+01;0.0011019186;5,48E+11;0;0;0;0.0;57.69;7.480.030.163.310.540;0.26368451261281733;6.404.225.340.818.430;56.562.223.244.873.700;7.480.030.163.310.570;NaN;NaN;0.0;0.0;0.0;-0.0;NaN;NaN;NaN;NaN;NaN;NaN;NaN;NaN;FALSE;FALSE;-33.212.132.969.741.000;1.464.230.866.074.120;9.284.822.241.841.310;;0.0;;;0.9978678;0.001998838;-0.0011400161;0.06522663;-0.0037457412;0.014646538;0.0069208145;-0.016972262;0.01451568;0.009308087;300;5039;0;0;6611;820;0.0;0.0;0.0;0.0;GPS_Atti;2;0;0;0;0;10;5000;0.0;0.0;17;5;3;2;0;0;;;;;;;1,00E+01;0.0;1.0;1,00E+01;0.0;1,00E+01;1,00E+01;0.0;0.007574521;1,00E+01;-8,39E+01;1,00E+01;-0.1;0.020000001;0.0;0.0;0.0;180.0;0.0;0.0;0.0;0;0.9981001;0.0052633043;-0.0018776647;0.06136019;-0.6151986505376661;0.17775803855307423;-7.034.934.232.668.130;32.802.956;0.013332736;0.015778229;0;0;3312;GPS_Atti;OTHER;NONE;GPS_POSITION_NONMATCH;FALSE;Connected;;P;FALSE;FALSE;FALSE;0;0;0.1;0.0;0.1;;;;;;;
47138144;8.667;;;32.785.904;3.279.442;;;0;0.22004117207118842;-0.14529907072028858;748.003.016.331.055;-0.0029882262;-0.0021040414;-0.99912375;0.9991304;-10.274.395;0.9647497;0.6136671;15.371.927;-4,61E+02;2,95E+03;-9,56E+01;0.0011019186;5,48E+11;0;0;0;0.0;57.69;7.480.030.163.310.540;0.26368451261281733;6.404.225.340.818.430;56.562.223.244.873.700;7.480.030.163.310.570;NaN;NaN;0.0;0.0;0.0;-0.0;NaN;NaN;NaN;NaN;NaN;NaN;NaN;NaN;FALSE;FALSE;-33.212.132.969.741.000;1.464.230.866.074.120;9.284.822.241.841.310;;0.0;;;0.9978678;0.001998838;-0.0011400161;0.06522663;-0.0037457412;0.014646538;0.0069208145;-0.016972262;0.01451568;0.009308087;300;5039;0;0;6611;820;0.0;0.0;0.0;0.0;GPS_Atti;2;0;0;0;0;10;5000;0.0;0.0;17;5;3;2;0;0;;;;;;;1,00E+01;0.0;1.0;1,00E+01;0.0;1,00E+01;1,00E+01;0.0;0.007574521;1,00E+01;-8,39E+01;1,00E+01;-0.1;0.020000001;0.0;0.0;0.0;180.0;0.0;0.0;0.0;0;0.9981001;0.0052633043;-0.0018776647;0.06136019;-0.6151986505376661;0.17775803855307423;-7.034.934.232.668.130;32.802.956;0.013332736;0.015778229;0;0;3312;GPS_Atti;OTHER;NONE;GPS_POSITION_NONMATCH;FALSE;Connected;;P;FALSE;FALSE;FALSE;0;0;0.1;0.0;0.1;;;;;;;
