Clock:Tick#,Clock:offsetTime,IMU_ATTI(0):Longitude,IMU_ATTI(0):Latitude,IMU_ATTI(0):press:D,IMU_ATTI(0):alti:D,IMU_ATTI(0):relativeHeight:C,IMU_ATTI(0):absoluteHeight:C,IMU_ATTI(0):numSats,IMU_ATTI(0):roll:C,IMU_ATTI(0):pitch:C,IMU_ATTI(0):yaw:C,IMU_ATTI(0):accelX,IMU_ATTI(0):accelY,IMU_ATTI(0):accelZ,IMU_ATTI(0):accelComposite:C,IMU_ATTI(0):gyroX,IMU_ATTI(0):gyroY,IMU_ATTI(0):gyroZ,IMU_ATTI(0):gyroComposite:C,IMU_ATTI(0):velN,IMU_ATTI(0):velE,IMU_ATTI(0):velD,IMU_ATTI(0):velComposite:C,IMU_ATTI(0):velH:C,IMU_ATTI(0):magX,IMU_ATTI(0):magY,IMU_ATTI(0):magZ,IMU_ATTI(0):magMod:C,IMU_ATTI(0):temperature,IMU_ATTI(0):yawUnWrapped:C,IMU_ATTI(0):tiltInclination:C,IMU_ATTI(0):tiltDirectionEarthFrame:C,IMU_ATTI(0):tiltDirectionBodyFrame:C,IMU_ATTI(0):yaw360:C,IMU_ATTI(0):magYaw:C,IMU_ATTI(0):Yaw-magYaw:C,IMUCalcs(0):PosN:C,IMUCalcs(0):PosE:C,IMUCalcs(0):PosD:C,IMUCalcs(0):height:C,IMUCalcs(0):velN:C,IMUCalcs(0):velE:C,IMUCalcs(0):velD:C,IMUCalcs(0):diffVelN:C,IMUCalcs(0):diffVelE:C,IMUCalcs(0):diffVelD:C,IMUCalcs(0):Lat:C,IMUCalcs(0):Long:C,IMUCalcs(0):VelocityError:C,IMUCalcs(0):PositionError:C,IMUCalcs(0):totalGyroZ:C,IMUCalcs(0):totalGyroX:C,IMUCalcs(0):totalGyroY:C,IMU_ATTI(0):distanceHP:C,IMU_ATTI(0):distanceTravelled:C,IMU_ATTI(0):directionOfTravel[mag]:C,IMU_ATTI(0):directionOfTravel[true]:C,IMU_ATTI(0):quatW:D,IMU_ATTI(0):quatX:D,IMU_ATTI(0):quatY:D,IMU_ATTI(0):quatZ:D,IMU_ATTI(0):agX:D,IMU_ATTI(0):agY:D,IMU_ATTI(0):agZ:D,IMU_ATTI(0):gbX:D,IMU_ATTI(0):gbY:D,IMU_ATTI(0):gbZ:D,IMU_ATTI(0):ty:D,IMU_ATTI(0):tz:D,IMU_ATTI(0):sensor_stat:D,IMU_ATTI(0):filter_stat:D,IMU_ATTI(0):atti_cnt:D,Controller:ctrl_tick:D,Controller:ctrl_pitch:D,Controller:ctrl_roll:D,Controller:ctrl_yaw:D,Controller:ctrl_thr:D,Controller:ctrl_mode,Controller:mode_switch:D,Controller:motor_state:D,Controller:sig_level:D,Controller:ctrl_level:D,Controller:sim_model:D,Controller:max_height:D,Controller:max_radius:D,Controller:D2H_x:D,Controller:D2H_y:D,Controller:act_req_id:D,Controller:act_act_id:D,Controller:cmd_mod:D,Controller:mod_req_id:D,Controller:is_soaring_up:D,Controller:eagle_temp_level:D,MVO:velX,MVO:velY,MVO:velZ,MVO:posX,MVO:posY,MVO:posZ,MVO:hoverPointUncertainty1,MVO:hoverPointUncertainty2,MVO:hoverPointUncertainty3,MVO:hoverPointUncertainty4,MVO:hoverPointUncertainty5,MVO:hoverPointUncertainty6,MVO:velocityUncertainty1,MVO:velocityUncertainty2,MVO:velocityUncertainty3,MVO:velocityUncertainty4,MVO:velocityUncertainty5,MVO:velocityUncertainty6,MVO:height,MVO:heightUncertainty,AirSpeed:comp_alti:D,AirSpeed:windSpeed,AirSpeed:windDirection,AirSpeed:windFromDir,AirSpeed:windN,AirSpeed:windE,AirSpeed:MotorSpd:D,AirSpeed:vel_level:D,ATTI_MINI0:s_qw0,ATTI_MINI0:s_qx0,ATTI_MINI0:s_qy0,ATTI_MINI0:s_qz0,ATTI_MINI0:roll:C,ATTI_MINI0:pitch:C,ATTI_MINI0:yaw:C,ATTI_MINI0:s_pgz0,ATTI_MINI0:s_vgz0,ATTI_MINI0:s_agz0,ATTI_MINI0:s_rsv00,ATTI_MINI0:s_rsv10,ATTI_MINI0:s_cnt0,osd_data:flyCState,osd_data:flycCommand,osd_data:flightAction,osd_data:nonGPSCause,osd_data:compassError,osd_data:connectedToRC,osd_data:lowVoltage,osd_data:ModeSwitch,osd_data:gpsUsed,osd_data:visionUsed,osd_data:notEnoughForce,osd_data:flightTime,osd_data:navHealth,osd_data:vpsHeight,osd_data:relativeHeight,usonic:usonic_h,MotorCtrl:PWM:RFront,MotorCtrl:PWM:LFront,MotorCtrl:PWM:LBack,MotorCtrl:PWM:RBack,Attribute|Value,ConvertDatV3,4.3.0
0,-1.809,,,,,,,,,,,,,,,,,,,,,,,,,,,,,,,,,,,,,,,,,,,,,,,,,,,,,,,,,,,,,,,,,,,,,,,,,,,,,,,,,,,,,,,,,,,,,,,,,,,,,,,,,,,,,,,,,,,,,,,,,,,,,,,,,,,,,,,,,,,,,,,,,,,,,,,,,
8138474,.000,,,34.585323,-0.0,,,0,NaN,0.0,0.0,-0.0075736986,0.01423629,-1.0077742,1.0079032,1.2087753,1.4863104,1.018973,2.169922,0.0,0.0,0.0,0.0,0.0,0,0,0,0.0,47.98,0.0,NaN,NaN,NaN,0.0,NaN,NaN,0.0,0.0,0.0,-0.0,NaN,NaN,NaN,NaN,NaN,NaN,NaN,NaN,false,false,0.0,0.0,0.0,,0.0,,,0.0,0.0,0.0,0.0,0.0,0.0,0.0,0.0,0.0,0.0,100,4615,0,0,39,,,,,,,,,,,,,,,,,,,,,,,,,,,,,,,,,,,,,,,,0.0,,,,,,,,,,,,,,,,,,,,,,,,,,,,,,P,,,,,,,,,,,,,Firmware Date| May  7 2019
8342641,.045,,,34.585323,-0.0,,,0,NaN,0.0,0.0,-0.0075736986,0.01423629,-1.0077742,1.0079032,1.2087753,1.4863104,1.018973,2.169922,0.0,0.0,0.0,0.0,0.0,0,0,0,0.0,47.98,0.0,NaN,NaN,NaN,0.0,NaN,NaN,0.0,0.0,0.0,-0.0,NaN,NaN,NaN,NaN,NaN,NaN,NaN,NaN,false,false,0.0,0.0,0.0,,0.0,,,0.0,0.0,0.0,0.0,0.0,0.0,0.0,0.0,0.0,0.0,100,4615,0,0,39,10,0.0,0.0,0.0,0.0,Manual,0,0,0,0,0,500,5000,0.0,0.0,17,5,26,17,0,0,,,,,,,,,,,,,,,,,,,0.0,,,,,,,,,,0.0,0.0,0.0,0.0,NaN,NaN,NaN,-0.0,0.0,0.0,0,0,20,,,,,,,,P,,,,,,,,,,,,,ACType|Tello
8607227,.104,,,34.56947,-0.0,,,0,NaN,0.0,0.0,0.00540034,0.0043877726,-1.0089093,1.0089333,-1.2318025,0.95281404,0.65659475,1.6900617,0.0,0.0,0.0,0.0,0.0,0,0,0,0.0,48.13,0.0,NaN,NaN,NaN,0.0,NaN,NaN,0.0,0.0,0.0,-0.0,NaN,NaN,NaN,NaN,NaN,NaN,NaN,NaN,false,false,0.01709875647279091,-0.03207806678588554,0.024812771038309478,,0.0,,,0.0,0.0,0.0,0.0,0.0,0.0,0.0,0.0,0.0,0.0,100,4623,0,0,119,10,0.0,0.0,0.0,0.0,Manual,0,0,0,0,0,500,5000,0.0,0.0,17,5,26,17,0,0,,,,,,,,,,,,,,,,,,,0.0,,,,,,,,,,0.0,0.0,0.0,0.0,NaN,NaN,NaN,-0.0,0.0,0.0,0,0,40,,,,,,,,P,,,,,,,,,,,,,
8811395,.150,,,34.56947,-0.0,,,0,NaN,0.0,0.0,0.00540034,0.0043877726,-1.0089093,1.0089333,-1.2318025,0.95281404,0.65659475,1.6900617,0.0,0.0,0.0,0.0,0.0,0,0,0,0.0,48.13,0.0,NaN,NaN,NaN,0.0,NaN,NaN,0.0,0.0,0.0,-0.0,NaN,NaN,NaN,NaN,NaN,NaN,NaN,NaN,false,false,0.01709875647279091,-0.03207806678588554,0.024812771038309478,,0.0,,,0.0,0.0,0.0,0.0,0.0,0.0,0.0,0.0,0.0,0.0,100,4623,0,0,119,20,0.0,0.0,0.0,0.0,Manual,0,0,0,0,0,500,5000,0.0,0.0,17,5,26,17,0,0,,,,,,,,,,,,,,,,,,,0.0,,,,,,,,,,0.0,0.0,0.0,0.0,NaN,NaN,NaN,-0.0,0.0,0.0,0,0,60,,,,,,,,P,,,,,,,,,,,,,
9076001,.208,,,34.566826,-0.0,,,0,NaN,0.0,0.0,0.0057595707,0.0047056237,-1.006413,1.0064405,-1.227115,1.0088207,0.7045645,1.7377979,0.0,0.0,0.0,0.0,0.0,0,0,0,0.0,48.06,0.0,NaN,NaN,NaN,0.0,NaN,NaN,0.0,0.0,0.0,-0.0,NaN,NaN,NaN,NaN,NaN,NaN,NaN,NaN,false,false,0.08235945933230937,-0.15819552902848955,0.1321998231586612,,0.0,,,0.0,0.0,0.0,0.0,0.0,0.0,0.0,0.0,0.0,0.0,100,4622,0,0,199,20,0.0,0.0,0.0,0.0,Manual,0,0,0,0,0,500,5000,0.0,0.0,17,5,26,17,0,0,,,,,,,,,,,,,,,,,,,0.0,,0.0,0.0,0.0,180.0,0.0,0.0,0.0,0,0.0,0.0,0.0,0.0,NaN,NaN,NaN,-0.0,0.0,0.0,0,0,80,,,,,,,,P,,,,,,,,,,,,,
9234631,.244,,,34.566826,-0.0,,,0,NaN,0.0,0.0,0.0057595707,0.0047056237,-1.006413,1.0064405,-1.227115,1.0088207,0.7045645,1.7377979,0.0,0.0,0.0,0.0,0.0,0,0,0,0.0,48.06,0.0,NaN,NaN,NaN,0.0,NaN,NaN,0.0,0.0,0.0,-0.0,NaN,NaN,NaN,NaN,NaN,NaN,NaN,NaN,false,false,0.08235945933230937,-0.15819552902848955,0.1321998231586612,,0.0,,,0.0,0.0,0.0,0.0,0.0,0.0,0.0,0.0,0.0,0.0,100,4622,0,0,199,20,0.0,0.0,0.0,0.0,Manual,0,0,0,0,0,500,5000,0.0,0.0,17,5,26,17,0,0,,,,,,,,,,,,,,,,,,,0.0,,0.0,0.0,0.0,180.0,0.0,0.0,0.0,0,0.0,0.0,0.0,0.0,NaN,NaN,NaN,-0.0,0.0,0.0,0,0,100,Manual,OTHER,NONE,GPS_POSITION_NONMATCH,False,Connected,,P,False,False,True,0,0,,0.0,,,,,,
9748913,.358,,,34.585323,-0.0,,,0,NaN,0.0,0.0,0.0053297365,0.005535989,-1.0097812,1.0098104,-1.1455934,1.0314568,0.64972043,1.672849,0.0,0.0,0.0,0.0,0.0,0,0,0,0.0,48.12,0.0,NaN,NaN,NaN,0.0,NaN,NaN,0.0,0.0,0.0,-0.0,NaN,NaN,NaN,NaN,NaN,NaN,NaN,NaN,false,false,0.1176254666762162,-0.21998160569492597,0.1853292927347674,,0.0,,,0.0,0.0,0.0,0.0,0.0,0.0,0.0,0.0,0.0,0.0,100,4622,0,0,239,30,0.0,0.0,0.0,0.0,Manual,0,0,0,0,0,500,5000,0.0,0.0,17,5,26,17,0,0,,,,,,,,,,,,,,,,,,,0.0,,0.0,0.0,0.0,180.0,0.0,0.0,0.0,0,0.0,0.0,0.0,0.0,NaN,NaN,NaN,-0.0,0.0,0.0,0,0,100,Manual,OTHER,NONE,GPS_POSITION_NONMATCH,False,Connected,,P,False,False,True,0,0,,0.0,,,,,,
31836660,5.266,,,34.585323,-0.0,,,0,NaN,0.0,0.0,0.0053297365,0.005535989,-1.0097812,1.0098104,-1.1455934,1.0314568,0.64972043,1.672849,0.0,0.0,0.0,0.0,0.0,0,0,0,0.0,48.12,0.0,NaN,NaN,NaN,0.0,NaN,NaN,0.0,0.0,0.0,-0.0,NaN,NaN,NaN,NaN,NaN,NaN,NaN,NaN,false,false,0.1176254666762162,-0.21998160569492597,0.1853292927347674,,0.0,,,0.0,0.0,0.0,0.0,0.0,0.0,0.0,0.0,0.0,0.0,100,4622,0,0,239,30,0.0,0.0,0.0,0.0,Manual,0,0,0,0,0,500,5000,0.0,0.0,17,5,26,17,0,0,,,,,,,,,,,,,,,,,,,0.0,,0.0,0.0,0.0,180.0,0.0,0.0,0.0,0,0.0,0.0,0.0,0.0,NaN,NaN,NaN,-0.0,0.0,0.0,0,0,100,Manual,OTHER,NONE,GPS_POSITION_NONMATCH,False,Connected,,P,False,False,True,0,0,,0.0,,,,,,
32046996,5.313,,,34.56947,34.58886,,,0,-0.23790027373758707,0.3116203725035199,-0.04189917414645055,0.0053889025,0.004156591,-1.0081013,1.0081244,-1.076895,0.9773721,0.49127522,1.5350279,2.4173033E-4,-4.3207998E-5,7.906417E-4,8.278978E-4,2.4556157350438167E-4,0,0,0,0.0,50.84,-0.04189917414645055,0.3920479111590995,-142.68282054226884,-142.64092136812238,359.95810082585353,NaN,NaN,0.0,0.0,0.0,-0.0,NaN,NaN,NaN,NaN,NaN,NaN,NaN,NaN,false,false,3.0001142948465045,-5.834637529211619,5.260218898126869,,0.0,,,0.9999941,-0.002075068,0.0027201504,-3.7128277E-4,-0.003602352,0.0028845519,-0.032693863,-0.021786382,0.017862996,0.010697613,200,4645,0,0,4131,30,0.0,0.0,0.0,0.0,Manual,0,0,0,0,0,500,5000,0.0,0.0,17,5,26,17,0,0,,,,,,,,,,,,,,,,,,,0.0,,0.0,0.0,0.0,180.0,0.0,0.0,0.0,0,0.0,0.0,0.0,0.0,NaN,NaN,NaN,-0.0,0.0,0.0,0,0,100,Manual,OTHER,NONE,GPS_POSITION_NONMATCH,False,Connected,,P,False,False,True,0,0,,0.0,,,,,,
32248971,5.358,,,34.56947,34.58886,,,0,-0.23790027373758707,0.3116203725035199,-0.04189917414645055,0.0053889025,0.004156591,-1.0081013,1.0081244,-1.076895,0.9773721,0.49127522,1.5350279,2.4173033E-4,-4.3207998E-5,7.906417E-4,8.278978E-4,2.4556157350438167E-4,0,0,0,0.0,50.84,-0.04189917414645055,0.3920479111590995,-142.68282054226884,-142.64092136812238,359.95810082585353,NaN,NaN,0.0,0.0,0.0,-0.0,NaN,NaN,NaN,NaN,NaN,NaN,NaN,NaN,false,false,3.0001142948465045,-5.834637529211619,5.260218898126869,,0.0,,,0.9999941,-0.002075068,0.0027201504,-3.7128277E-4,-0.003602352,0.0028845519,-0.032693863,-0.021786382,0.017862996,0.010697613,200,4645,0,0,4131,520,0.0,0.0,0.0,0.0,GPS_Atti,2,0,0,0,0,10,5000,0.0,0.0,17,5,3,2,0,0,,,,,,,1.0000001E-6,0.0,852.7817,1.0000001E-6,0.0,1.0000001E-6,1.0000001E-6,0.0,-0.011246955,1.0000001E-6,0.029240608,1.0000001E-6,-0.1,0.020000001,0.0,0.0,0.0,180.0,0.0,0.0,0.0,0,0.99999446,-0.0019523173,0.0026887332,-3.379106E-4,0.22361428421197768,-0.3081838049010607,0.03932330656160969,34.749073,-0.11021873,-0.06623863,0,0,2072,Manual,OTHER,NONE,GPS_POSITION_NONMATCH,False,Connected,,P,False,False,True,0,0,,0.0,0.1,,,,,
32415510,5.395,,,34.5589,34.588783,,,0,-0.23480354117206495,0.3142214733147235,-0.041227444035929366,0.0060807867,0.0033271152,-1.0023676,1.0023916,-1.1748066,1.1745784,0.58094126,1.7599142,2.358343E-4,-2.5222942E-4,4.3662675E-4,5.56669E-4,3.453078309239322E-4,0,0,0,0.0,51.06,-0.041227444035929366,0.3922570921751751,-143.27224438405554,-143.2310169400196,359.95877255596406,NaN,NaN,0.0,0.0,0.0,-0.0,NaN,NaN,NaN,NaN,NaN,NaN,NaN,NaN,false,false,3.028048699158056,-5.893301002321124,5.316283561800919,,0.0,,,0.9999941,-0.0020480517,0.0027428274,-3.6539388E-4,0.0058855414,-0.0066142837,0.027311325,-0.02177797,0.017858129,0.0106917145,300,4645,0,0,4171,520,0.0,0.0,0.0,0.0,GPS_Atti,2,0,0,0,0,10,5000,0.0,0.0,17,5,3,2,0,0,,,,,,,1.0000001E-6,0.0,852.7817,1.0000001E-6,0.0,1.0000001E-6,1.0000001E-6,0.0,-0.011246955,1.0000001E-6,0.029240608,1.0000001E-6,-0.1,0.020000001,0.0,0.0,0.0,180.0,0.0,0.0,0.0,0,0.99999446,-0.0019112497,0.002712526,-3.5223158E-4,0.21890290686943917,-0.31091175625237655,0.040956919483283824,34.749264,-0.11226203,-0.006036043,0,0,2092,Manual,OTHER,NONE,GPS_POSITION_NONMATCH,False,Connected,,P,False,False,True,0,0,,0.0,0.1,,,,,
32911068,5.505,,,34.54569,34.588627,,,0,-0.23195083970647337,0.31070518713103695,-0.041763769771578384,0.0063146064,0.0043771276,-1.0037733,1.0038027,-1.1095941,0.92153555,0.6225052,1.5709677,2.0040938E-4,-1.285681E-4,0.0018809298,0.0018959405,2.3810434495127116E-4,0,0,0,0.0,51.07,-0.041763769771578384,0.38773289244469683,-143.29942844753418,-143.25766467776262,359.9582362302284,NaN,NaN,0.0,0.0,0.0,-0.0,NaN,NaN,NaN,NaN,NaN,NaN,NaN,NaN,false,false,3.059427854632382,-5.952865401640139,5.370938496037599,,0.0,,,0.9999942,-0.0020231558,0.002712143,-3.6994385E-4,0.008764947,0.0030806474,0.011216164,-0.02176929,0.017854031,0.010687296,400,4648,0,0,4211,520,0.0,0.0,0.0,0.0,GPS_Atti,2,0,0,0,0,10,5000,0.0,0.0,17,5,3,2,0,0,,,,,,,1.0000001E-6,0.0,852.7817,1.0000001E-6,0.0,1.0000001E-6,1.0000001E-6,0.0,-0.01999901,1.0000001E-6,0.019425392,1.0000001E-6,-0.1,0.020000001,0.0,0.0,0.0,180.0,0.0,0.0,0.0,0,0.9999946,-0.00187618,0.0026829368,-3.7690846E-4,0.21487784225594592,-0.3075249129448403,0.04376742086086544,34.74749,-0.10750988,-0.021676756,0,0,2112,Manual,OTHER,NONE,GPS_POSITION_NONMATCH,False,Connected,,P,False,False,True,0,0,,0.0,0.1,,,,,
33075499,5.542,,,34.561543,34.588337,,,0,-0.2319454725009563,0.30942344427380447,-0.0455467742016079,0.0056975614,0.004312311,-1.0045053,1.0045307,-1.3351024,1.0063204,0.6013836,1.7767502,3.0786093E-4,1.6195005E-4,0.0016444636,0.001680853,3.4785940674989695E-4,0,0,0,0.0,51.1,-0.0455467742016079,0.38670334634928444,-143.19024013662101,-143.14469336241942,359.9544532257984,NaN,NaN,0.0,0.0,0.0,-0.0,NaN,NaN,NaN,NaN,NaN,NaN,NaN,NaN,false,false,3.12309493182466,-6.080039277112235,5.471226160665768,,0.0,,,0.9999943,-0.002023024,0.0027010243,-4.0293383E-4,0.002786735,0.0025040042,0.0034914017,-0.02174864,0.017845752,0.010677563,200,4648,0,0,4291,520,0.0,0.0,0.0,0.0,GPS_Atti,2,0,0,0,0,10,5000,0.0,0.0,17,5,3,2,0,0,,,,,,,1.0000001E-6,0.0,852.7817,1.0000001E-6,0.0,1.0000001E-6,1.0000001E-6,0.0,-3.9881095E-4,1.0000001E-6,0.01934719,1.0000001E-6,-0.1,0.020000001,0.0,0.0,0.0,180.0,0.0,0.0,0.0,0,0.99999464,-0.0018539064,0.0026881155,-4.5054642E-4,0.21230256131223507,-0.30813292037684664,0.052199959298878586,34.747784,-0.110785976,-0.02881355,0,0,2152,Manual,OTHER,NONE,GPS_POSITION_NONMATCH,False,Connected,,P,False,False,True,0,0,,0.0,0.1,,,,,
33231191,5.576,,,34.572113,34.588337,,,0,-0.22995645709190987,0.3065748920745664,-0.04696749666929852,0.008120889,0.0035713117,-1.0015496,1.0015888,-1.1839868,0.95219857,0.56817204,1.6221364,6.4056227E-4,7.233489E-5,0.0015767808,0.0017034642,6.446334893976938E-4,0,0,0,0.0,51.06,-0.04696749666929852,0.383231154810216,-143.17416007921497,-143.12719258254566,359.9530325033307,NaN,NaN,0.0,0.0,0.0,-0.0,NaN,NaN,NaN,NaN,NaN,NaN,NaN,NaN,false,false,3.153537982490441,-6.145610128651867,5.522205598938289,,0.0,,,0.99999434,-0.0020056434,0.0026761843,-4.152352E-4,0.027559482,-0.0037043244,0.034766197,-0.021738699,0.017841324,0.010672583,200,4648,0,0,4331,540,0.0,0.0,0.0,0.0,GPS_Atti,2,0,0,0,0,10,5000,0.0,0.0,17,5,3,2,0,0,,,,,,,1.0000001E-6,0.0,852.7817,1.0000001E-6,0.0,1.0000001E-6,1.0000001E-6,0.0,-3.9881095E-4,1.0000001E-6,0.01934719,1.0000001E-6,-0.1,0.020000001,0.0,0.0,0.0,180.0,0.0,0.0,0.0,0,0.99999464,-0.0018351314,0.0026769417,-4.831727E-4,0.21014169160089335,-0.30685838975421387,0.055930533800896236,34.74852,-0.11152162,0.002781704,0,0,2172,Manual,OTHER,NONE,GPS_POSITION_NONMATCH,False,Connected,,P,False,False,True,0,0,,0.0,0.1,,,,,
33383554,5.610,,,34.572113,34.588337,,,0,-0.22995645709190987,0.3065748920745664,-0.04696749666929852,0.008120889,0.0035713117,-1.0015496,1.0015888,-1.1839868,0.95219857,0.56817204,1.6221364,6.4056227E-4,7.233489E-5,0.0015767808,0.0017034642,6.446334893976938E-4,0,0,0,0.0,51.06,-0.04696749666929852,0.383231154810216,-143.17416007921497,-143.12719258254566,359.9530325033307,NaN,NaN,0.0,0.0,0.0,-0.0,NaN,NaN,NaN,NaN,NaN,NaN,NaN,NaN,false,false,3.153537982490441,-6.145610128651867,5.522205598938289,,0.0,,,0.99999434,-0.0020056434,0.0026761843,-4.152352E-4,0.027559482,-0.0037043244,0.034766197,-0.021738699,0.017841324,0.010672583,200,4648,0,0,4331,540,0.0,0.0,0.0,0.0,GPS_Atti,2,0,0,0,0,10,5000,0.0,0.0,17,5,3,2,0,0,,,,,,,1.0000001E-6,0.0,852.7817,1.0000001E-6,0.0,1.0000001E-6,1.0000001E-6,0.0,-3.9881095E-4,1.0000001E-6,0.01934719,1.0000001E-6,-0.1,0.020000001,0.0,0.0,0.0,180.0,0.0,0.0,0.0,0,0.99999464,-0.0018351314,0.0026769417,-4.831727E-4,0.21014169160089335,-0.30685838975421387,0.055930533800896236,34.74852,-0.11152162,0.002781704,0,0,2172,Manual,OTHER,NONE,GPS_POSITION_NONMATCH,False,Connected,,P,False,False,True,0,0,,0.0,0.1,,,,,
33544271,5.646,,,34.622314,34.588356,,,0,-0.2279565116366083,0.30864897034898053,-0.04363905921641836,0.005673931,0.0030464067,-1.0032688,1.0032896,-1.0968151,0.92325526,0.6494949,1.5739273,1.5674844E-4,-9.878299E-5,0.0017337532,0.001743625,1.8527858150587374E-4,0,0,0,0.0,51.12,-0.04363905921641836,0.38370085682967153,-143.5955797623232,-143.5519407031068,359.95636094078355,NaN,NaN,0.0,0.0,0.0,-0.0,NaN,NaN,NaN,NaN,NaN,NaN,NaN,NaN,false,false,3.185294315400178,-6.205092654427062,5.571116787212365,,0.0,,,0.99999434,-0.0019882615,0.0026942191,-3.8617858E-4,0.0026322193,-0.008201671,0.017237663,-0.021729682,0.017835245,0.010667519,300,4650,0,0,4371,540,0.0,0.0,0.0,0.0,GPS_Atti,2,0,0,0,0,10,5000,0.0,0.0,17,5,3,2,0,0,,,,,,,1.0000001E-6,0.0,1.0,1.0000001E-6,0.0,1.0000001E-6,1.0000001E-6,0.0,-0.009510027,1.0000001E-6,0.019438744,1.0000001E-6,-0.1,0.020000001,0.0,0.0,0.0,180.0,0.0,0.0,0.0,0,0.9999947,-0.001801179,0.0026801834,-4.750402E-4,0.206253356532792,-0.30722624793157505,0.05498885793385021,34.748444,-0.109646544,-0.0142668355,0,0,2192,Manual,OTHER,NONE,GPS_POSITION_NONMATCH,False,Connected,,P,False,False,True,0,0,,0.0,0.1,,,,,
33699267,5.680,,,34.561543,34.588432,,,0,-0.2261183126632793,0.31133450702026705,-0.04528267871899672,0.0056568757,0.003703872,-1.0026932,1.0027161,-1.1695096,1.1112849,0.62289,1.7293637,2.499575E-4,9.988977E-5,0.0015956042,0.00161815,2.6917784902577677E-4,0,0,0,0.0,51.14,-0.04528267871899672,0.3847813063804061,-144.0549800237466,-144.0096973450276,359.954717321281,NaN,NaN,0.0,0.0,0.0,-0.0,NaN,NaN,NaN,NaN,NaN,NaN,NaN,NaN,false,false,3.218521964347964,-6.264276510306672,5.6242477114543625,,0.0,,,0.9999943,-0.0019721722,0.002717677,-4.0052482E-4,8.366313E-4,-3.7238933E-4,0.021362305,-0.02172095,0.01782943,0.010663656,300,4652,0,0,4411,550,0.0,0.0,0.0,0.0,GPS_Atti,2,0,0,0,0,10,5000,0.0,0.0,17,5,3,2,0,0,,,,,,,1.0000001E-6,0.0,1.0,1.0000001E-6,0.0,1.0000001E-6,1.0000001E-6,0.0,-0.009510027,1.0000001E-6,0.019438744,1.0000001E-6,-0.1,0.020000001,0.0,0.0,0.0,180.0,0.0,0.0,0.0,0,0.99999464,-0.0017818231,0.0027163734,-5.102383E-4,0.2040223833286956,-0.3113794304840273,0.059023695823263236,34.748386,-0.107651316,-0.009679846,0,0,2212,Manual,OTHER,NONE,GPS_POSITION_NONMATCH,False,Connected,,P,False,False,True,0,0,,0.0,0.1,,,,,
33922087,5.730,,,34.561543,34.58851,,,0,-0.2257351348498736,0.3136802735628442,-0.04455187790174416,0.006021674,0.004339027,-1.0045269,1.0045543,-1.3035002,0.94285893,0.6386882,1.730901,1.3413738E-5,-1.5288168E-4,0.0011310448,0.0011414093,1.5346900876036826E-4,0,0,0,0.0,51.21,-0.04455187790174416,0.3864577968657068,-144.30459119554496,-144.26003931764322,359.95544812209823,NaN,NaN,0.0,0.0,0.0,-0.0,NaN,NaN,NaN,NaN,NaN,NaN,NaN,NaN,false,false,3.2512878347907943,-6.328505837808791,5.677598196630161,,0.0,,,0.9999942,-0.0019688376,0.0027381338,-3.9417864E-4,0.005511161,0.0035820082,0.002869606,-0.021712134,0.017824566,0.010660397,300,4653,0,0,4451,550,0.0,0.0,0.0,0.0,GPS_Atti,2,0,0,0,0,10,5000,0.0,0.0,17,5,3,2,0,0,,,,,,,1.0000001E-6,0.0,1.0,1.0000001E-6,0.0,1.0000001E-6,1.0000001E-6,0.0,-0.009510027,1.0000001E-6,0.019438744,1.0000001E-6,-0.1,0.020000001,0.0,0.0,0.0,180.0,0.0,0.0,0.0,0,0.99999464,-0.0017818231,0.0027163734,-5.102383E-4,0.2040223833286956,-0.3113794304840273,0.059023695823263236,34.748386,-0.107651316,-0.009679846,0,0,2212,Manual,OTHER,NONE,GPS_POSITION_NONMATCH,False,Connected,,P,False,False,True,0,0,,0.0,0.1,,,,,
34079133,5.765,,,34.561543,34.58851,,,0,-0.2257351348498736,0.3136802735628442,-0.04455187790174416,0.006021674,0.004339027,-1.0045269,1.0045543,-1.3035002,0.94285893,0.6386882,1.730901,1.3413738E-5,-1.5288168E-4,0.0011310448,0.0011414093,1.5346900876036826E-4,0,0,0,0.0,51.21,-0.04455187790174416,0.3864577968657068,-144.30459119554496,-144.26003931764322,359.95544812209823,NaN,NaN,0.0,0.0,0.0,-0.0,NaN,NaN,NaN,NaN,NaN,NaN,NaN,NaN,false,false,3.2512878347907943,-6.328505837808791,5.677598196630161,,0.0,,,0.9999942,-0.0019688376,0.0027381338,-3.9417864E-4,0.005511161,0.0035820082,0.002869606,-0.021712134,0.017824566,0.010660397,300,4653,0,0,4451,550,0.0,0.0,0.0,0.0,GPS_Atti,2,0,0,0,0,10,5000,0.0,0.0,17,5,3,2,0,0,,,,,,,1.0000001E-6,0.0,1.0,1.0000001E-6,0.0,1.0000001E-6,1.0000001E-6,0.0,-0.009237971,1.0000001E-6,-0.0099077225,1.0000001E-6,-0.1,0.020000001,0.0,0.0,0.0,180.0,0.0,0.0,0.0,0,0.99999464,-0.001761574,0.0027360641,-5.2475475E-4,0.20169628519125019,-0.3136375257679312,0.06068481951495405,34.74842,-0.10765538,-0.02783377,0,0,2232,GPS_Atti,OTHER,NONE,GPS_POSITION_NONMATCH,False,Connected,,P,False,False,False,0,0,0.1,0.0,0.1,,,,,
34592745,5.879,,,34.572113,34.58856,,,0,-0.22323149020690977,0.31312800174039956,-0.04708049296898709,0.0063642655,0.0047032177,-1.003479,1.0035102,-1.2738163,0.9677239,0.62261665,1.7166098,1.10215144E-4,1.6844517E-4,0.0020515523,0.0020614043,2.0129866972206192E-4,0,0,0,0.0,51.24,-0.04708049296898709,0.3845509839415299,-144.56183462611537,-144.51475413314637,359.952919507031,NaN,NaN,0.0,0.0,0.0,-0.0,NaN,NaN,NaN,NaN,NaN,NaN,NaN,NaN,false,false,3.2840826920543194,-6.395517969826869,5.727274760766779,,0.0,,,0.9999943,-0.0019469309,0.0027333489,-4.1617567E-4,0.010556266,0.0059015118,0.0137376785,-0.021703474,0.017821172,0.0106556555,200,4654,0,0,4491,570,0.0,0.0,0.0,0.0,GPS_Atti,2,0,0,0,0,10,5000,0.0,0.0,17,5,3,2,0,0,,,,,,,1.0000001E-6,0.0,1.0,1.0000001E-6,0.0,1.0000001E-6,1.0000001E-6,0.0,-0.009237971,1.0000001E-6,-0.0099077225,1.0000001E-6,-0.1,0.020000001,0.0,0.0,0.0,180.0,0.0,0.0,0.0,0,0.99999464,-0.0017340595,0.0027292038,-5.673999E-4,0.19853045667134336,-0.31285818852483605,0.06556160768936015,34.747375,-0.10450275,-0.016498823,0,0,2252,GPS_Atti,OTHER,NONE,GPS_POSITION_NONMATCH,False,Connected,,P,False,False,False,0,0,0.1,0.0,0.1,,,,,
34785817,5.922,,,34.53776,34.58858,,,0,-0.21890398056925328,0.31319282099439805,-0.04696711136159888,0.0054672416,0.0042190882,-1.0055907,1.0056144,-1.235999,1.1486359,0.56550884,1.7795669,2.518936E-5,-5.138827E-5,7.141918E-4,7.164811E-4,5.7229870389168566E-5,0,0,0,0.0,51.21,-0.04696711136159888,0.3821083443100843,-145.09574332156348,-145.04877621020188,359.9530328886384,NaN,NaN,0.0,0.0,0.0,-0.0,NaN,NaN,NaN,NaN,NaN,NaN,NaN,NaN,false,false,3.3459799968143003,-6.52627082872678,5.837529920394704,,0.0,,,0.9999944,-0.001909169,0.0027338972,-4.1508413E-4,-0.0016181357,0.005065197,-0.009780884,-0.021685941,0.017814605,0.0106444005,200,4658,0,0,4571,570,0.0,0.0,0.0,0.0,GPS_Atti,2,0,0,0,0,10,5000,0.0,0.0,17,5,3,2,0,0,,,,,,,1.0000001E-6,0.0,1.0,1.0000001E-6,0.0,1.0000001E-6,1.0000001E-6,0.0,-0.009237971,1.0000001E-6,-0.0099077225,1.0000001E-6,-0.1,0.020000001,0.0,0.0,0.0,180.0,0.0,0.0,0.0,0,0.9999947,-0.0016876678,0.0027319645,-6.087285E-4,0.19320124168632294,-0.31317942357373424,0.07028352617008084,34.742752,-0.09777794,-0.03885027,0,0,2292,GPS_Atti,OTHER,NONE,GPS_POSITION_NONMATCH,False,Connected,,P,False,False,False,0,0,0.1,0.0,0.1,,,,,
34950547,5.958,,,34.58268,34.58836,,,0,-0.21777457075436765,0.3108764065754554,-0.04432775932664225,0.0058461307,0.0035580269,-1.0024601,1.0024835,-1.2417111,1.1399297,0.57647085,1.7814614,2.9031813E-4,1.3299557E-4,0.0011407295,0.0011845827,3.1933122659073447E-4,0,0,0,0.0,51.36,-0.04432775932664225,0.37956296221448005,-145.03252157989093,-144.98819382056428,359.9556722406734,NaN,NaN,0.0,0.0,0.0,-0.0,NaN,NaN,NaN,NaN,NaN,NaN,NaN,NaN,false,false,3.3758590884679975,-6.59109836319692,5.897408619779188,,0.0,,,0.99999446,-0.001899384,0.002713635,-3.9198625E-4,0.0041054804,-8.626804E-4,0.025942802,-0.021677366,0.017811805,0.010638952,400,4656,0,0,4611,570,0.0,0.0,0.0,0.0,GPS_Atti,2,0,0,0,0,10,5000,0.0,0.0,17,5,3,2,0,0,,,,,,,1.0000001E-6,0.0,1.0,1.0000001E-6,0.0,1.0000001E-6,1.0000001E-6,0.0,-0.007760003,1.0000001E-6,0.019436836,1.0000001E-6,-0.1,0.020000001,0.0,0.0,0.0,180.0,0.0,0.0,0.0,0,0.99999475,-0.0016743481,0.0027204654,-6.0740346E-4,0.19167614548085135,-0.3118605117812534,0.0701253080036733,34.73997,-0.09731342,-0.0028534196,0,0,2312,GPS_Atti,OTHER,NONE,GPS_POSITION_NONMATCH,False,Connected,,P,False,False,False,0,0,0.1,0.0,0.1,,,,,
35105944,5.993,,,34.590607,34.588146,,,0,-0.21670092012105002,0.31120619603258665,-0.04789556012266273,0.0045394246,0.0060934997,-1.0044312,1.00446,-1.119462,1.0636871,0.532903,1.6335884,4.1890825E-4,1.6913592E-4,0.0019046997,0.0019575425,4.5176442339664756E-4,0,0,0,0.0,51.4,-0.04789556012266273,0.3792185887848674,-145.1975394241804,-145.14964386405774,359.95210443987736,NaN,NaN,0.0,0.0,0.0,-0.0,NaN,NaN,NaN,NaN,NaN,NaN,NaN,NaN,false,false,3.404615550952265,-6.652303146525014,5.954529328965638,,0.0,,,0.99999446,-0.001889929,0.0027165683,-4.2310104E-4,-0.00888302,0.022120465,0.0017156601,-0.021668682,0.017808849,0.010634626,200,4660,0,0,4651,580,0.0,0.0,0.0,0.0,GPS_Atti,2,0,0,0,0,10,5000,0.0,0.0,17,5,3,2,0,0,,,,,,,1.0000001E-6,0.0,1.0,1.0000001E-6,0.0,1.0000001E-6,1.0000001E-6,0.0,-0.007760003,1.0000001E-6,0.019436836,1.0000001E-6,-0.1,0.020000001,0.0,0.0,0.0,180.0,0.0,0.0,0.0,0,0.9999947,-0.0016557099,0.0027369908,-6.6081784E-4,0.18952245368883458,-0.3137630042521203,0.07624346534712206,34.739304,-0.09851795,-0.026894296,0,0,2332,GPS_Atti,OTHER,NONE,GPS_POSITION_NONMATCH,False,Connected,,P,False,False,False,0,0,0.1,0.0,0.1,,,,,
35258926,6.027,,,34.590607,34.588146,,,0,-0.21670092012105002,0.31120619603258665,-0.04789556012266273,0.0045394246,0.0060934997,-1.0044312,1.00446,-1.119462,1.0636871,0.532903,1.6335884,4.1890825E-4,1.6913592E-4,0.0019046997,0.0019575425,4.5176442339664756E-4,0,0,0,0.0,51.4,-0.04789556012266273,0.3792185887848674,-145.1975394241804,-145.14964386405774,359.95210443987736,NaN,NaN,0.0,0.0,0.0,-0.0,NaN,NaN,NaN,NaN,NaN,NaN,NaN,NaN,false,false,3.404615550952265,-6.652303146525014,5.954529328965638,,0.0,,,0.99999446,-0.001889929,0.0027165683,-4.2310104E-4,-0.00888302,0.022120465,0.0017156601,-0.021668682,0.017808849,0.010634626,200,4660,0,0,4651,580,0.0,0.0,0.0,0.0,GPS_Atti,2,0,0,0,0,10,5000,0.0,0.0,17,5,3,2,0,0,,,,,,,1.0000001E-6,0.0,1.0,1.0000001E-6,0.0,1.0000001E-6,1.0000001E-6,0.0,-0.007760003,1.0000001E-6,0.019436836,1.0000001E-6,-0.1,0.020000001,0.0,0.0,0.0,180.0,0.0,0.0,0.0,0,0.9999947,-0.0016557099,0.0027369908,-6.6081784E-4,0.18952245368883458,-0.3137630042521203,0.07624346534712206,34.739304,-0.09851795,-0.026894296,0,0,2332,GPS_Atti,OTHER,NONE,GPS_POSITION_NONMATCH,False,Connected,,P,False,False,False,0,0,0.1,0.0,0.1,,,,,
35419293,6.062,,,34.56947,34.5879,,,0,-0.21285717920886457,0.31189056398534437,-0.04973943950090484,0.006779165,0.004821439,-1.0056819,1.0057163,-1.0711514,1.1337802,0.48433465,1.6332185,4.001876E-5,3.018085E-4,0.0011573817,0.0011967549,3.044501050235264E-4,0,0,0,0.0,51.38,-0.04973943950090484,0.3776004668862851,-145.73736271010003,-145.68762327059912,359.9502605604991,NaN,NaN,0.0,0.0,0.0,-0.0,NaN,NaN,NaN,NaN,NaN,NaN,NaN,NaN,false,false,3.4311091062829817,-6.709356811686774,6.011761502252799,,0.0,,,0.9999945,-0.0018563399,0.0027225565,-4.3911184E-4,0.0144158285,0.00838664,-0.010418892,-0.021659914,0.017806286,0.010630755,300,4660,0,0,4691,580,0.0,0.0,0.0,0.0,GPS_Atti,2,0,0,0,0,10,5000,0.0,0.0,17,5,3,2,0,0,,,,,,,1.0000001E-6,0.0,1.0,1.0000001E-6,0.0,1.0000001E-6,1.0000001E-6,0.0,0.0027315393,1.0000001E-6,-0.019745827,1.0000001E-6,-0.1,0.020000001,0.0,0.0,0.0,180.0,0.0,0.0,0.0,0,0.99999475,-0.001619523,0.0027308401,-6.9875584E-4,0.18536434315830386,-0.31306241004430385,0.08057833658869205,34.735577,-0.09443059,-0.038390357,0,0,2352,GPS_Atti,OTHER,NONE,GPS_POSITION_NONMATCH,False,Connected,,P,False,False,False,0,0,0.1,0.0,0.1,,,,,
35574216,6.097,,,34.553616,34.58759,,,0,-0.2095299130745178,0.3101529577988686,-0.0494817989073945,0.0055415146,0.003630095,-1.0064375,1.0064594,-1.2706062,0.9669635,0.58522755,1.7005734,1.5056638E-4,2.4017454E-4,0.001560039,0.0015855837,2.8346789720914934E-4,0,0,0,0.0,51.34,-0.0494817989073945,0.37429390383818606,-146.00785802723757,-145.95837622833017,359.9505182010926,NaN,NaN,0.0,0.0,0.0,-0.0,NaN,NaN,NaN,NaN,NaN,NaN,NaN,NaN,false,false,3.458977928704151,-6.770374324386665,6.066499090467975,,0.0,,,0.9999946,-0.0018273168,0.0027073766,-4.3675682E-4,-3.4995936E-4,0.0011121016,-0.017817497,-0.021651126,0.01780412,0.010625266,300,4660,0,0,4731,590,0.0,0.0,0.0,0.0,GPS_Atti,2,0,0,0,0,10,5000,0.0,0.0,17,5,3,2,0,0,,,,,,,1.0000001E-6,0.0,1.0,1.0000001E-6,0.0,1.0000001E-6,1.0000001E-6,0.0,0.0027315393,1.0000001E-6,-0.019745827,1.0000001E-6,-0.1,0.020000001,0.0,0.0,0.0,180.0,0.0,0.0,0.0,0,0.9999948,-0.0015897237,0.0027210421,-7.184904E-4,0.18194423836529064,-0.3119407968665859,0.08282863072718448,34.733646,-0.09475824,-0.045558628,0,0,2372,GPS_Atti,OTHER,NONE,GPS_POSITION_NONMATCH,False,Connected,,P,False,False,False,0,0,0.1,0.0,0.1,,,,,
35796791,6.146,,,34.60646,34.58732,,,0,-0.20648071496064094,0.3108802093746022,-0.05119277308204803,0.007348232,0.0047039925,-1.0047123,1.0047503,-0.9565691,0.93771476,0.5052352,1.431641,6.1787484E-4,-1.897859E-5,0.0014309587,0.0015587728,6.181662509467491E-4,0,0,0,0.0,51.38,-0.05119277308204803,0.37320117459096147,-146.45998214789861,-146.4087893748166,359.94880722691795,NaN,NaN,0.0,0.0,0.0,-0.0,NaN,NaN,NaN,NaN,NaN,NaN,NaN,NaN,false,false,3.487347924086883,-6.82831757048902,6.116052103113407,,0.0,,,0.99999464,-0.0018006645,0.0027137385,-4.5162722E-4,0.019148417,0.009750184,-0.0013656616,-0.021641511,0.017800787,0.010618617,300,4657,0,0,4771,590,0.0,0.0,0.0,0.0,GPS_Atti,2,0,0,0,0,10,5000,0.0,0.0,17,5,3,2,0,0,,,,,,,1.0000001E-6,0.0,1.0,1.0000001E-6,0.0,1.0000001E-6,1.0000001E-6,0.0,0.0027315393,1.0000001E-6,-0.019745827,1.0000001E-6,-0.1,0.020000001,0.0,0.0,0.0,180.0,0.0,0.0,0.0,0,0.9999948,-0.0015897237,0.0027210421,-7.184904E-4,0.18194423836529064,-0.3119407968665859,0.08282863072718448,34.733646,-0.09475824,-0.045558628,0,0,2372,GPS_Atti,OTHER,NONE,GPS_POSITION_NONMATCH,False,Connected,,P,False,False,False,0,0,0.1,0.0,0.1,,,,,
35998979,6.191,,,34.60646,34.58732,,,0,-0.20648071496064094,0.3108802093746022,-0.05119277308204803,0.007348232,0.0047039925,-1.0047123,1.0047503,-0.9565691,0.93771476,0.5052352,1.431641,6.1787484E-4,-1.897859E-5,0.0014309587,0.0015587728,6.181662509467491E-4,0,0,0,0.0,51.38,-0.05119277308204803,0.37320117459096147,-146.45998214789861,-146.4087893748166,359.94880722691795,NaN,NaN,0.0,0.0,0.0,-0.0,NaN,NaN,NaN,NaN,NaN,NaN,NaN,NaN,false,false,3.487347924086883,-6.82831757048902,6.116052103113407,,0.0,,,0.99999464,-0.0018006645,0.0027137385,-4.5162722E-4,0.019148417,0.009750184,-0.0013656616,-0.021641511,0.017800787,0.010618617,300,4657,0,0,4771,600,0.0,0.0,0.0,0.0,GPS_Atti,2,0,0,0,0,10,5000,0.0,0.0,17,5,3,2,0,0,,,,,,,1.0000001E-6,0.0,1.0,1.0000001E-6,0.0,1.0000001E-6,1.0000001E-6,0.0,-0.015652094,1.0000001E-6,0.019417763,1.0000001E-6,-0.1,0.020000001,0.0,0.0,0.0,180.0,0.0,0.0,0.0,0,0.99999475,-0.0015450987,0.0027496454,-7.5685873E-4,0.17681614282867508,-0.3152215765432768,0.08721645001185627,34.734028,-0.09910362,-0.029002089,0,0,2392,GPS_Atti,OTHER,NONE,GPS_POSITION_NONMATCH,False,Connected,,P,False,False,False,0,0,0.1,0.0,0.1,,,,,
36467748,6.295,,,34.595894,34.587173,,,0,-0.2077304745346072,0.31373269368990775,-0.05326386552183736,0.0059201727,0.0030536053,-1.0041858,1.0042078,-1.2633238,0.9798365,0.42638057,1.6546501,1.0316864E-4,1.1626974E-4,0.001511607,0.0015195782,1.5544266273138346E-4,0,0,0,0.0,51.42,-0.05326386552183736,0.3762690899868285,-146.54384608264078,-146.49058221711897,359.94673613447816,NaN,NaN,0.0,0.0,0.0,-0.0,NaN,NaN,NaN,NaN,NaN,NaN,NaN,NaN,false,false,3.5116112687248275,-6.886133278692711,6.165993515710785,,0.0,,,0.9999945,-0.0018115098,0.0027386686,-4.697755E-4,0.003934432,-0.006322475,0.0021295547,-0.021632122,0.017795833,0.010612847,200,4658,0,0,4811,610,0.0,0.0,0.0,0.0,GPS_Atti,2,0,0,0,0,10,5000,0.0,0.0,17,5,3,2,0,0,,,,,,,1.0000001E-6,0.0,1.0,1.0000001E-6,0.0,1.0000001E-6,1.0000001E-6,0.0,-0.015652094,1.0000001E-6,0.019417763,1.0000001E-6,-0.1,0.020000001,0.0,0.0,0.0,180.0,0.0,0.0,0.0,0,0.9999947,-0.00155754,0.002758503,-7.981926E-4,0.17822796035907604,-0.3162450361402764,0.0919584592554138,34.73653,-0.10414292,-0.025523122,0,0,2412,GPS_Atti,OTHER,NONE,GPS_POSITION_NONMATCH,False,Connected,,P,False,False,False,0,0,0.1,0.0,0.1,,,,,
36634178,6.332,,,34.624958,34.58747,,,0,-0.20391569091048573,0.30791743443222197,-0.05719969070084674,0.006693133,0.0040459386,-1.0049487,1.0049791,-1.2130088,1.113054,0.64064175,1.7665507,3.1229158E-4,4.4800132E-4,0.0014380923,0.0015382916,5.461054970851006E-4,0,0,0,0.0,51.51,-0.05719969070084674,0.3693144381060286,-146.54316508809788,-146.48596539739702,359.9428003092992,NaN,NaN,0.0,0.0,0.0,-0.0,NaN,NaN,NaN,NaN,NaN,NaN,NaN,NaN,false,false,3.567156007516296,-7.01504083886752,6.274940682922836,,0.0,,,0.9999947,-0.0017781513,0.002687967,-5.039405E-4,0.015137818,0.0025148913,-0.0011291504,-0.021613572,0.01778776,0.010599021,200,4660,0,0,4891,610,0.0,0.0,0.0,0.0,GPS_Atti,2,0,0,0,0,10,5000,0.0,0.0,17,5,3,2,0,0,,,,,,,1.0000001E-6,0.0,1.0,1.0000001E-6,0.0,1.0000001E-6,1.0000001E-6,0.0,-0.015652094,1.0000001E-6,0.019417763,1.0000001E-6,-0.1,0.020000001,0.0,0.0,0.0,180.0,0.0,0.0,0.0,0,0.9999948,-0.0015252818,0.0027188892,-8.8065217E-4,0.17450938521845494,-0.31171696244805275,0.10139049897956982,34.740376,-0.1041121,-0.028041106,0,0,2452,GPS_Atti,OTHER,NONE,GPS_POSITION_NONMATCH,False,Connected,,P,False,False,False,0,0,0.1,0.0,0.1,,,,,
36825525,6.375,,,34.622314,34.58782,,,0,-0.20503037684888623,0.3073544342784872,-0.05439064660838934,0.005841844,0.003785346,-1.004685,1.0047091,-1.2906182,1.0595853,0.5591081,1.7609708,3.4244012E-4,3.1109308E-4,0.0015487098,0.0016163373,4.626490565382766E-4,0,0,0,0.0,51.57,-0.05439064660838934,0.3694625702674104,-146.3480225243171,-146.2936318777087,359.9456093533916,NaN,NaN,0.0,0.0,0.0,-0.0,NaN,NaN,NaN,NaN,NaN,NaN,NaN,NaN,false,false,3.598419896980083,-7.080282036829345,6.33155678367719,,0.0,,,0.9999947,-0.0017879469,0.0026830148,-4.7944445E-4,0.0052964147,0.0013449825,3.8146973E-6,-0.021604637,0.017782718,0.010591771,200,4661,0,0,4931,610,0.0,0.0,0.0,0.0,GPS_Atti,2,0,0,0,0,10,5000,0.0,0.0,17,5,3,2,0,0,,,,,,,1.0000001E-6,0.0,1.0,1.0000001E-6,0.0,1.0000001E-6,1.0000001E-6,0.0,0.004159447,1.0000001E-6,0.009548187,1.0000001E-6,-0.1,0.020000001,0.0,0.0,0.0,180.0,0.0,0.0,0.0,0,0.9999948,-0.0015366855,0.0027129601,-8.813555E-4,0.17581653064082362,-0.3110388298114538,0.10147360913553792,34.741417,-0.10214858,-0.026482781,0,0,2472,GPS_Atti,OTHER,NONE,GPS_POSITION_NONMATCH,False,Connected,,P,False,False,False,0,0,0.1,0.0,0.1,,,,,
36980547,6.409,,,34.61703,34.588203,,,0,-0.2052102655875667,0.3089594873012983,-0.05360712424574382,0.0072344122,0.0042839423,-1.0034193,1.0034544,-1.2203671,1.1709011,0.5235108,1.770415,6.236831E-4,3.0094254E-4,9.5274305E-4,0.0011778227,6.924933195829816E-4,0,0,0,0.0,51.6,-0.05360712424574382,0.37089834897582796,-146.4617181536455,-146.40811102939978,359.94639287575427,NaN,NaN,0.0,0.0,0.0,-0.0,NaN,NaN,NaN,NaN,NaN,NaN,NaN,NaN,false,false,3.626700168582765,-7.145874227692303,6.3898217571173355,,0.0,,,0.99999464,-0.0017895284,0.00269701,-4.7263625E-4,0.020264337,0.005404493,0.0149354935,-0.02159608,0.017776854,0.010584918,400,4663,0,0,4971,620,0.0,0.0,0.0,0.0,GPS_Atti,2,0,0,0,0,10,5000,0.0,0.0,17,5,3,2,0,0,,,,,,,1.0000001E-6,0.0,1.0,1.0000001E-6,0.0,1.0000001E-6,1.0000001E-6,0.0,0.004159447,1.0000001E-6,0.009548187,1.0000001E-6,-0.1,0.020000001,0.0,0.0,0.0,180.0,0.0,0.0,0.0,0,0.99999475,-0.0015339819,0.002741486,-9.007954E-4,0.17549770812008045,-0.314310789241086,0.10370541284405058,34.741016,-0.09874442,-0.010982679,0,0,2492,GPS_Atti,OTHER,NONE,GPS_POSITION_NONMATCH,False,Connected,,P,False,False,False,0,0,0.1,0.0,0.1,,,,,
37203424,6.459,,,34.58004,34.58857,,,0,-0.2063553520500564,0.3132298503650495,-0.052622942195055596,0.0068808505,0.0035941235,-1.0040523,1.0040823,-1.1616929,0.9665437,0.58877474,1.6218485,1.638408E-4,4.2996876E-4,0.0013796801,0.0014543844,4.6012708822132153E-4,0,0,0,0.0,51.69,-0.052622942195055596,0.37509168697022316,-146.67593980778895,-146.6233168655939,359.94737705780494,NaN,NaN,0.0,0.0,0.0,-0.0,NaN,NaN,NaN,NaN,NaN,NaN,NaN,NaN,false,false,3.655632347553585,-7.207835100951485,6.445419830252224,,0.0,,,0.9999946,-0.0017995271,0.0027342648,-4.6414166E-4,0.015973303,-0.002671077,0.0058908463,-0.021587884,0.01777094,0.010577147,400,4664,0,0,5011,620,0.0,0.0,0.0,0.0,GPS_Atti,2,0,0,0,0,10,5000,0.0,0.0,17,5,3,2,0,0,,,,,,,1.0000001E-6,0.0,1.0,1.0000001E-6,0.0,1.0000001E-6,1.0000001E-6,0.0,0.004159447,1.0000001E-6,0.009548187,1.0000001E-6,-0.1,0.020000001,0.0,0.0,0.0,180.0,0.0,0.0,0.0,0,0.99999475,-0.0015339819,0.002741486,-9.007954E-4,0.17549770812008045,-0.314310789241086,0.10370541284405058,34.741016,-0.09874442,-0.010982679,0,0,2492,GPS_Atti,OTHER,NONE,GPS_POSITION_NONMATCH,False,Connected,,P,False,False,False,0,0,0.1,0.0,0.1,,,,,
37405245,6.504,,,34.58004,34.58857,,,0,-0.2063553520500564,0.3132298503650495,-0.052622942195055596,0.0068808505,0.0035941235,-1.0040523,1.0040823,-1.1616929,0.9665437,0.58877474,1.6218485,1.638408E-4,4.2996876E-4,0.0013796801,0.0014543844,4.6012708822132153E-4,0,0,0,0.0,51.69,-0.052622942195055596,0.37509168697022316,-146.67593980778895,-146.6233168655939,359.94737705780494,NaN,NaN,0.0,0.0,0.0,-0.0,NaN,NaN,NaN,NaN,NaN,NaN,NaN,NaN,false,false,3.655632347553585,-7.207835100951485,6.445419830252224,,0.0,,,0.9999946,-0.0017995271,0.0027342648,-4.6414166E-4,0.015973303,-0.002671077,0.0058908463,-0.021587884,0.01777094,0.010577147,400,4664,0,0,5011,630,0.0,0.0,0.0,0.0,GPS_Atti,2,0,0,0,0,10,5000,0.0,0.0,17,5,3,2,0,0,,,,,,,1.0000001E-6,0.0,1.0,1.0000001E-6,0.0,1.0000001E-6,1.0000001E-6,0.0,0.00392621,1.0000001E-6,0.01934719,1.0000001E-6,-0.1,0.020000001,0.0,0.0,0.0,180.0,0.0,0.0,0.0,0,0.9999946,-0.0015425397,0.0027712835,-9.1937935E-4,0.1764693742636089,-0.3177295850852151,0.10584294977309763,34.74133,-0.09709956,-0.019695405,0,0,2512,GPS_Atti,OTHER,NONE,GPS_POSITION_NONMATCH,False,Connected,,P,False,False,False,0,0,0.1,0.0,0.1,,,,,
37571660,6.541,,,34.595894,34.588913,,,0,-0.20763248498989673,0.3145905645060699,-0.05253871743752769,0.007964441,0.0056276037,-1.0041221,1.0041696,-1.1379558,1.0252873,0.5482039,1.6268635,2.5511716E-4,2.2498978E-4,0.0012493082,0.0012947881,3.4015462644168077E-4,0,0,0,0.0,51.68,-0.05253871743752769,0.37693068225836956,-146.6275328214031,-146.5749941039656,359.9474612825625,NaN,NaN,0.0,0.0,0.0,-0.0,NaN,NaN,NaN,NaN,NaN,NaN,NaN,NaN,false,false,3.6851905649375496,-7.267619438944763,6.49720178173796,,0.0,,,0.99999446,-0.0018106685,0.0027461431,-4.6345865E-4,0.023754917,0.02124805,0.0066022873,-0.021580584,0.017767733,0.010570358,200,4665,0,0,5051,630,0.0,0.0,0.0,0.0,GPS_Atti,2,0,0,0,0,10,5000,0.0,0.0,17,5,3,2,0,0,,,,,,,1.0000001E-6,0.0,1.0,1.0000001E-6,0.0,1.0000001E-6,1.0000001E-6,0.0,0.00392621,1.0000001E-6,0.01934719,1.0000001E-6,-0.1,0.020000001,0.0,0.0,0.0,180.0,0.0,0.0,0.0,0,0.9999945,-0.0015536149,0.0027903065,-9.4635267E-4,0.1777278425129097,-0.3199154141002618,0.10894075604789812,34.74056,-0.095266916,-0.01856024,0,0,2532,GPS_Atti,OTHER,NONE,GPS_POSITION_NONMATCH,False,Connected,,P,False,False,False,0,0,0.1,0.0,0.1,,,,,
38067233,6.651,,,34.614388,34.589245,,,0,-0.20503761242225238,0.31777025856618013,-0.052914390755375365,0.0050670058,0.003395131,-1.0022002,1.0022188,-1.0274751,1.0833577,0.61704046,1.6155828,3.0052557E-4,9.3951974E-5,0.0014830485,0.0015161055,3.1486916211240505E-4,0,0,0,0.0,51.7,-0.052914390755375365,0.3781754031871071,-147.22140434093848,-147.1684899501831,359.94708560924465,NaN,NaN,0.0,0.0,0.0,-0.0,NaN,NaN,NaN,NaN,NaN,NaN,NaN,NaN,false,false,3.7155558428144033,-7.324048729178713,6.552151278574758,,0.0,,,0.99999446,-0.0017880022,0.0027738865,-4.6672445E-4,-0.0050669033,-8.4944814E-4,0.023983955,-0.021574397,0.017764872,0.010564248,300,4665,0,0,5091,630,0.0,0.0,0.0,0.0,GPS_Atti,2,0,0,0,0,10,5000,0.0,0.0,17,5,3,2,0,0,,,,,,,1.0000001E-6,0.0,1.0,1.0000001E-6,0.0,1.0000001E-6,1.0000001E-6,0.0,-0.0055698883,1.0000001E-6,0.02918148,1.0000001E-6,-0.1,0.020000001,0.0,0.0,0.0,180.0,0.0,0.0,0.0,0,0.9999944,-0.0015332685,0.0028249475,-9.776574E-4,0.17538241882037225,-0.323888284784224,0.11252757978185711,34.73953,-0.09326724,-7.850267E-4,0,0,2552,GPS_Atti,OTHER,NONE,GPS_POSITION_NONMATCH,False,Connected,,P,False,False,False,0,0,0.1,0.0,0.1,,,,,
38231799,6.687,,,34.574753,34.58981,,,0,-0.20450107018249752,0.31664931518176004,-0.054994618203321605,0.0054916786,0.0032443644,-1.00386,1.0038803,-1.1326549,0.97973216,0.60058475,1.6135316,1.2735894E-4,1.6758796E-4,8.6163625E-4,8.869741E-4,2.1048996113526926E-4,0,0,0,0.0,51.72,-0.054994618203321605,0.3769426659854532,-147.19963353203315,-147.14463891382982,359.9450053817967,NaN,NaN,0.0,0.0,0.0,-0.0,NaN,NaN,NaN,NaN,NaN,NaN,NaN,NaN,false,false,3.77896820946696,-7.4365455443005715,6.659594365142386,,0.0,,,0.9999945,-0.0017832745,0.0027641347,-4.8484732E-4,-0.0016428735,-6.118696E-4,0.008665085,-0.021562103,0.01776109,0.010550267,200,4669,0,0,5171,630,0.0,0.0,0.0,0.0,GPS_Atti,2,0,0,0,0,10,5000,0.0,0.0,17,5,3,2,0,0,,,,,,,1.0000001E-6,0.0,1.0,1.0000001E-6,0.0,1.0000001E-6,1.0000001E-6,0.0,0.01406087,1.0000001E-6,0.009566307,1.0000001E-6,-0.1,0.020000001,0.0,0.0,0.0,180.0,0.0,0.0,0.0,0,0.99999434,-0.0015191381,0.0028166822,-0.0010541783,0.17373942502889286,-0.3229528673515919,0.12129022622459615,34.73689,-0.0907553,-0.01534985,0,0,2592,GPS_Atti,OTHER,NONE,GPS_POSITION_NONMATCH,False,Connected,,P,False,False,False,0,0,0.1,0.0,0.1,,,,,
38387376,6.722,,,34.590607,34.59004,,,0,-0.20130674388639697,0.31889280863555547,-0.053748401999616044,0.0075412253,0.0031064402,-1.0035965,1.0036297,-1.167853,1.0908592,0.70746416,1.7476727,5.239241E-4,9.159886E-5,0.0010166003,0.0011473286,5.318710789428764E-4,0,0,0,0.0,51.79,-0.053748401999616044,0.37711451150021896,-147.79101277129004,-147.73726436929041,359.9462515980004,NaN,NaN,0.0,0.0,0.0,-0.0,NaN,NaN,NaN,NaN,NaN,NaN,NaN,NaN,false,false,3.8130199242982243,-7.496433396235858,6.713496925900433,,0.0,,,0.99999446,-0.0017554195,0.0027836806,-4.7392948E-4,0.018983824,-0.0027845027,0.010622978,-0.021555461,0.017758736,0.010543748,200,4671,0,0,5211,650,0.0,0.0,0.0,0.0,GPS_Atti,2,0,0,0,0,10,5000,0.0,0.0,17,5,3,2,0,0,,,,,,,1.0000001E-6,0.0,1.0,1.0000001E-6,0.0,1.0000001E-6,1.0000001E-6,0.0,0.01406087,1.0000001E-6,0.009566307,1.0000001E-6,-0.1,0.020000001,0.0,0.0,0.0,180.0,0.0,0.0,0.0,0,0.99999434,-0.0014874815,0.002843326,-0.0010734295,0.1701023443774903,-0.326005393026568,0.12349052283820199,34.736015,-0.09019077,-0.013106039,0,0,2612,GPS_Atti,OTHER,NONE,GPS_POSITION_NONMATCH,False,Connected,,P,False,False,False,0,0,0.1,0.0,0.1,,,,,
38539932,6.756,,,34.590607,34.59004,,,0,-0.20130674388639697,0.31889280863555547,-0.053748401999616044,0.0075412253,0.0031064402,-1.0035965,1.0036297,-1.167853,1.0908592,0.70746416,1.7476727,5.239241E-4,9.159886E-5,0.0010166003,0.0011473286,5.318710789428764E-4,0,0,0,0.0,51.79,-0.053748401999616044,0.37711451150021896,-147.79101277129004,-147.73726436929041,359.9462515980004,NaN,NaN,0.0,0.0,0.0,-0.0,NaN,NaN,NaN,NaN,NaN,NaN,NaN,NaN,false,false,3.8130199242982243,-7.496433396235858,6.713496925900433,,0.0,,,0.99999446,-0.0017554195,0.0027836806,-4.7392948E-4,0.018983824,-0.0027845027,0.010622978,-0.021555461,0.017758736,0.010543748,200,4671,0,0,5211,650,0.0,0.0,0.0,0.0,GPS_Atti,2,0,0,0,0,10,5000,0.0,0.0,17,5,3,2,0,0,,,,,,,1.0000001E-6,0.0,1.0,1.0000001E-6,0.0,1.0000001E-6,1.0000001E-6,0.0,0.01406087,1.0000001E-6,0.009566307,1.0000001E-6,-0.1,0.020000001,0.0,0.0,0.0,180.0,0.0,0.0,0.0,0,0.99999434,-0.0014874815,0.002843326,-0.0010734295,0.1701023443774903,-0.326005393026568,0.12349052283820199,34.736015,-0.09019077,-0.013106039,0,0,2612,GPS_Atti,OTHER,NONE,GPS_POSITION_NONMATCH,False,Connected,,P,False,False,False,0,0,0.1,0.0,0.1,,,,,
38700559,6.792,,,34.572113,34.590244,,,0,-0.200580214752556,0.31917530458520593,-0.05544635352669768,0.0063045947,0.0039415355,-1.0039544,1.003982,-1.10217,1.0572119,0.6129528,1.645657,1.9371146E-4,1.1574176E-4,8.4785186E-4,8.773671E-4,2.256552266729194E-4,0,0,0,0.0,51.8,-0.05544635352669768,0.3769663552252596,-147.90900850484007,-147.85356215131335,359.9445536464733,NaN,NaN,0.0,0.0,0.0,-0.0,NaN,NaN,NaN,NaN,NaN,NaN,NaN,NaN,false,false,3.847382906998739,-7.555509249885716,6.769399060667485,,0.0,,,0.9999945,-0.0017490371,0.0027861686,-4.8873347E-4,0.0071033724,0.0028040037,0.0016832352,-0.021549009,0.017757967,0.01053786,200,4671,0,0,5251,650,0.0,0.0,0.0,0.0,GPS_Atti,2,0,0,0,0,10,5000,0.0,0.0,17,5,3,2,0,0,,,,,,,1.0000001E-6,0.0,1.0,1.0000001E-6,0.0,1.0000001E-6,1.0000001E-6,0.0,-0.004971996,1.0000001E-6,0.009581566,1.0000001E-6,-0.1,0.020000001,0.0,0.0,0.0,180.0,0.0,0.0,0.0,0,0.9999943,-0.0014846205,0.0028485022,-0.0011184016,0.16975916921757372,-0.32660583464115694,0.12864389707830448,34.734627,-0.088550285,-0.02170236,0,0,2632,GPS_Atti,OTHER,NONE,GPS_POSITION_NONMATCH,False,Connected,,P,False,False,False,0,0,0.1,0.0,0.1,,,,,
38855735,6.826,,,34.609104,34.590492,,,0,-0.19952042483174726,0.3182299948129135,-0.05486619204101563,0.006551382,0.005643387,-1.0068843,1.0069215,-1.1846946,1.0160381,0.6316083,1.6836758,3.1152804E-4,4.1802478E-4,1.1846346E-4,5.3462887E-4,5.21339064198494E-4,0,0,0,0.0,51.93,-0.05486619204101563,0.3756023058690537,-147.96857926642704,-147.913713074386,359.945133807959,NaN,NaN,0.0,0.0,0.0,-0.0,NaN,NaN,NaN,NaN,NaN,NaN,NaN,NaN,false,false,3.8798507203655888,-7.615168427838938,6.823485509338941,,0.0,,,0.9999945,-0.0017398067,0.0027779061,-4.8363055E-4,0.010706531,0.020646166,-0.02110672,-0.021542039,0.01775842,0.010531246,300,4671,0,0,5291,660,0.0,0.0,0.0,0.0,GPS_Atti,2,0,0,0,0,10,5000,0.0,0.0,17,5,3,2,0,0,,,,,,,1.0000001E-6,0.0,1.0,1.0000001E-6,0.0,1.0000001E-6,1.0000001E-6,0.0,-0.004971996,1.0000001E-6,0.009581566,1.0000001E-6,-0.1,0.020000001,0.0,0.0,0.0,180.0,0.0,0.0,0.0,0,0.9999942,-0.0014774131,0.0028523542,-0.0011438538,0.16892445184480878,-0.3270506338404669,0.13155879958243527,34.7348,-0.09073963,-0.044300567,0,0,2652,GPS_Atti,OTHER,NONE,GPS_POSITION_NONMATCH,False,Connected,,P,False,False,False,0,0,0.1,0.0,0.1,,,,,
39008764,6.860,,,34.609104,34.590492,,,0,-0.19952042483174726,0.3182299948129135,-0.05486619204101563,0.006551382,0.005643387,-1.0068843,1.0069215,-1.1846946,1.0160381,0.6316083,1.6836758,3.1152804E-4,4.1802478E-4,1.1846346E-4,5.3462887E-4,5.21339064198494E-4,0,0,0,0.0,51.93,-0.05486619204101563,0.3756023058690537,-147.96857926642704,-147.913713074386,359.945133807959,NaN,NaN,0.0,0.0,0.0,-0.0,NaN,NaN,NaN,NaN,NaN,NaN,NaN,NaN,false,false,3.8798507203655888,-7.615168427838938,6.823485509338941,,0.0,,,0.9999945,-0.0017398067,0.0027779061,-4.8363055E-4,0.010706531,0.020646166,-0.02110672,-0.021542039,0.01775842,0.010531246,300,4671,0,0,5291,660,0.0,0.0,0.0,0.0,GPS_Atti,2,0,0,0,0,10,5000,0.0,0.0,17,5,3,2,0,0,,,,,,,1.0000001E-6,0.0,1.0,1.0000001E-6,0.0,1.0000001E-6,1.0000001E-6,0.0,-0.004971996,1.0000001E-6,0.009581566,1.0000001E-6,-0.1,0.020000001,0.0,0.0,0.0,180.0,0.0,0.0,0.0,0,0.9999942,-0.0014774131,0.0028523542,-0.0011438538,0.16892445184480878,-0.3270506338404669,0.13155879958243527,34.7348,-0.09073963,-0.044300567,0,0,2652,GPS_Atti,OTHER,NONE,GPS_POSITION_NONMATCH,False,Connected,,P,False,False,False,0,0,0.1,0.0,0.1,,,,,
39169300,6.896,,,34.587967,34.590717,,,0,-0.19703916435628013,0.31535859420183204,-0.05613486018321041,0.0072024353,0.0041458993,-1.0048462,1.0048805,-1.1767045,1.0586962,0.54990625,1.6756694,2.392049E-4,4.4021278E-4,4.3974275E-4,6.666183E-4,5.010052594446431E-4,0,0,0,0.0,51.8,-0.05613486018321041,0.3718519961432382,-148.05874418146203,-148.00260932127884,359.9438651398168,NaN,NaN,0.0,0.0,0.0,-0.0,NaN,NaN,NaN,NaN,NaN,NaN,NaN,NaN,false,false,3.9106574514559824,-7.676739390849292,6.87758198941761,,0.0,,,0.99999464,-0.0017181354,0.0027528573,-4.945985E-4,0.013550773,0.010232583,-0.005177498,-0.021534543,0.017759014,0.010524395,400,4673,0,0,5331,660,0.0,0.0,0.0,0.0,GPS_Atti,2,0,0,0,0,10,5000,0.0,0.0,17,5,3,2,0,0,,,,,,,1.0000001E-6,0.0,1.0,1.0000001E-6,0.0,1.0000001E-6,1.0000001E-6,0.0,0.0054958872,1.0000001E-6,0.009547234,1.0000001E-6,-0.1,0.020000001,0.0,0.0,0.0,180.0,0.0,0.0,0.0,0,0.9999942,-0.0014598675,0.0028367783,-0.0011858412,0.16690227115163542,-0.325270458727728,0.1363618633933695,34.73348,-0.08814196,-0.0280641,0,0,2672,GPS_Atti,OTHER,NONE,GPS_POSITION_NONMATCH,False,Connected,,P,False,False,False,0,0,0.1,0.0,0.1,,,,,
39324347,6.930,,,34.614388,34.590946,,,0,-0.19423746403097247,0.31610978806361717,-0.057531339258088475,0.0066854907,0.0036615764,-1.0031729,1.0032018,-1.0994321,1.0106403,0.5705023,1.59863,3.0787708E-4,2.8677465E-4,6.9415406E-4,8.1171293E-4,4.207469540836791E-4,0,0,0,0.0,51.86,-0.057531339258088475,0.3710149045007794,-148.4885467245918,-148.43101538533372,359.9424686607419,NaN,NaN,0.0,0.0,0.0,-0.0,NaN,NaN,NaN,NaN,NaN,NaN,NaN,NaN,false,false,3.9397736741948037,-7.73588969114482,6.931358141668358,,0.0,,,0.99999464,-0.0016936492,0.0027594215,-5.067289E-4,0.011523876,0.0032715108,0.014364243,-0.021526106,0.017757256,0.010517863,300,4671,0,0,5371,670,0.0,0.0,0.0,0.0,GPS_Atti,2,0,0,0,0,10,5000,0.0,0.0,17,5,3,2,0,0,,,,,,,1.0000001E-6,0.0,1.0,1.0000001E-6,0.0,1.0000001E-6,1.0000001E-6,0.0,0.0054958872,1.0000001E-6,0.009547234,1.0000001E-6,-0.1,0.020000001,0.0,0.0,0.0,180.0,0.0,0.0,0.0,0,0.9999942,-0.0014390062,0.0028450845,-0.0012293635,0.1644964156880596,-0.3262265393321625,0.14134370734965235,34.73407,-0.09040407,-0.008446107,0,0,2692,GPS_Atti,OTHER,NONE,GPS_POSITION_NONMATCH,False,Connected,,P,False,False,False,0,0,0.1,0.0,0.1,,,,,
39704092,7.015,,,34.614388,34.590946,,,0,-0.19423746403097247,0.31610978806361717,-0.057531339258088475,0.0066854907,0.0036615764,-1.0031729,1.0032018,-1.0994321,1.0106403,0.5705023,1.59863,3.0787708E-4,2.8677465E-4,6.9415406E-4,8.1171293E-4,4.207469540836791E-4,0,0,0,0.0,51.86,-0.057531339258088475,0.3710149045007794,-148.4885467245918,-148.43101538533372,359.9424686607419,NaN,NaN,0.0,0.0,0.0,-0.0,NaN,NaN,NaN,NaN,NaN,NaN,NaN,NaN,false,false,3.9397736741948037,-7.73588969114482,6.931358141668358,,0.0,,,0.99999464,-0.0016936492,0.0027594215,-5.067289E-4,0.011523876,0.0032715108,0.014364243,-0.021526106,0.017757256,0.010517863,300,4671,0,0,5371,670,0.0,0.0,0.0,0.0,GPS_Atti,2,0,0,0,0,10,5000,0.0,0.0,17,5,3,2,0,0,,,,,,,1.0000001E-6,0.0,1.0,1.0000001E-6,0.0,1.0000001E-6,1.0000001E-6,0.0,0.0054958872,1.0000001E-6,0.009547234,1.0000001E-6,-0.1,0.020000001,0.0,0.0,0.0,180.0,0.0,0.0,0.0,0,0.9999942,-0.0014390062,0.0028450845,-0.0012293635,0.1644964156880596,-0.3262265393321625,0.14134370734965235,34.73407,-0.09040407,-0.008446107,0,0,2692,GPS_Atti,OTHER,NONE,GPS_POSITION_NONMATCH,False,Connected,,P,False,False,False,0,0,0.1,0.0,0.1,,,,,
39915417,7.062,,,34.611748,34.5917,,,0,-0.1933330154782722,0.31244222525927495,-0.05821272788756971,0.006780086,0.0032940197,-1.0045658,1.0045941,-1.4878951,1.1227785,0.4432722,1.9159733,2.1705238E-4,-1.4611011E-5,8.9900964E-4,9.2495594E-4,2.175436032131371E-4,0,0,0,0.0,52.05,-0.05821272788756971,0.3674184495087217,-148.30997408572696,-148.25176135783937,359.94178727211244,NaN,NaN,0.0,0.0,0.0,-0.0,NaN,NaN,NaN,NaN,NaN,NaN,NaN,NaN,false,false,3.9925678220507237,-7.870629457298804,7.042459801078241,,0.0,,,0.99999475,-0.0016857565,0.0027274222,-5.1259936E-4,0.014550563,-0.0031220932,-0.0014533997,-0.021506304,0.01775103,0.010504933,200,4674,0,0,5451,680,0.0,0.0,0.0,0.0,GPS_Atti,2,0,0,0,0,10,5000,0.0,0.0,17,5,3,2,0,0,,,,,,,1.0000001E-6,0.0,1.0,1.0000001E-6,0.0,1.0000001E-6,1.0000001E-6,0.0,0.0054958872,1.0000001E-6,0.009547234,1.0000001E-6,-0.1,0.020000001,0.0,0.0,0.0,180.0,0.0,0.0,0.0,0,0.9999942,-0.0014322605,0.0028235002,-0.001299433,0.1637037822991355,-0.32376363622012033,0.14936732733136548,34.7375,-0.09264537,-0.02396564,0,0,2732,GPS_Atti,OTHER,NONE,GPS_POSITION_NONMATCH,False,Connected,,P,False,False,False,0,0,0.1,0.0,0.1,,,,,
40106806,7.104,,,34.656666,34.592274,,,0,-0.1941274514942501,0.3106801757913546,-0.056332126113930577,0.0070669483,0.004550641,-1.0047628,1.0047979,-1.4187104,0.9982876,0.538777,1.8164794,2.6525935E-4,3.4560953E-4,8.1411825E-5,4.432114E-4,4.356701443929704E-4,0,0,0,0.0,51.97,-0.056332126113930577,0.3663415915439405,-148.05742348902595,-148.001091362912,359.94366787388606,NaN,NaN,0.0,0.0,0.0,-0.0,NaN,NaN,NaN,NaN,NaN,NaN,NaN,NaN,false,false,4.018153102456829,-7.946355109862651,7.0977198353552815,,0.0,,,0.9999948,-0.0016927416,0.002712021,-4.9618096E-4,0.015481025,0.012162164,-0.003129959,-0.021496963,0.017745849,0.0104992045,300,4673,0,0,5491,680,0.0,0.0,0.0,0.0,GPS_Atti,2,0,0,0,0,10,5000,0.0,0.0,17,5,3,2,0,0,,,,,,,1.0000001E-6,0.0,1.0,1.0000001E-6,0.0,1.0000001E-6,1.0000001E-6,0.0,0.0060559846,1.0000001E-6,0.019348145,1.0000001E-6,-0.1,0.020000001,0.0,0.0,0.0,180.0,0.0,0.0,0.0,0,0.9999942,-0.001432359,0.0028034493,-0.0013160532,0.16371272577162188,-0.3214687266814122,0.15126863402839455,34.739655,-0.0943357,-0.025397165,0,0,2752,GPS_Atti,OTHER,NONE,GPS_POSITION_NONMATCH,False,Connected,,P,False,False,False,0,0,0.1,0.0,0.1,,,,,
40261723,7.138,,,34.598534,34.592976,,,0,-0.19296909755870553,0.31504014568848454,-0.05907890177623226,0.005767823,0.0055924314,-1.0050982,1.0051303,-1.3546615,1.0555838,0.68260854,1.8480583,1.8649577E-4,4.7536485E-4,-4.7980837E-4,7.006914E-4,5.106392221670725E-4,0,0,0,0.0,52.08,-0.05907890177623226,0.36943993418240484,-148.57084337266275,-148.51176447088653,359.9409210982238,NaN,NaN,0.0,0.0,0.0,-0.0,NaN,NaN,NaN,NaN,NaN,NaN,NaN,NaN,false,false,4.049950504957813,-8.018556734266014,7.151190074855794,,0.0,,,0.9999947,-0.0016825483,0.0027501043,-5.201876E-4,0.0026987102,0.021409977,-0.006914139,-0.021488167,0.01774016,0.010493865,200,4676,0,0,5531,690,0.0,0.0,0.0,0.0,GPS_Atti,2,0,0,0,0,10,5000,0.0,0.0,17,5,3,2,0,0,,,,,,,1.0000001E-6,0.0,1.0,1.0000001E-6,0.0,1.0000001E-6,1.0000001E-6,0.0,0.0060559846,1.0000001E-6,0.019348145,1.0000001E-6,-0.1,0.020000001,0.0,0.0,0.0,180.0,0.0,0.0,0.0,0,0.9999941,-0.0014256221,0.0028338884,-0.0013726082,0.16291775590329025,-0.3249649700624963,0.15775213715141098,34.74128,-0.09305216,-0.028904965,0,0,2772,GPS_Atti,OTHER,NONE,GPS_POSITION_NONMATCH,False,Connected,,P,False,False,False,0,0,0.1,0.0,0.1,,,,,
40415317,7.173,,,34.598534,34.592976,,,0,-0.19296909755870553,0.31504014568848454,-0.05907890177623226,0.005767823,0.0055924314,-1.0050982,1.0051303,-1.3546615,1.0555838,0.68260854,1.8480583,1.8649577E-4,4.7536485E-4,-4.7980837E-4,7.006914E-4,5.106392221670725E-4,0,0,0,0.0,52.08,-0.05907890177623226,0.36943993418240484,-148.57084337266275,-148.51176447088653,359.9409210982238,NaN,NaN,0.0,0.0,0.0,-0.0,NaN,NaN,NaN,NaN,NaN,NaN,NaN,NaN,false,false,4.049950504957813,-8.018556734266014,7.151190074855794,,0.0,,,0.9999947,-0.0016825483,0.0027501043,-5.201876E-4,0.0026987102,0.021409977,-0.006914139,-0.021488167,0.01774016,0.010493865,200,4676,0,0,5531,690,0.0,0.0,0.0,0.0,GPS_Atti,2,0,0,0,0,10,5000,0.0,0.0,17,5,3,2,0,0,,,,,,,1.0000001E-6,0.0,1.0,1.0000001E-6,0.0,1.0000001E-6,1.0000001E-6,0.0,0.0060559846,1.0000001E-6,0.019348145,1.0000001E-6,-0.1,0.020000001,0.0,0.0,0.0,180.0,0.0,0.0,0.0,0,0.9999941,-0.0014256221,0.0028338884,-0.0013726082,0.16291775590329025,-0.3249649700624963,0.15775213715141098,34.74128,-0.09305216,-0.028904965,0,0,2772,GPS_Atti,OTHER,NONE,GPS_POSITION_NONMATCH,False,Connected,,P,False,False,False,0,0,0.1,0.0,0.1,,,,,
40575569,7.208,,,34.622314,34.59366,,,0,-0.19211659036257364,0.31458225136545104,-0.05807683309229854,0.005683494,0.004555197,-1.0038618,1.0038882,-1.2380847,1.166961,0.6424053,1.8186082,2.384028E-4,4.968162E-4,-7.621818E-4,9.4052294E-4,5.510555368697269E-4,0,0,0,0.0,52.02,-0.05807683309229854,0.36860452205905986,-148.64566460195365,-148.58758776886137,359.9419231669077,NaN,NaN,0.0,0.0,0.0,-0.0,NaN,NaN,NaN,NaN,NaN,NaN,NaN,NaN,false,false,4.084503248673535,-8.08616847667966,7.2091479765424715,,0.0,,,0.9999947,-0.0016751349,0.00274609,-5.114158E-4,-0.0010948125,0.01590783,0.0060777664,-0.02147919,0.017735321,0.010487614,400,4677,0,0,5571,690,0.0,0.0,0.0,0.0,GPS_Atti,2,0,0,0,0,10,5000,0.0,0.0,17,5,3,2,0,0,,,,,,,1.0000001E-6,0.0,1.0,1.0000001E-6,0.0,1.0000001E-6,1.0000001E-6,0.0,0.01612376,1.0000001E-6,-0.0100317,1.0000001E-6,-0.1,0.020000001,0.0,0.0,0.0,180.0,0.0,0.0,0.0,0,0.99999404,-0.0014177745,0.0028285857,-0.0013968252,0.16201147240047895,-0.3243600489168993,0.160523806545671,34.740692,-0.08909724,-0.015504491,0,0,2792,GPS_Atti,OTHER,NONE,GPS_POSITION_NONMATCH,False,Connected,,P,False,False,False,0,0,0.1,0.0,0.1,,,,,
40730699,7.243,,,34.577396,34.594223,,,0,-0.19383168035193496,0.3210837219938029,-0.05958844144004494,0.006401836,0.0057001407,-1.0035727,1.0036093,-1.2404625,1.0073313,0.47096226,1.6659138,1.6458996E-4,4.0659352E-4,-8.4320985E-5,4.466746E-4,4.3864353595325195E-4,0,0,0,0.0,52.05,-0.05958844144004494,0.37505186799407986,-148.94123503846322,-148.88164659702318,359.94041155855996,NaN,NaN,0.0,0.0,0.0,-0.0,NaN,NaN,NaN,NaN,NaN,NaN,NaN,NaN,false,false,4.113489054317874,-8.150695855176679,7.265754272082763,,0.0,,,0.9999945,-0.0016900358,0.0028028556,-5.24744E-4,0.008064071,0.021027338,0.0052700043,-0.021471012,0.017730169,0.010481211,300,4680,0,0,5611,700,0.0,0.0,0.0,0.0,GPS_Atti,2,0,0,0,0,10,5000,0.0,0.0,17,5,3,2,0,0,,,,,,,1.0000001E-6,0.0,1.0,1.0000001E-6,0.0,1.0000001E-6,1.0000001E-6,0.0,0.01612376,1.0000001E-6,-0.0100317,1.0000001E-6,-0.1,0.020000001,0.0,0.0,0.0,180.0,0.0,0.0,0.0,0,0.99999386,-0.0014247274,0.002880503,-0.0014440726,0.16278426507696714,-0.3303181344786254,0.16594864548012145,34.741646,-0.09003652,-0.016334368,0,0,2812,GPS_Atti,OTHER,NONE,GPS_POSITION_NONMATCH,False,Connected,,P,False,False,False,0,0,0.1,0.0,0.1,,,,,
40953467,7.292,,,34.590607,34.594814,,,0,-0.19157897687900555,0.3218292673555471,-0.05812837144212876,0.0065291626,0.0036378365,-1.0056208,1.0056486,-1.091191,1.1447581,0.61526513,1.6969739,4.2501086E-4,3.7653925E-4,-6.216696E-5,5.7120994E-4,5.678169091430438E-4,0,0,0,0.0,52.19,-0.05812837144212876,0.3745330930179237,-149.29374779901053,-149.23561942756842,359.94187162855786,NaN,NaN,0.0,0.0,0.0,-0.0,NaN,NaN,NaN,NaN,NaN,NaN,NaN,NaN,false,false,4.1417915918154975,-8.211448984844907,7.321828709584242,,0.0,,,0.9999946,-0.0016704098,0.0028093301,-5.119583E-4,0.009476498,0.0023904573,-0.010538101,-0.021463532,0.017725276,0.010475592,400,4680,0,0,5651,700,0.0,0.0,0.0,0.0,GPS_Atti,2,0,0,0,0,10,5000,0.0,0.0,17,5,3,2,0,0,,,,,,,1.0000001E-6,0.0,1.0,1.0000001E-6,0.0,1.0000001E-6,1.0000001E-6,0.0,0.01612376,1.0000001E-6,-0.0100317,1.0000001E-6,-0.1,0.020000001,0.0,0.0,0.0,180.0,0.0,0.0,0.0,0,0.99999386,-0.0014247274,0.002880503,-0.0014440726,0.16278426507696714,-0.3303181344786254,0.16594864548012145,34.741646,-0.09003652,-0.016334368,0,0,2812,GPS_Atti,OTHER,NONE,GPS_POSITION_NONMATCH,False,Connected,,P,False,False,False,0,0,0.1,0.0,0.1,,,,,
41111104,7.327,,,34.590607,34.594814,,,0,-0.19157897687900555,0.3218292673555471,-0.05812837144212876,0.0065291626,0.0036378365,-1.0056208,1.0056486,-1.091191,1.1447581,0.61526513,1.6969739,4.2501086E-4,3.7653925E-4,-6.216696E-5,5.7120994E-4,5.678169091430438E-4,0,0,0,0.0,52.19,-0.05812837144212876,0.3745330930179237,-149.29374779901053,-149.23561942756842,359.94187162855786,NaN,NaN,0.0,0.0,0.0,-0.0,NaN,NaN,NaN,NaN,NaN,NaN,NaN,NaN,false,false,4.1417915918154975,-8.211448984844907,7.321828709584242,,0.0,,,0.9999946,-0.0016704098,0.0028093301,-5.119583E-4,0.009476498,0.0023904573,-0.010538101,-0.021463532,0.017725276,0.010475592,400,4680,0,0,5651,700,0.0,0.0,0.0,0.0,GPS_Atti,2,0,0,0,0,10,5000,0.0,0.0,17,5,3,2,0,0,,,,,,,1.0000001E-6,0.0,1.0,1.0000001E-6,0.0,1.0000001E-6,1.0000001E-6,0.0,-0.0035245232,1.0000001E-6,-0.019818306,1.0000001E-6,-0.1,0.020000001,0.0,0.0,0.0,180.0,0.0,0.0,0.0,0,0.9999938,-0.0014116366,0.0028935722,-0.0014652583,0.16127498085700054,-0.3318170107310808,0.16837413240828436,34.740192,-0.08543437,-0.031686973,0,0,2832,GPS_Atti,OTHER,NONE,GPS_POSITION_NONMATCH,False,Connected,,P,False,False,False,0,0,0.1,0.0,0.1,,,,,
