Clock:Tick#;Clock:offsetTime;IMU_ATTI(0):Longitude;IMU_ATTI(0):Latitude;IMU_ATTI(0):press:D;IMU_ATTI(0):alti:D;IMU_ATTI(0):relativeHeight:C;IMU_ATTI(0):absoluteHeight:C;IMU_ATTI(0):numSats;IMU_ATTI(0):roll:C;IMU_ATTI(0):pitch:C;IMU_ATTI(0):yaw:C;IMU_ATTI(0):accelX;IMU_ATTI(0):accelY;IMU_ATTI(0):accelZ;IMU_ATTI(0):accelComposite:C;IMU_ATTI(0):gyroX;IMU_ATTI(0):gyroY;IMU_ATTI(0):gyroZ;IMU_ATTI(0):gyroComposite:C;IMU_ATTI(0):velN;IMU_ATTI(0):velE;IMU_ATTI(0):velD;IMU_ATTI(0):velComposite:C;IMU_ATTI(0):velH:C;IMU_ATTI(0):magX;IMU_ATTI(0):magY;IMU_ATTI(0):magZ;IMU_ATTI(0):magMod:C;IMU_ATTI(0):temperature;IMU_ATTI(0):yawUnWrapped:C;IMU_ATTI(0):tiltInclination:C;IMU_ATTI(0):tiltDirectionEarthFrame:C;IMU_ATTI(0):tiltDirectionBodyFrame:C;IMU_ATTI(0):yaw360:C;IMU_ATTI(0):magYaw:C;IMU_ATTI(0):Yaw-magYaw:C;IMUCalcs(0):PosN:C;IMUCalcs(0):PosE:C;IMUCalcs(0):PosD:C;IMUCalcs(0):height:C;IMUCalcs(0):velN:C;IMUCalcs(0):velE:C;IMUCalcs(0):velD:C;IMUCalcs(0):diffVelN:C;IMUCalcs(0):diffVelE:C;IMUCalcs(0):diffVelD:C;IMUCalcs(0):Lat:C;IMUCalcs(0):Long:C;IMUCalcs(0):VelocityError:C;IMUCalcs(0):PositionError:C;IMUCalcs(0):totalGyroZ:C;IMUCalcs(0):totalGyroX:C;IMUCalcs(0):totalGyroY:C;IMU_ATTI(0):distanceHP:C;IMU_ATTI(0):distanceTravelled:C;IMU_ATTI(0):directionOfTravel[mag]:C;IMU_ATTI(0):directionOfTravel[true]:C;IMU_ATTI(0):quatW:D;IMU_ATTI(0):quatX:D;IMU_ATTI(0):quatY:D;IMU_ATTI(0):quatZ:D;IMU_ATTI(0):agX:D;IMU_ATTI(0):agY:D;IMU_ATTI(0):agZ:D;IMU_ATTI(0):gbX:D;IMU_ATTI(0):gbY:D;IMU_ATTI(0):gbZ:D;IMU_ATTI(0):ty:D;IMU_ATTI(0):tz:D;IMU_ATTI(0):sensor_stat:D;IMU_ATTI(0):filter_stat:D;IMU_ATTI(0):atti_cnt:D;Controller:ctrl_tick:D;Controller:ctrl_pitch:D;Controller:ctrl_roll:D;Controller:ctrl_yaw:D;Controller:ctrl_thr:D;Controller:ctrl_mode;Controller:mode_switch:D;Controller:motor_state:D;Controller:sig_level:D;Controller:ctrl_level:D;Controller:sim_model:D;Controller:max_height:D;Controller:max_radius:D;Controller:D2H_x:D;Controller:D2H_y:D;Controller:act_req_id:D;Controller:act_act_id:D;Controller:cmd_mod:D;Controller:mod_req_id:D;Controller:is_soaring_up:D;Controller:eagle_temp_level:D;MVO:velX;MVO:velY;MVO:velZ;MVO:posX;MVO:posY;MVO:posZ;MVO:hoverPointUncertainty1;MVO:hoverPointUncertainty2;MVO:hoverPointUncertainty3;MVO:hoverPointUncertainty4;MVO:hoverPointUncertainty5;MVO:hoverPointUncertainty6;MVO:velocityUncertainty1;MVO:velocityUncertainty2;MVO:velocityUncertainty3;MVO:velocityUncertainty4;MVO:velocityUncertainty5;MVO:velocityUncertainty6;MVO:height;MVO:heightUncertainty;AirSpeed:comp_alti:D;AirSpeed:windSpeed;AirSpeed:windDirection;AirSpeed:windFromDir;AirSpeed:windN;AirSpeed:windE;AirSpeed:MotorSpd:D;AirSpeed:vel_level:D;ATTI_MINI0:s_qw0;ATTI_MINI0:s_qx0;ATTI_MINI0:s_qy0;ATTI_MINI0:s_qz0;ATTI_MINI0:roll:C;ATTI_MINI0:pitch:C;ATTI_MINI0:yaw:C;ATTI_MINI0:s_pgz0;ATTI_MINI0:s_vgz0;ATTI_MINI0:s_agz0;ATTI_MINI0:s_rsv00;ATTI_MINI0:s_rsv10;ATTI_MINI0:s_cnt0;osd_data:flyCState;osd_data:flycCommand;osd_data:flightAction;osd_data:nonGPSCause;osd_data:compassError;osd_data:connectedToRC;osd_data:lowVoltage;osd_data:ModeSwitch;osd_data:gpsUsed;osd_data:visionUsed;osd_data:notEnoughForce;osd_data:flightTime;osd_data:navHealth;osd_data:vpsHeight;osd_data:relativeHeight;usonic:usonic_h;MotorCtrl:PWM:RFront;MotorCtrl:PWM:LFront;MotorCtrl:PWM:LBack;MotorCtrl:PWM:RBack;Attribute|Value;ConvertDatV3;4.3.0
0;-1.809;;;;;;;;;;;;;;;;;;;;;;;;;;;;;;;;;;;;;;;;;;;;;;;;;;;;;;;;;;;;;;;;;;;;;;;;;;;;;;;;;;;;;;;;;;;;;;;;;;;;;;;;;;;;;;;;;;;;;;;;;;;;;;;;;;;;;;;;;;;;;;;;;;;;;;;;;;;;
8138474;.000;;;34.585.323;-0.0;;;0;NaN;0.0;0.0;-0.0075736986;0.01423629;-10.077.742;10.079.032;12.087.753;14.863.104;1.018.973;2.169.922;0.0;0.0;0.0;0.0;0.0;0;0;0;0.0;47.98;0.0;NaN;NaN;NaN;0.0;NaN;NaN;0.0;0.0;0.0;-0.0;NaN;NaN;NaN;NaN;NaN;NaN;NaN;NaN;FALSE;FALSE;0.0;0.0;0.0;;0.0;;;0.0;0.0;0.0;0.0;0.0;0.0;0.0;0.0;0.0;0.0;100;4615;0;0;39;;;;;;;;;;;;;;;;;;;;;;;;;;;;;;;;;;;;;;;;0.0;;;;;;;;;;;;;;;;;;;;;;;;;;;;;;P;;;;;;;;;;;;;Firmware Date| May  7 2019;;
8342641;.045;;;34.585.323;-0.0;;;0;NaN;0.0;0.0;-0.0075736986;0.01423629;-10.077.742;10.079.032;12.087.753;14.863.104;1.018.973;2.169.922;0.0;0.0;0.0;0.0;0.0;0;0;0;0.0;47.98;0.0;NaN;NaN;NaN;0.0;NaN;NaN;0.0;0.0;0.0;-0.0;NaN;NaN;NaN;NaN;NaN;NaN;NaN;NaN;FALSE;FALSE;0.0;0.0;0.0;;0.0;;;0.0;0.0;0.0;0.0;0.0;0.0;0.0;0.0;0.0;0.0;100;4615;0;0;39;10;0.0;0.0;0.0;0.0;Manual;0;0;0;0;0;500;5000;0.0;0.0;17;5;26;17;0;0;;;;;;;;;;;;;;;;;;;0.0;;;;;;;;;;0.0;0.0;0.0;0.0;NaN;NaN;NaN;-0.0;0.0;0.0;0;0;20;;;;;;;;P;;;;;;;;;;;;;ACType|Tello;;
8607227;.104;;;3.456.947;-0.0;;;0;NaN;0.0;0.0;0.00540034;0.0043877726;-10.089.093;10.089.333;-12.318.025;0.95281404;0.65659475;16.900.617;0.0;0.0;0.0;0.0;0.0;0;0;0;0.0;48.13;0.0;NaN;NaN;NaN;0.0;NaN;NaN;0.0;0.0;0.0;-0.0;NaN;NaN;NaN;NaN;NaN;NaN;NaN;NaN;FALSE;FALSE;0.01709875647279091;-0.03207806678588554;0.024812771038309478;;0.0;;;0.0;0.0;0.0;0.0;0.0;0.0;0.0;0.0;0.0;0.0;100;4623;0;0;119;10;0.0;0.0;0.0;0.0;Manual;0;0;0;0;0;500;5000;0.0;0.0;17;5;26;17;0;0;;;;;;;;;;;;;;;;;;;0.0;;;;;;;;;;0.0;0.0;0.0;0.0;NaN;NaN;NaN;-0.0;0.0;0.0;0;0;40;;;;;;;;P;;;;;;;;;;;;;;;
8811395;.150;;;3.456.947;-0.0;;;0;NaN;0.0;0.0;0.00540034;0.0043877726;-10.089.093;10.089.333;-12.318.025;0.95281404;0.65659475;16.900.617;0.0;0.0;0.0;0.0;0.0;0;0;0;0.0;48.13;0.0;NaN;NaN;NaN;0.0;NaN;NaN;0.0;0.0;0.0;-0.0;NaN;NaN;NaN;NaN;NaN;NaN;NaN;NaN;FALSE;FALSE;0.01709875647279091;-0.03207806678588554;0.024812771038309478;;0.0;;;0.0;0.0;0.0;0.0;0.0;0.0;0.0;0.0;0.0;0.0;100;4623;0;0;119;20;0.0;0.0;0.0;0.0;Manual;0;0;0;0;0;500;5000;0.0;0.0;17;5;26;17;0;0;;;;;;;;;;;;;;;;;;;0.0;;;;;;;;;;0.0;0.0;0.0;0.0;NaN;NaN;NaN;-0.0;0.0;0.0;0;0;60;;;;;;;;P;;;;;;;;;;;;;;;
9076001;.208;;;34.566.826;-0.0;;;0;NaN;0.0;0.0;0.0057595707;0.0047056237;-1.006.413;10.064.405;-1.227.115;10.088.207;0.7045645;17.377.979;0.0;0.0;0.0;0.0;0.0;0;0;0;0.0;48.06;0.0;NaN;NaN;NaN;0.0;NaN;NaN;0.0;0.0;0.0;-0.0;NaN;NaN;NaN;NaN;NaN;NaN;NaN;NaN;FALSE;FALSE;0.08235945933230937;-0.15819552902848955;0.1321998231586612;;0.0;;;0.0;0.0;0.0;0.0;0.0;0.0;0.0;0.0;0.0;0.0;100;4622;0;0;199;20;0.0;0.0;0.0;0.0;Manual;0;0;0;0;0;500;5000;0.0;0.0;17;5;26;17;0;0;;;;;;;;;;;;;;;;;;;0.0;;0.0;0.0;0.0;180.0;0.0;0.0;0.0;0;0.0;0.0;0.0;0.0;NaN;NaN;NaN;-0.0;0.0;0.0;0;0;80;;;;;;;;P;;;;;;;;;;;;;;;
9234631;.244;;;34.566.826;-0.0;;;0;NaN;0.0;0.0;0.0057595707;0.0047056237;-1.006.413;10.064.405;-1.227.115;10.088.207;0.7045645;17.377.979;0.0;0.0;0.0;0.0;0.0;0;0;0;0.0;48.06;0.0;NaN;NaN;NaN;0.0;NaN;NaN;0.0;0.0;0.0;-0.0;NaN;NaN;NaN;NaN;NaN;NaN;NaN;NaN;FALSE;FALSE;0.08235945933230937;-0.15819552902848955;0.1321998231586612;;0.0;;;0.0;0.0;0.0;0.0;0.0;0.0;0.0;0.0;0.0;0.0;100;4622;0;0;199;20;0.0;0.0;0.0;0.0;Manual;0;0;0;0;0;500;5000;0.0;0.0;17;5;26;17;0;0;;;;;;;;;;;;;;;;;;;0.0;;0.0;0.0;0.0;180.0;0.0;0.0;0.0;0;0.0;0.0;0.0;0.0;NaN;NaN;NaN;-0.0;0.0;0.0;0;0;100;Manual;OTHER;NONE;GPS_POSITION_NONMATCH;FALSE;Connected;;P;FALSE;FALSE;TRUE;0;0;;0.0;;;;;;;;
9748913;.358;;;34.585.323;-0.0;;;0;NaN;0.0;0.0;0.0053297365;0.005535989;-10.097.812;10.098.104;-11.455.934;10.314.568;0.64972043;1.672.849;0.0;0.0;0.0;0.0;0.0;0;0;0;0.0;48.12;0.0;NaN;NaN;NaN;0.0;NaN;NaN;0.0;0.0;0.0;-0.0;NaN;NaN;NaN;NaN;NaN;NaN;NaN;NaN;FALSE;FALSE;0.1176254666762162;-0.21998160569492597;0.1853292927347674;;0.0;;;0.0;0.0;0.0;0.0;0.0;0.0;0.0;0.0;0.0;0.0;100;4622;0;0;239;30;0.0;0.0;0.0;0.0;Manual;0;0;0;0;0;500;5000;0.0;0.0;17;5;26;17;0;0;;;;;;;;;;;;;;;;;;;0.0;;0.0;0.0;0.0;180.0;0.0;0.0;0.0;0;0.0;0.0;0.0;0.0;NaN;NaN;NaN;-0.0;0.0;0.0;0;0;100;Manual;OTHER;NONE;GPS_POSITION_NONMATCH;FALSE;Connected;;P;FALSE;FALSE;TRUE;0;0;;0.0;;;;;;;;
31836660;5.266;;;34.585.323;-0.0;;;0;NaN;0.0;0.0;0.0053297365;0.005535989;-10.097.812;10.098.104;-11.455.934;10.314.568;0.64972043;1.672.849;0.0;0.0;0.0;0.0;0.0;0;0;0;0.0;48.12;0.0;NaN;NaN;NaN;0.0;NaN;NaN;0.0;0.0;0.0;-0.0;NaN;NaN;NaN;NaN;NaN;NaN;NaN;NaN;FALSE;FALSE;0.1176254666762162;-0.21998160569492597;0.1853292927347674;;0.0;;;0.0;0.0;0.0;0.0;0.0;0.0;0.0;0.0;0.0;0.0;100;4622;0;0;239;30;0.0;0.0;0.0;0.0;Manual;0;0;0;0;0;500;5000;0.0;0.0;17;5;26;17;0;0;;;;;;;;;;;;;;;;;;;0.0;;0.0;0.0;0.0;180.0;0.0;0.0;0.0;0;0.0;0.0;0.0;0.0;NaN;NaN;NaN;-0.0;0.0;0.0;0;0;100;Manual;OTHER;NONE;GPS_POSITION_NONMATCH;FALSE;Connected;;P;FALSE;FALSE;TRUE;0;0;;0.0;;;;;;;;
32046996;5.313;;;3.456.947;3.458.886;;;0;-0.23790027373758707;0.3116203725035199;-0.04189917414645055;0.0053889025;0.004156591;-10.081.013;10.081.244;-1.076.895;0.9773721;0.49127522;15.350.279;2,42E+03;-4,32E+02;7,91E+02;8,28E+02;2,46E+12;0;0;0;0.0;50.84;-0.04189917414645055;0.3920479111590995;-14.268.282.054.226.800;-14.264.092.136.812.200;35.995.810.082.585.300;NaN;NaN;0.0;0.0;0.0;-0.0;NaN;NaN;NaN;NaN;NaN;NaN;NaN;NaN;FALSE;FALSE;30.001.142.948.465.000;-5.834.637.529.211.610;5.260.218.898.126.860;;0.0;;;0.9999941;-0.002075068;0.0027201504;-3,71E+03;-0.003602352;0.0028845519;-0.032693863;-0.021786382;0.017862996;0.010697613;200;4645;0;0;4131;30;0.0;0.0;0.0;0.0;Manual;0;0;0;0;0;500;5000;0.0;0.0;17;5;26;17;0;0;;;;;;;;;;;;;;;;;;;0.0;;0.0;0.0;0.0;180.0;0.0;0.0;0.0;0;0.0;0.0;0.0;0.0;NaN;NaN;NaN;-0.0;0.0;0.0;0;0;100;Manual;OTHER;NONE;GPS_POSITION_NONMATCH;FALSE;Connected;;P;FALSE;FALSE;TRUE;0;0;;0.0;;;;;;;;
32248971;5.358;;;3.456.947;3.458.886;;;0;-0.23790027373758707;0.3116203725035199;-0.04189917414645055;0.0053889025;0.004156591;-10.081.013;10.081.244;-1.076.895;0.9773721;0.49127522;15.350.279;2,42E+03;-4,32E+02;7,91E+02;8,28E+02;2,46E+12;0;0;0;0.0;50.84;-0.04189917414645055;0.3920479111590995;-14.268.282.054.226.800;-14.264.092.136.812.200;35.995.810.082.585.300;NaN;NaN;0.0;0.0;0.0;-0.0;NaN;NaN;NaN;NaN;NaN;NaN;NaN;NaN;FALSE;FALSE;30.001.142.948.465.000;-5.834.637.529.211.610;5.260.218.898.126.860;;0.0;;;0.9999941;-0.002075068;0.0027201504;-3,71E+03;-0.003602352;0.0028845519;-0.032693863;-0.021786382;0.017862996;0.010697613;200;4645;0;0;4131;520;0.0;0.0;0.0;0.0;GPS_Atti;2;0;0;0;0;10;5000;0.0;0.0;17;5;3;2;0;0;;;;;;;1,00E+01;0.0;8.527.817;1,00E+01;0.0;1,00E+01;1,00E+01;0.0;-0.011246955;1,00E+01;0.029240608;1,00E+01;-0.1;0.020000001;0.0;0.0;0.0;180.0;0.0;0.0;0.0;0;0.99999446;-0.0019523173;0.0026887332;-3,38E+02;0.22361428421197768;-0.3081838049010607;0.03932330656160969;34.749.073;-0.11021873;-0.06623863;0;0;2072;Manual;OTHER;NONE;GPS_POSITION_NONMATCH;FALSE;Connected;;P;FALSE;FALSE;TRUE;0;0;;0.0;0.1;;;;;;;
32415510;5.395;;;345.589;34.588.783;;;0;-0.23480354117206495;0.3142214733147235;-0.041227444035929366;0.0060807867;0.0033271152;-10.023.676;10.023.916;-11.748.066;11.745.784;0.58094126;17.599.142;2,36E+02;-2,52E+03;4,37E+03;5,57E+01;3,45E+11;0;0;0;0.0;51.06;-0.041227444035929366;0.3922570921751751;-14.327.224.438.405.500;-1.432.310.169.400.190;35.995.877.255.596.400;NaN;NaN;0.0;0.0;0.0;-0.0;NaN;NaN;NaN;NaN;NaN;NaN;NaN;NaN;FALSE;FALSE;3.028.048.699.158.050;-5.893.301.002.321.120;5.316.283.561.800.910;;0.0;;;0.9999941;-0.0020480517;0.0027428274;-3,65E+03;0.0058855414;-0.0066142837;0.027311325;-0.02177797;0.017858129;0.0106917145;300;4645;0;0;4171;520;0.0;0.0;0.0;0.0;GPS_Atti;2;0;0;0;0;10;5000;0.0;0.0;17;5;3;2;0;0;;;;;;;1,00E+01;0.0;8.527.817;1,00E+01;0.0;1,00E+01;1,00E+01;0.0;-0.011246955;1,00E+01;0.029240608;1,00E+01;-0.1;0.020000001;0.0;0.0;0.0;180.0;0.0;0.0;0.0;0;0.99999446;-0.0019112497;0.002712526;-3,52E+03;0.21890290686943917;-0.31091175625237655;0.040956919483283824;34.749.264;-0.11226203;-0.006036043;0;0;2092;Manual;OTHER;NONE;GPS_POSITION_NONMATCH;FALSE;Connected;;P;FALSE;FALSE;TRUE;0;0;;0.0;0.1;;;;;;;
32911068;5.505;;;3.454.569;34.588.627;;;0;-0.23195083970647337;0.31070518713103695;-0.041763769771578384;0.0063146064;0.0043771276;-10.037.733;10.038.027;-11.095.941;0.92153555;0.6225052;15.709.677;2,00E+03;-1,29E+02;0.0018809298;0.0018959405;2,38E+12;0;0;0;0.0;51.07;-0.041763769771578384;0.38773289244469683;-14.329.942.844.753.400;-14.325.766.467.776.200;3.599.582.362.302.280;NaN;NaN;0.0;0.0;0.0;-0.0;NaN;NaN;NaN;NaN;NaN;NaN;NaN;NaN;FALSE;FALSE;3.059.427.854.632.380;-5.952.865.401.640.130;5.370.938.496.037.590;;0.0;;;0.9999942;-0.0020231558;0.002712143;-3,70E+03;0.008764947;0.0030806474;0.011216164;-0.02176929;0.017854031;0.010687296;400;4648;0;0;4211;520;0.0;0.0;0.0;0.0;GPS_Atti;2;0;0;0;0;10;5000;0.0;0.0;17;5;3;2;0;0;;;;;;;1,00E+01;0.0;8.527.817;1,00E+01;0.0;1,00E+01;1,00E+01;0.0;-0.01999901;1,00E+01;0.019425392;1,00E+01;-0.1;0.020000001;0.0;0.0;0.0;180.0;0.0;0.0;0.0;0;0.9999946;-0.00187618;0.0026829368;-3,77E+03;0.21487784225594592;-0.3075249129448403;0.04376742086086544;3.474.749;-0.10750988;-0.021676756;0;0;2112;Manual;OTHER;NONE;GPS_POSITION_NONMATCH;FALSE;Connected;;P;FALSE;FALSE;TRUE;0;0;;0.0;0.1;;;;;;;
33075499;5.542;;;34.561.543;34.588.337;;;0;-0.2319454725009563;0.30942344427380447;-0.0455467742016079;0.0056975614;0.004312311;-10.045.053;10.045.307;-13.351.024;10.063.204;0.6013836;17.767.502;3,08E+03;1,62E+03;0.0016444636;0.001680853;3,48E+12;0;0;0;0.0;51.1;-0.0455467742016079;0.38670334634928444;-14.319.024.013.662.100;-14.314.469.336.241.900;3.599.544.532.257.980;NaN;NaN;0.0;0.0;0.0;-0.0;NaN;NaN;NaN;NaN;NaN;NaN;NaN;NaN;FALSE;FALSE;312.309.493.182.466;-6.080.039.277.112.230;5.471.226.160.665.760;;0.0;;;0.9999943;-0.002023024;0.0027010243;-4,03E+03;0.002786735;0.0025040042;0.0034914017;-0.02174864;0.017845752;0.010677563;200;4648;0;0;4291;520;0.0;0.0;0.0;0.0;GPS_Atti;2;0;0;0;0;10;5000;0.0;0.0;17;5;3;2;0;0;;;;;;;1,00E+01;0.0;8.527.817;1,00E+01;0.0;1,00E+01;1,00E+01;0.0;-3,99E+03;1,00E+01;0.01934719;1,00E+01;-0.1;0.020000001;0.0;0.0;0.0;180.0;0.0;0.0;0.0;0;0.99999464;-0.0018539064;0.0026881155;-4,51E+03;0.21230256131223507;-0.30813292037684664;0.052199959298878586;34.747.784;-0.110785976;-0.02881355;0;0;2152;Manual;OTHER;NONE;GPS_POSITION_NONMATCH;FALSE;Connected;;P;FALSE;FALSE;TRUE;0;0;;0.0;0.1;;;;;;;
33231191;5.576;;;34.572.113;34.588.337;;;0;-0.22995645709190987;0.3065748920745664;-0.04696749666929852;0.008120889;0.0035713117;-10.015.496;10.015.888;-11.839.868;0.95219857;0.56817204;16.221.364;6,41E+03;7,23E+01;0.0015767808;0.0017034642;6,45E+11;0;0;0;0.0;51.06;-0.04696749666929852;0.383231154810216;-14.317.416.007.921.400;-14.312.719.258.254.500;3.599.530.325.033.300;NaN;NaN;0.0;0.0;0.0;-0.0;NaN;NaN;NaN;NaN;NaN;NaN;NaN;NaN;FALSE;FALSE;3.153.537.982.490.440;-6.145.610.128.651.860;5.522.205.598.938.280;;0.0;;;0.99999434;-0.0020056434;0.0026761843;-4,15E+02;0.027559482;-0.0037043244;0.034766197;-0.021738699;0.017841324;0.010672583;200;4648;0;0;4331;540;0.0;0.0;0.0;0.0;GPS_Atti;2;0;0;0;0;10;5000;0.0;0.0;17;5;3;2;0;0;;;;;;;1,00E+01;0.0;8.527.817;1,00E+01;0.0;1,00E+01;1,00E+01;0.0;-3,99E+03;1,00E+01;0.01934719;1,00E+01;-0.1;0.020000001;0.0;0.0;0.0;180.0;0.0;0.0;0.0;0;0.99999464;-0.0018351314;0.0026769417;-4,83E+02;0.21014169160089335;-0.30685838975421387;0.055930533800896236;3.474.852;-0.11152162;0.002781704;0;0;2172;Manual;OTHER;NONE;GPS_POSITION_NONMATCH;FALSE;Connected;;P;FALSE;FALSE;TRUE;0;0;;0.0;0.1;;;;;;;
33383554;5.610;;;34.572.113;34.588.337;;;0;-0.22995645709190987;0.3065748920745664;-0.04696749666929852;0.008120889;0.0035713117;-10.015.496;10.015.888;-11.839.868;0.95219857;0.56817204;16.221.364;6,41E+03;7,23E+01;0.0015767808;0.0017034642;6,45E+11;0;0;0;0.0;51.06;-0.04696749666929852;0.383231154810216;-14.317.416.007.921.400;-14.312.719.258.254.500;3.599.530.325.033.300;NaN;NaN;0.0;0.0;0.0;-0.0;NaN;NaN;NaN;NaN;NaN;NaN;NaN;NaN;FALSE;FALSE;3.153.537.982.490.440;-6.145.610.128.651.860;5.522.205.598.938.280;;0.0;;;0.99999434;-0.0020056434;0.0026761843;-4,15E+02;0.027559482;-0.0037043244;0.034766197;-0.021738699;0.017841324;0.010672583;200;4648;0;0;4331;540;0.0;0.0;0.0;0.0;GPS_Atti;2;0;0;0;0;10;5000;0.0;0.0;17;5;3;2;0;0;;;;;;;1,00E+01;0.0;8.527.817;1,00E+01;0.0;1,00E+01;1,00E+01;0.0;-3,99E+03;1,00E+01;0.01934719;1,00E+01;-0.1;0.020000001;0.0;0.0;0.0;180.0;0.0;0.0;0.0;0;0.99999464;-0.0018351314;0.0026769417;-4,83E+02;0.21014169160089335;-0.30685838975421387;0.055930533800896236;3.474.852;-0.11152162;0.002781704;0;0;2172;Manual;OTHER;NONE;GPS_POSITION_NONMATCH;FALSE;Connected;;P;FALSE;FALSE;TRUE;0;0;;0.0;0.1;;;;;;;
33544271;5.646;;;34.622.314;34.588.356;;;0;-0.2279565116366083;0.30864897034898053;-0.04363905921641836;0.005673931;0.0030464067;-10.032.688;10.032.896;-10.968.151;0.92325526;0.6494949;15.739.273;1,57E+03;-9,88E+01;0.0017337532;0.001743625;1,85E+12;0;0;0;0.0;51.12;-0.04363905921641836;0.38370085682967153;-1.435.955.797.623.230;-1.435.519.407.031.060;35.995.636.094.078.300;NaN;NaN;0.0;0.0;0.0;-0.0;NaN;NaN;NaN;NaN;NaN;NaN;NaN;NaN;FALSE;FALSE;3.185.294.315.400.170;-6.205.092.654.427.060;5.571.116.787.212.360;;0.0;;;0.99999434;-0.0019882615;0.0026942191;-3,86E+03;0.0026322193;-0.008201671;0.017237663;-0.021729682;0.017835245;0.010667519;300;4650;0;0;4371;540;0.0;0.0;0.0;0.0;GPS_Atti;2;0;0;0;0;10;5000;0.0;0.0;17;5;3;2;0;0;;;;;;;1,00E+01;0.0;1.0;1,00E+01;0.0;1,00E+01;1,00E+01;0.0;-0.009510027;1,00E+01;0.019438744;1,00E+01;-0.1;0.020000001;0.0;0.0;0.0;180.0;0.0;0.0;0.0;0;0.9999947;-0.001801179;0.0026801834;-4,75E+02;0.206253356532792;-0.30722624793157505;0.05498885793385021;34.748.444;-0.109646544;-0.0142668355;0;0;2192;Manual;OTHER;NONE;GPS_POSITION_NONMATCH;FALSE;Connected;;P;FALSE;FALSE;TRUE;0;0;;0.0;0.1;;;;;;;
33699267;5.680;;;34.561.543;34.588.432;;;0;-0.2261183126632793;0.31133450702026705;-0.04528267871899672;0.0056568757;0.003703872;-10.026.932;10.027.161;-11.695.096;11.112.849;0.62289;17.293.637;2,50E+02;9,99E+01;0.0015956042;0.00161815;2,69E+12;0;0;0;0.0;51.14;-0.04528267871899672;0.3847813063804061;-1.440.549.800.237.460;-1.440.096.973.450.270;359.954.717.321.281;NaN;NaN;0.0;0.0;0.0;-0.0;NaN;NaN;NaN;NaN;NaN;NaN;NaN;NaN;FALSE;FALSE;3.218.521.964.347.960;-6.264.276.510.306.670;56.242.477.114.543.600;;0.0;;;0.9999943;-0.0019721722;0.002717677;-4,01E+03;8,37E+02;-3,72E+03;0.021362305;-0.02172095;0.01782943;0.010663656;300;4652;0;0;4411;550;0.0;0.0;0.0;0.0;GPS_Atti;2;0;0;0;0;10;5000;0.0;0.0;17;5;3;2;0;0;;;;;;;1,00E+01;0.0;1.0;1,00E+01;0.0;1,00E+01;1,00E+01;0.0;-0.009510027;1,00E+01;0.019438744;1,00E+01;-0.1;0.020000001;0.0;0.0;0.0;180.0;0.0;0.0;0.0;0;0.99999464;-0.0017818231;0.0027163734;-5,10E+02;0.2040223833286956;-0.3113794304840273;0.059023695823263236;34.748.386;-0.107651316;-0.009679846;0;0;2212;Manual;OTHER;NONE;GPS_POSITION_NONMATCH;FALSE;Connected;;P;FALSE;FALSE;TRUE;0;0;;0.0;0.1;;;;;;;
33922087;5.730;;;34.561.543;3.458.851;;;0;-0.2257351348498736;0.3136802735628442;-0.04455187790174416;0.006021674;0.004339027;-10.045.269;10.045.543;-13.035.002;0.94285893;0.6386882;1.730.901;1,34E+02;-1,53E+03;0.0011310448;0.0011414093;1,53E+12;0;0;0;0.0;51.21;-0.04455187790174416;0.3864577968657068;-14.430.459.119.554.400;-14.426.003.931.764.300;35.995.544.812.209.800;NaN;NaN;0.0;0.0;0.0;-0.0;NaN;NaN;NaN;NaN;NaN;NaN;NaN;NaN;FALSE;FALSE;32.512.878.347.907.900;-6.328.505.837.808.790;5.677.598.196.630.160;;0.0;;;0.9999942;-0.0019688376;0.0027381338;-3,94E+03;0.005511161;0.0035820082;0.002869606;-0.021712134;0.017824566;0.010660397;300;4653;0;0;4451;550;0.0;0.0;0.0;0.0;GPS_Atti;2;0;0;0;0;10;5000;0.0;0.0;17;5;3;2;0;0;;;;;;;1,00E+01;0.0;1.0;1,00E+01;0.0;1,00E+01;1,00E+01;0.0;-0.009510027;1,00E+01;0.019438744;1,00E+01;-0.1;0.020000001;0.0;0.0;0.0;180.0;0.0;0.0;0.0;0;0.99999464;-0.0017818231;0.0027163734;-5,10E+02;0.2040223833286956;-0.3113794304840273;0.059023695823263236;34.748.386;-0.107651316;-0.009679846;0;0;2212;Manual;OTHER;NONE;GPS_POSITION_NONMATCH;FALSE;Connected;;P;FALSE;FALSE;TRUE;0;0;;0.0;0.1;;;;;;;
34079133;5.765;;;34.561.543;3.458.851;;;0;-0.2257351348498736;0.3136802735628442;-0.04455187790174416;0.006021674;0.004339027;-10.045.269;10.045.543;-13.035.002;0.94285893;0.6386882;1.730.901;1,34E+02;-1,53E+03;0.0011310448;0.0011414093;1,53E+12;0;0;0;0.0;51.21;-0.04455187790174416;0.3864577968657068;-14.430.459.119.554.400;-14.426.003.931.764.300;35.995.544.812.209.800;NaN;NaN;0.0;0.0;0.0;-0.0;NaN;NaN;NaN;NaN;NaN;NaN;NaN;NaN;FALSE;FALSE;32.512.878.347.907.900;-6.328.505.837.808.790;5.677.598.196.630.160;;0.0;;;0.9999942;-0.0019688376;0.0027381338;-3,94E+03;0.005511161;0.0035820082;0.002869606;-0.021712134;0.017824566;0.010660397;300;4653;0;0;4451;550;0.0;0.0;0.0;0.0;GPS_Atti;2;0;0;0;0;10;5000;0.0;0.0;17;5;3;2;0;0;;;;;;;1,00E+01;0.0;1.0;1,00E+01;0.0;1,00E+01;1,00E+01;0.0;-0.009237971;1,00E+01;-0.0099077225;1,00E+01;-0.1;0.020000001;0.0;0.0;0.0;180.0;0.0;0.0;0.0;0;0.99999464;-0.001761574;0.0027360641;-5,25E+03;0.20169628519125019;-0.3136375257679312;0.06068481951495405;3.474.842;-0.10765538;-0.02783377;0;0;2232;GPS_Atti;OTHER;NONE;GPS_POSITION_NONMATCH;FALSE;Connected;;P;FALSE;FALSE;FALSE;0;0;0.1;0.0;0.1;;;;;;;
34592745;5.879;;;34.572.113;3.458.856;;;0;-0.22323149020690977;0.31312800174039956;-0.04708049296898709;0.0063642655;0.0047032177;-1.003.479;10.035.102;-12.738.163;0.9677239;0.62261665;17.166.098;1,10E+04;1,68E+03;0.0020515523;0.0020614043;2,01E+12;0;0;0;0.0;51.24;-0.04708049296898709;0.3845509839415299;-14.456.183.462.611.500;-14.451.475.413.314.600;359.952.919.507.031;NaN;NaN;0.0;0.0;0.0;-0.0;NaN;NaN;NaN;NaN;NaN;NaN;NaN;NaN;FALSE;FALSE;32.840.826.920.543.100;-6.395.517.969.826.860;5.727.274.760.766.770;;0.0;;;0.9999943;-0.0019469309;0.0027333489;-4,16E+03;0.010556266;0.0059015118;0.0137376785;-0.021703474;0.017821172;0.0106556555;200;4654;0;0;4491;570;0.0;0.0;0.0;0.0;GPS_Atti;2;0;0;0;0;10;5000;0.0;0.0;17;5;3;2;0;0;;;;;;;1,00E+01;0.0;1.0;1,00E+01;0.0;1,00E+01;1,00E+01;0.0;-0.009237971;1,00E+01;-0.0099077225;1,00E+01;-0.1;0.020000001;0.0;0.0;0.0;180.0;0.0;0.0;0.0;0;0.99999464;-0.0017340595;0.0027292038;-5,67E+02;0.19853045667134336;-0.31285818852483605;0.06556160768936015;34.747.375;-0.10450275;-0.016498823;0;0;2252;GPS_Atti;OTHER;NONE;GPS_POSITION_NONMATCH;FALSE;Connected;;P;FALSE;FALSE;FALSE;0;0;0.1;0.0;0.1;;;;;;;
34785817;5.922;;;3.453.776;3.458.858;;;0;-0.21890398056925328;0.31319282099439805;-0.04696711136159888;0.0054672416;0.0042190882;-10.055.907;10.056.144;-1.235.999;11.486.359;0.56550884;17.795.669;2,52E+01;-5,14E+01;7,14E+02;7,16E+02;5,72E+11;0;0;0;0.0;51.21;-0.04696711136159888;0.3821083443100843;-14.509.574.332.156.300;-14.504.877.621.020.100;3.599.530.328.886.380;NaN;NaN;0.0;0.0;0.0;-0.0;NaN;NaN;NaN;NaN;NaN;NaN;NaN;NaN;FALSE;FALSE;33.459.799.968.143.000;-652.627.082.872.678;5.837.529.920.394.700;;0.0;;;0.9999944;-0.001909169;0.0027338972;-4,15E+03;-0.0016181357;0.005065197;-0.009780884;-0.021685941;0.017814605;0.0106444005;200;4658;0;0;4571;570;0.0;0.0;0.0;0.0;GPS_Atti;2;0;0;0;0;10;5000;0.0;0.0;17;5;3;2;0;0;;;;;;;1,00E+01;0.0;1.0;1,00E+01;0.0;1,00E+01;1,00E+01;0.0;-0.009237971;1,00E+01;-0.0099077225;1,00E+01;-0.1;0.020000001;0.0;0.0;0.0;180.0;0.0;0.0;0.0;0;0.9999947;-0.0016876678;0.0027319645;-6,09E+02;0.19320124168632294;-0.31317942357373424;0.07028352617008084;34.742.752;-0.09777794;-0.03885027;0;0;2292;GPS_Atti;OTHER;NONE;GPS_POSITION_NONMATCH;FALSE;Connected;;P;FALSE;FALSE;FALSE;0;0;0.1;0.0;0.1;;;;;;;
34950547;5.958;;;3.458.268;3.458.836;;;0;-0.21777457075436765;0.3108764065754554;-0.04432775932664225;0.0058461307;0.0035580269;-10.024.601;10.024.835;-12.417.111;11.399.297;0.57647085;17.814.614;2,90E+03;1,33E+03;0.0011407295;0.0011845827;3,19E+12;0;0;0;0.0;51.36;-0.04432775932664225;0.37956296221448005;-14.503.252.157.989.000;-14.498.819.382.056.400;3.599.556.722.406.730;NaN;NaN;0.0;0.0;0.0;-0.0;NaN;NaN;NaN;NaN;NaN;NaN;NaN;NaN;FALSE;FALSE;33.758.590.884.679.900;-659.109.836.319.692;5.897.408.619.779.180;;0.0;;;0.99999446;-0.001899384;0.002713635;-3,92E+03;0.0041054804;-8,63E+02;0.025942802;-0.021677366;0.017811805;0.010638952;400;4656;0;0;4611;570;0.0;0.0;0.0;0.0;GPS_Atti;2;0;0;0;0;10;5000;0.0;0.0;17;5;3;2;0;0;;;;;;;1,00E+01;0.0;1.0;1,00E+01;0.0;1,00E+01;1,00E+01;0.0;-0.007760003;1,00E+01;0.019436836;1,00E+01;-0.1;0.020000001;0.0;0.0;0.0;180.0;0.0;0.0;0.0;0;0.99999475;-0.0016743481;0.0027204654;-6,07E+03;0.19167614548085135;-0.3118605117812534;0.0701253080036733;3.473.997;-0.09731342;-0.0028534196;0;0;2312;GPS_Atti;OTHER;NONE;GPS_POSITION_NONMATCH;FALSE;Connected;;P;FALSE;FALSE;FALSE;0;0;0.1;0.0;0.1;;;;;;;
35105944;5.993;;;34.590.607;34.588.146;;;0;-0.21670092012105002;0.31120619603258665;-0.04789556012266273;0.0045394246;0.0060934997;-10.044.312;100.446;-1.119.462;10.636.871;0.532903;16.335.884;4,19E+03;1,69E+03;0.0019046997;0.0019575425;4,52E+12;0;0;0;0.0;51.4;-0.04789556012266273;0.3792185887848674;-1.451.975.394.241.800;-14.514.964.386.405.700;35.995.210.443.987.700;NaN;NaN;0.0;0.0;0.0;-0.0;NaN;NaN;NaN;NaN;NaN;NaN;NaN;NaN;FALSE;FALSE;3.404.615.550.952.260;-6.652.303.146.525.010;5.954.529.328.965.630;;0.0;;;0.99999446;-0.001889929;0.0027165683;-4,23E+03;-0.00888302;0.022120465;0.0017156601;-0.021668682;0.017808849;0.010634626;200;4660;0;0;4651;580;0.0;0.0;0.0;0.0;GPS_Atti;2;0;0;0;0;10;5000;0.0;0.0;17;5;3;2;0;0;;;;;;;1,00E+01;0.0;1.0;1,00E+01;0.0;1,00E+01;1,00E+01;0.0;-0.007760003;1,00E+01;0.019436836;1,00E+01;-0.1;0.020000001;0.0;0.0;0.0;180.0;0.0;0.0;0.0;0;0.9999947;-0.0016557099;0.0027369908;-6,61E+03;0.18952245368883458;-0.3137630042521203;0.07624346534712206;34.739.304;-0.09851795;-0.026894296;0;0;2332;GPS_Atti;OTHER;NONE;GPS_POSITION_NONMATCH;FALSE;Connected;;P;FALSE;FALSE;FALSE;0;0;0.1;0.0;0.1;;;;;;;
35258926;6.027;;;34.590.607;34.588.146;;;0;-0.21670092012105002;0.31120619603258665;-0.04789556012266273;0.0045394246;0.0060934997;-10.044.312;100.446;-1.119.462;10.636.871;0.532903;16.335.884;4,19E+03;1,69E+03;0.0019046997;0.0019575425;4,52E+12;0;0;0;0.0;51.4;-0.04789556012266273;0.3792185887848674;-1.451.975.394.241.800;-14.514.964.386.405.700;35.995.210.443.987.700;NaN;NaN;0.0;0.0;0.0;-0.0;NaN;NaN;NaN;NaN;NaN;NaN;NaN;NaN;FALSE;FALSE;3.404.615.550.952.260;-6.652.303.146.525.010;5.954.529.328.965.630;;0.0;;;0.99999446;-0.001889929;0.0027165683;-4,23E+03;-0.00888302;0.022120465;0.0017156601;-0.021668682;0.017808849;0.010634626;200;4660;0;0;4651;580;0.0;0.0;0.0;0.0;GPS_Atti;2;0;0;0;0;10;5000;0.0;0.0;17;5;3;2;0;0;;;;;;;1,00E+01;0.0;1.0;1,00E+01;0.0;1,00E+01;1,00E+01;0.0;-0.007760003;1,00E+01;0.019436836;1,00E+01;-0.1;0.020000001;0.0;0.0;0.0;180.0;0.0;0.0;0.0;0;0.9999947;-0.0016557099;0.0027369908;-6,61E+03;0.18952245368883458;-0.3137630042521203;0.07624346534712206;34.739.304;-0.09851795;-0.026894296;0;0;2332;GPS_Atti;OTHER;NONE;GPS_POSITION_NONMATCH;FALSE;Connected;;P;FALSE;FALSE;FALSE;0;0;0.1;0.0;0.1;;;;;;;
35419293;6.062;;;3.456.947;345.879;;;0;-0.21285717920886457;0.31189056398534437;-0.04973943950090484;0.006779165;0.004821439;-10.056.819;10.057.163;-10.711.514;11.337.802;0.48433465;16.332.185;4,00E+01;3,02E+02;0.0011573817;0.0011967549;3,04E+11;0;0;0;0.0;51.38;-0.04973943950090484;0.3776004668862851;-14.573.736.271.010.000;-14.568.762.327.059.900;3.599.502.605.604.990;NaN;NaN;0.0;0.0;0.0;-0.0;NaN;NaN;NaN;NaN;NaN;NaN;NaN;NaN;FALSE;FALSE;34.311.091.062.829.800;-6.709.356.811.686.770;6.011.761.502.252.790;;0.0;;;0.9999945;-0.0018563399;0.0027225565;-4,39E+03;0.0144158285;0.00838664;-0.010418892;-0.021659914;0.017806286;0.010630755;300;4660;0;0;4691;580;0.0;0.0;0.0;0.0;GPS_Atti;2;0;0;0;0;10;5000;0.0;0.0;17;5;3;2;0;0;;;;;;;1,00E+01;0.0;1.0;1,00E+01;0.0;1,00E+01;1,00E+01;0.0;0.0027315393;1,00E+01;-0.019745827;1,00E+01;-0.1;0.020000001;0.0;0.0;0.0;180.0;0.0;0.0;0.0;0;0.99999475;-0.001619523;0.0027308401;-6,99E+03;0.18536434315830386;-0.31306241004430385;0.08057833658869205;34.735.577;-0.09443059;-0.038390357;0;0;2352;GPS_Atti;OTHER;NONE;GPS_POSITION_NONMATCH;FALSE;Connected;;P;FALSE;FALSE;FALSE;0;0;0.1;0.0;0.1;;;;;;;
35574216;6.097;;;34.553.616;3.458.759;;;0;-0.2095299130745178;0.3101529577988686;-0.0494817989073945;0.0055415146;0.003630095;-10.064.375;10.064.594;-12.706.062;0.9669635;0.58522755;17.005.734;1,51E+03;2,40E+03;0.001560039;0.0015855837;2,83E+12;0;0;0;0.0;51.34;-0.0494817989073945;0.37429390383818606;-14.600.785.802.723.700;-14.595.837.622.833.000;3.599.505.182.010.920;NaN;NaN;0.0;0.0;0.0;-0.0;NaN;NaN;NaN;NaN;NaN;NaN;NaN;NaN;FALSE;FALSE;3.458.977.928.704.150;-6.770.374.324.386.660;6.066.499.090.467.970;;0.0;;;0.9999946;-0.0018273168;0.0027073766;-4,37E+03;-3,50E+03;0.0011121016;-0.017817497;-0.021651126;0.01780412;0.010625266;300;4660;0;0;4731;590;0.0;0.0;0.0;0.0;GPS_Atti;2;0;0;0;0;10;5000;0.0;0.0;17;5;3;2;0;0;;;;;;;1,00E+01;0.0;1.0;1,00E+01;0.0;1,00E+01;1,00E+01;0.0;0.0027315393;1,00E+01;-0.019745827;1,00E+01;-0.1;0.020000001;0.0;0.0;0.0;180.0;0.0;0.0;0.0;0;0.9999948;-0.0015897237;0.0027210421;-7,18E+02;0.18194423836529064;-0.3119407968665859;0.08282863072718448;34.733.646;-0.09475824;-0.045558628;0;0;2372;GPS_Atti;OTHER;NONE;GPS_POSITION_NONMATCH;FALSE;Connected;;P;FALSE;FALSE;FALSE;0;0;0.1;0.0;0.1;;;;;;;
35796791;6.146;;;3.460.646;3.458.732;;;0;-0.20648071496064094;0.3108802093746022;-0.05119277308204803;0.007348232;0.0047039925;-10.047.123;10.047.503;-0.9565691;0.93771476;0.5052352;1.431.641;6,18E+03;-1,90E+01;0.0014309587;0.0015587728;6,18E+11;0;0;0;0.0;51.38;-0.05119277308204803;0.37320117459096147;-14.645.998.214.789.800;-1.464.087.893.748.160;35.994.880.722.691.700;NaN;NaN;0.0;0.0;0.0;-0.0;NaN;NaN;NaN;NaN;NaN;NaN;NaN;NaN;FALSE;FALSE;3.487.347.924.086.880;-682.831.757.048.902;6.116.052.103.113.400;;0.0;;;0.99999464;-0.0018006645;0.0027137385;-4,52E+03;0.019148417;0.009750184;-0.0013656616;-0.021641511;0.017800787;0.010618617;300;4657;0;0;4771;590;0.0;0.0;0.0;0.0;GPS_Atti;2;0;0;0;0;10;5000;0.0;0.0;17;5;3;2;0;0;;;;;;;1,00E+01;0.0;1.0;1,00E+01;0.0;1,00E+01;1,00E+01;0.0;0.0027315393;1,00E+01;-0.019745827;1,00E+01;-0.1;0.020000001;0.0;0.0;0.0;180.0;0.0;0.0;0.0;0;0.9999948;-0.0015897237;0.0027210421;-7,18E+02;0.18194423836529064;-0.3119407968665859;0.08282863072718448;34.733.646;-0.09475824;-0.045558628;0;0;2372;GPS_Atti;OTHER;NONE;GPS_POSITION_NONMATCH;FALSE;Connected;;P;FALSE;FALSE;FALSE;0;0;0.1;0.0;0.1;;;;;;;
35998979;6.191;;;3.460.646;3.458.732;;;0;-0.20648071496064094;0.3108802093746022;-0.05119277308204803;0.007348232;0.0047039925;-10.047.123;10.047.503;-0.9565691;0.93771476;0.5052352;1.431.641;6,18E+03;-1,90E+01;0.0014309587;0.0015587728;6,18E+11;0;0;0;0.0;51.38;-0.05119277308204803;0.37320117459096147;-14.645.998.214.789.800;-1.464.087.893.748.160;35.994.880.722.691.700;NaN;NaN;0.0;0.0;0.0;-0.0;NaN;NaN;NaN;NaN;NaN;NaN;NaN;NaN;FALSE;FALSE;3.487.347.924.086.880;-682.831.757.048.902;6.116.052.103.113.400;;0.0;;;0.99999464;-0.0018006645;0.0027137385;-4,52E+03;0.019148417;0.009750184;-0.0013656616;-0.021641511;0.017800787;0.010618617;300;4657;0;0;4771;600;0.0;0.0;0.0;0.0;GPS_Atti;2;0;0;0;0;10;5000;0.0;0.0;17;5;3;2;0;0;;;;;;;1,00E+01;0.0;1.0;1,00E+01;0.0;1,00E+01;1,00E+01;0.0;-0.015652094;1,00E+01;0.019417763;1,00E+01;-0.1;0.020000001;0.0;0.0;0.0;180.0;0.0;0.0;0.0;0;0.99999475;-0.0015450987;0.0027496454;-7,57E+03;0.17681614282867508;-0.3152215765432768;0.08721645001185627;34.734.028;-0.09910362;-0.029002089;0;0;2392;GPS_Atti;OTHER;NONE;GPS_POSITION_NONMATCH;FALSE;Connected;;P;FALSE;FALSE;FALSE;0;0;0.1;0.0;0.1;;;;;;;
36467748;6.295;;;34.595.894;34.587.173;;;0;-0.2077304745346072;0.31373269368990775;-0.05326386552183736;0.0059201727;0.0030536053;-10.041.858;10.042.078;-12.633.238;0.9798365;0.42638057;16.546.501;1,03E+03;1,16E+03;0.001511607;0.0015195782;1,55E+12;0;0;0;0.0;51.42;-0.05326386552183736;0.3762690899868285;-14.654.384.608.264.000;-14.649.058.221.711.800;35.994.673.613.447.800;NaN;NaN;0.0;0.0;0.0;-0.0;NaN;NaN;NaN;NaN;NaN;NaN;NaN;NaN;FALSE;FALSE;35.116.112.687.248.200;-6.886.133.278.692.710;6.165.993.515.710.780;;0.0;;;0.9999945;-0.0018115098;0.0027386686;-4,70E+02;0.003934432;-0.006322475;0.0021295547;-0.021632122;0.017795833;0.010612847;200;4658;0;0;4811;610;0.0;0.0;0.0;0.0;GPS_Atti;2;0;0;0;0;10;5000;0.0;0.0;17;5;3;2;0;0;;;;;;;1,00E+01;0.0;1.0;1,00E+01;0.0;1,00E+01;1,00E+01;0.0;-0.015652094;1,00E+01;0.019417763;1,00E+01;-0.1;0.020000001;0.0;0.0;0.0;180.0;0.0;0.0;0.0;0;0.9999947;-0.00155754;0.002758503;-7,98E+02;0.17822796035907604;-0.3162450361402764;0.0919584592554138;3.473.653;-0.10414292;-0.025523122;0;0;2412;GPS_Atti;OTHER;NONE;GPS_POSITION_NONMATCH;FALSE;Connected;;P;FALSE;FALSE;FALSE;0;0;0.1;0.0;0.1;;;;;;;
36634178;6.332;;;34.624.958;3.458.747;;;0;-0.20391569091048573;0.30791743443222197;-0.05719969070084674;0.006693133;0.0040459386;-10.049.487;10.049.791;-12.130.088;1.113.054;0.64064175;17.665.507;3,12E+03;4,48E+03;0.0014380923;0.0015382916;5,46E+11;0;0;0;0.0;51.51;-0.05719969070084674;0.3693144381060286;-14.654.316.508.809.700;-14.648.596.539.739.700;3.599.428.003.092.990;NaN;NaN;0.0;0.0;0.0;-0.0;NaN;NaN;NaN;NaN;NaN;NaN;NaN;NaN;FALSE;FALSE;3.567.156.007.516.290;-701.504.083.886.752;6.274.940.682.922.830;;0.0;;;0.9999947;-0.0017781513;0.002687967;-5,04E+02;0.015137818;0.0025148913;-0.0011291504;-0.021613572;0.01778776;0.010599021;200;4660;0;0;4891;610;0.0;0.0;0.0;0.0;GPS_Atti;2;0;0;0;0;10;5000;0.0;0.0;17;5;3;2;0;0;;;;;;;1,00E+01;0.0;1.0;1,00E+01;0.0;1,00E+01;1,00E+01;0.0;-0.015652094;1,00E+01;0.019417763;1,00E+01;-0.1;0.020000001;0.0;0.0;0.0;180.0;0.0;0.0;0.0;0;0.9999948;-0.0015252818;0.0027188892;-8,81E+03;0.17450938521845494;-0.31171696244805275;0.10139049897956982;34.740.376;-0.1041121;-0.028041106;0;0;2452;GPS_Atti;OTHER;NONE;GPS_POSITION_NONMATCH;FALSE;Connected;;P;FALSE;FALSE;FALSE;0;0;0.1;0.0;0.1;;;;;;;
36825525;6.375;;;34.622.314;3.458.782;;;0;-0.20503037684888623;0.3073544342784872;-0.05439064660838934;0.005841844;0.003785346;-1.004.685;10.047.091;-12.906.182;10.595.853;0.5591081;17.609.708;3,42E+03;3,11E+03;0.0015487098;0.0016163373;4,63E+11;0;0;0;0.0;51.57;-0.05439064660838934;0.3694625702674104;-1.463.480.225.243.170;-1.462.936.318.777.080;3.599.456.093.533.910;NaN;NaN;0.0;0.0;0.0;-0.0;NaN;NaN;NaN;NaN;NaN;NaN;NaN;NaN;FALSE;FALSE;3.598.419.896.980.080;-7.080.282.036.829.340;633.155.678.367.719;;0.0;;;0.9999947;-0.0017879469;0.0026830148;-4,79E+03;0.0052964147;0.0013449825;3,81E+01;-0.021604637;0.017782718;0.010591771;200;4661;0;0;4931;610;0.0;0.0;0.0;0.0;GPS_Atti;2;0;0;0;0;10;5000;0.0;0.0;17;5;3;2;0;0;;;;;;;1,00E+01;0.0;1.0;1,00E+01;0.0;1,00E+01;1,00E+01;0.0;0.004159447;1,00E+01;0.009548187;1,00E+01;-0.1;0.020000001;0.0;0.0;0.0;180.0;0.0;0.0;0.0;0;0.9999948;-0.0015366855;0.0027129601;-8,81E+02;0.17581653064082362;-0.3110388298114538;0.10147360913553792;34.741.417;-0.10214858;-0.026482781;0;0;2472;GPS_Atti;OTHER;NONE;GPS_POSITION_NONMATCH;FALSE;Connected;;P;FALSE;FALSE;FALSE;0;0;0.1;0.0;0.1;;;;;;;
36980547;6.409;;;3.461.703;34.588.203;;;0;-0.2052102655875667;0.3089594873012983;-0.05360712424574382;0.0072344122;0.0042839423;-10.034.193;10.034.544;-12.203.671;11.709.011;0.5235108;1.770.415;6,24E+02;3,01E+03;9,53E+03;0.0011778227;6,92E+11;0;0;0;0.0;51.6;-0.05360712424574382;0.37089834897582796;-1.464.617.181.536.450;-14.640.811.102.939.900;35.994.639.287.575.400;NaN;NaN;0.0;0.0;0.0;-0.0;NaN;NaN;NaN;NaN;NaN;NaN;NaN;NaN;FALSE;FALSE;3.626.700.168.582.760;-7.145.874.227.692.300;63.898.217.571.173.300;;0.0;;;0.99999464;-0.0017895284;0.00269701;-4,73E+03;0.020264337;0.005404493;0.0149354935;-0.02159608;0.017776854;0.010584918;400;4663;0;0;4971;620;0.0;0.0;0.0;0.0;GPS_Atti;2;0;0;0;0;10;5000;0.0;0.0;17;5;3;2;0;0;;;;;;;1,00E+01;0.0;1.0;1,00E+01;0.0;1,00E+01;1,00E+01;0.0;0.004159447;1,00E+01;0.009548187;1,00E+01;-0.1;0.020000001;0.0;0.0;0.0;180.0;0.0;0.0;0.0;0;0.99999475;-0.0015339819;0.002741486;-9,01E+02;0.17549770812008045;-0.314310789241086;0.10370541284405058;34.741.016;-0.09874442;-0.010982679;0;0;2492;GPS_Atti;OTHER;NONE;GPS_POSITION_NONMATCH;FALSE;Connected;;P;FALSE;FALSE;FALSE;0;0;0.1;0.0;0.1;;;;;;;
37203424;6.459;;;3.458.004;3.458.857;;;0;-0.2063553520500564;0.3132298503650495;-0.052622942195055596;0.0068808505;0.0035941235;-10.040.523;10.040.823;-11.616.929;0.9665437;0.58877474;16.218.485;1,64E+02;4,30E+03;0.0013796801;0.0014543844;4,60E+12;0;0;0;0.0;51.69;-0.052622942195055596;0.37509168697022316;-14.667.593.980.778.800;-1.466.233.168.655.930;35.994.737.705.780.400;NaN;NaN;0.0;0.0;0.0;-0.0;NaN;NaN;NaN;NaN;NaN;NaN;NaN;NaN;FALSE;FALSE;3.655.632.347.553.580;-7.207.835.100.951.480;6.445.419.830.252.220;;0.0;;;0.9999946;-0.0017995271;0.0027342648;-4,64E+03;0.015973303;-0.002671077;0.0058908463;-0.021587884;0.01777094;0.010577147;400;4664;0;0;5011;620;0.0;0.0;0.0;0.0;GPS_Atti;2;0;0;0;0;10;5000;0.0;0.0;17;5;3;2;0;0;;;;;;;1,00E+01;0.0;1.0;1,00E+01;0.0;1,00E+01;1,00E+01;0.0;0.004159447;1,00E+01;0.009548187;1,00E+01;-0.1;0.020000001;0.0;0.0;0.0;180.0;0.0;0.0;0.0;0;0.99999475;-0.0015339819;0.002741486;-9,01E+02;0.17549770812008045;-0.314310789241086;0.10370541284405058;34.741.016;-0.09874442;-0.010982679;0;0;2492;GPS_Atti;OTHER;NONE;GPS_POSITION_NONMATCH;FALSE;Connected;;P;FALSE;FALSE;FALSE;0;0;0.1;0.0;0.1;;;;;;;
37405245;6.504;;;3.458.004;3.458.857;;;0;-0.2063553520500564;0.3132298503650495;-0.052622942195055596;0.0068808505;0.0035941235;-10.040.523;10.040.823;-11.616.929;0.9665437;0.58877474;16.218.485;1,64E+02;4,30E+03;0.0013796801;0.0014543844;4,60E+12;0;0;0;0.0;51.69;-0.052622942195055596;0.37509168697022316;-14.667.593.980.778.800;-1.466.233.168.655.930;35.994.737.705.780.400;NaN;NaN;0.0;0.0;0.0;-0.0;NaN;NaN;NaN;NaN;NaN;NaN;NaN;NaN;FALSE;FALSE;3.655.632.347.553.580;-7.207.835.100.951.480;6.445.419.830.252.220;;0.0;;;0.9999946;-0.0017995271;0.0027342648;-4,64E+03;0.015973303;-0.002671077;0.0058908463;-0.021587884;0.01777094;0.010577147;400;4664;0;0;5011;630;0.0;0.0;0.0;0.0;GPS_Atti;2;0;0;0;0;10;5000;0.0;0.0;17;5;3;2;0;0;;;;;;;1,00E+01;0.0;1.0;1,00E+01;0.0;1,00E+01;1,00E+01;0.0;0.00392621;1,00E+01;0.01934719;1,00E+01;-0.1;0.020000001;0.0;0.0;0.0;180.0;0.0;0.0;0.0;0;0.9999946;-0.0015425397;0.0027712835;-9,19E+03;0.1764693742636089;-0.3177295850852151;0.10584294977309763;3.474.133;-0.09709956;-0.019695405;0;0;2512;GPS_Atti;OTHER;NONE;GPS_POSITION_NONMATCH;FALSE;Connected;;P;FALSE;FALSE;FALSE;0;0;0.1;0.0;0.1;;;;;;;
37571660;6.541;;;34.595.894;34.588.913;;;0;-0.20763248498989673;0.3145905645060699;-0.05253871743752769;0.007964441;0.0056276037;-10.041.221;10.041.696;-11.379.558;10.252.873;0.5482039;16.268.635;2,55E+03;2,25E+03;0.0012493082;0.0012947881;3,40E+12;0;0;0;0.0;51.68;-0.05253871743752769;0.37693068225836956;-1.466.275.328.214.030;-1.465.749.941.039.650;3.599.474.612.825.620;NaN;NaN;0.0;0.0;0.0;-0.0;NaN;NaN;NaN;NaN;NaN;NaN;NaN;NaN;FALSE;FALSE;36.851.905.649.375.400;-7.267.619.438.944.760;649.720.178.173.796;;0.0;;;0.99999446;-0.0018106685;0.0027461431;-4,63E+03;0.023754917;0.02124805;0.0066022873;-0.021580584;0.017767733;0.010570358;200;4665;0;0;5051;630;0.0;0.0;0.0;0.0;GPS_Atti;2;0;0;0;0;10;5000;0.0;0.0;17;5;3;2;0;0;;;;;;;1,00E+01;0.0;1.0;1,00E+01;0.0;1,00E+01;1,00E+01;0.0;0.00392621;1,00E+01;0.01934719;1,00E+01;-0.1;0.020000001;0.0;0.0;0.0;180.0;0.0;0.0;0.0;0;0.9999945;-0.0015536149;0.0027903065;-9,46E+03;0.1777278425129097;-0.3199154141002618;0.10894075604789812;3.474.056;-0.095266916;-0.01856024;0;0;2532;GPS_Atti;OTHER;NONE;GPS_POSITION_NONMATCH;FALSE;Connected;;P;FALSE;FALSE;FALSE;0;0;0.1;0.0;0.1;;;;;;;
38067233;6.651;;;34.614.388;34.589.245;;;0;-0.20503761242225238;0.31777025856618013;-0.052914390755375365;0.0050670058;0.003395131;-10.022.002;10.022.188;-10.274.751;10.833.577;0.61704046;16.155.828;3,01E+03;9,40E+02;0.0014830485;0.0015161055;3,15E+12;0;0;0;0.0;51.7;-0.052914390755375365;0.3781754031871071;-14.722.140.434.093.800;-1.471.684.899.501.830;35.994.708.560.924.400;NaN;NaN;0.0;0.0;0.0;-0.0;NaN;NaN;NaN;NaN;NaN;NaN;NaN;NaN;FALSE;FALSE;37.155.558.428.144.000;-7.324.048.729.178.710;6.552.151.278.574.750;;0.0;;;0.99999446;-0.0017880022;0.0027738865;-4,67E+03;-0.0050669033;-8,49E+03;0.023983955;-0.021574397;0.017764872;0.010564248;300;4665;0;0;5091;630;0.0;0.0;0.0;0.0;GPS_Atti;2;0;0;0;0;10;5000;0.0;0.0;17;5;3;2;0;0;;;;;;;1,00E+01;0.0;1.0;1,00E+01;0.0;1,00E+01;1,00E+01;0.0;-0.0055698883;1,00E+01;0.02918148;1,00E+01;-0.1;0.020000001;0.0;0.0;0.0;180.0;0.0;0.0;0.0;0;0.9999944;-0.0015332685;0.0028249475;-9,78E+02;0.17538241882037225;-0.323888284784224;0.11252757978185711;3.473.953;-0.09326724;-7,85E+02;0;0;2552;GPS_Atti;OTHER;NONE;GPS_POSITION_NONMATCH;FALSE;Connected;;P;FALSE;FALSE;FALSE;0;0;0.1;0.0;0.1;;;;;;;
38231799;6.687;;;34.574.753;3.458.981;;;0;-0.20450107018249752;0.31664931518176004;-0.054994618203321605;0.0054916786;0.0032443644;-100.386;10.038.803;-11.326.549;0.97973216;0.60058475;16.135.316;1,27E+03;1,68E+03;8,62E+03;8,87E+02;2,10E+12;0;0;0;0.0;51.72;-0.054994618203321605;0.3769426659854532;-14.719.963.353.203.300;-14.714.463.891.382.900;3.599.450.053.817.960;NaN;NaN;0.0;0.0;0.0;-0.0;NaN;NaN;NaN;NaN;NaN;NaN;NaN;NaN;FALSE;FALSE;377.896.820.946.696;-74.365.455.443.005.700;6.659.594.365.142.380;;0.0;;;0.9999945;-0.0017832745;0.0027641347;-4,85E+03;-0.0016428735;-6,12E+02;0.008665085;-0.021562103;0.01776109;0.010550267;200;4669;0;0;5171;630;0.0;0.0;0.0;0.0;GPS_Atti;2;0;0;0;0;10;5000;0.0;0.0;17;5;3;2;0;0;;;;;;;1,00E+01;0.0;1.0;1,00E+01;0.0;1,00E+01;1,00E+01;0.0;0.01406087;1,00E+01;0.009566307;1,00E+01;-0.1;0.020000001;0.0;0.0;0.0;180.0;0.0;0.0;0.0;0;0.99999434;-0.0015191381;0.0028166822;-0.0010541783;0.17373942502889286;-0.3229528673515919;0.12129022622459615;3.473.689;-0.0907553;-0.01534985;0;0;2592;GPS_Atti;OTHER;NONE;GPS_POSITION_NONMATCH;FALSE;Connected;;P;FALSE;FALSE;FALSE;0;0;0.1;0.0;0.1;;;;;;;
38387376;6.722;;;34.590.607;3.459.004;;;0;-0.20130674388639697;0.31889280863555547;-0.053748401999616044;0.0075412253;0.0031064402;-10.035.965;10.036.297;-1.167.853;10.908.592;0.70746416;17.476.727;5,24E+02;9,16E+01;0.0010166003;0.0011473286;5,32E+11;0;0;0;0.0;51.79;-0.053748401999616044;0.37711451150021896;-14.779.101.277.129.000;-14.773.726.436.929.000;3.599.462.515.980.000;NaN;NaN;0.0;0.0;0.0;-0.0;NaN;NaN;NaN;NaN;NaN;NaN;NaN;NaN;FALSE;FALSE;38.130.199.242.982.200;-7.496.433.396.235.850;6.713.496.925.900.430;;0.0;;;0.99999446;-0.0017554195;0.0027836806;-4,74E+03;0.018983824;-0.0027845027;0.010622978;-0.021555461;0.017758736;0.010543748;200;4671;0;0;5211;650;0.0;0.0;0.0;0.0;GPS_Atti;2;0;0;0;0;10;5000;0.0;0.0;17;5;3;2;0;0;;;;;;;1,00E+01;0.0;1.0;1,00E+01;0.0;1,00E+01;1,00E+01;0.0;0.01406087;1,00E+01;0.009566307;1,00E+01;-0.1;0.020000001;0.0;0.0;0.0;180.0;0.0;0.0;0.0;0;0.99999434;-0.0014874815;0.002843326;-0.0010734295;0.1701023443774903;-0.326005393026568;0.12349052283820199;34.736.015;-0.09019077;-0.013106039;0;0;2612;GPS_Atti;OTHER;NONE;GPS_POSITION_NONMATCH;FALSE;Connected;;P;FALSE;FALSE;FALSE;0;0;0.1;0.0;0.1;;;;;;;
38539932;6.756;;;34.590.607;3.459.004;;;0;-0.20130674388639697;0.31889280863555547;-0.053748401999616044;0.0075412253;0.0031064402;-10.035.965;10.036.297;-1.167.853;10.908.592;0.70746416;17.476.727;5,24E+02;9,16E+01;0.0010166003;0.0011473286;5,32E+11;0;0;0;0.0;51.79;-0.053748401999616044;0.37711451150021896;-14.779.101.277.129.000;-14.773.726.436.929.000;3.599.462.515.980.000;NaN;NaN;0.0;0.0;0.0;-0.0;NaN;NaN;NaN;NaN;NaN;NaN;NaN;NaN;FALSE;FALSE;38.130.199.242.982.200;-7.496.433.396.235.850;6.713.496.925.900.430;;0.0;;;0.99999446;-0.0017554195;0.0027836806;-4,74E+03;0.018983824;-0.0027845027;0.010622978;-0.021555461;0.017758736;0.010543748;200;4671;0;0;5211;650;0.0;0.0;0.0;0.0;GPS_Atti;2;0;0;0;0;10;5000;0.0;0.0;17;5;3;2;0;0;;;;;;;1,00E+01;0.0;1.0;1,00E+01;0.0;1,00E+01;1,00E+01;0.0;0.01406087;1,00E+01;0.009566307;1,00E+01;-0.1;0.020000001;0.0;0.0;0.0;180.0;0.0;0.0;0.0;0;0.99999434;-0.0014874815;0.002843326;-0.0010734295;0.1701023443774903;-0.326005393026568;0.12349052283820199;34.736.015;-0.09019077;-0.013106039;0;0;2612;GPS_Atti;OTHER;NONE;GPS_POSITION_NONMATCH;FALSE;Connected;;P;FALSE;FALSE;FALSE;0;0;0.1;0.0;0.1;;;;;;;
38700559;6.792;;;34.572.113;34.590.244;;;0;-0.200580214752556;0.31917530458520593;-0.05544635352669768;0.0063045947;0.0039415355;-10.039.544;1.003.982;-110.217;10.572.119;0.6129528;1.645.657;1,94E+03;1,16E+03;8,48E+03;8,77E+02;2,26E+11;0;0;0;0.0;51.8;-0.05544635352669768;0.3769663552252596;-14.790.900.850.484.000;-14.785.356.215.131.300;3.599.445.536.464.730;NaN;NaN;0.0;0.0;0.0;-0.0;NaN;NaN;NaN;NaN;NaN;NaN;NaN;NaN;FALSE;FALSE;3.847.382.906.998.730;-7.555.509.249.885.710;6.769.399.060.667.480;;0.0;;;0.9999945;-0.0017490371;0.0027861686;-4,89E+03;0.0071033724;0.0028040037;0.0016832352;-0.021549009;0.017757967;0.01053786;200;4671;0;0;5251;650;0.0;0.0;0.0;0.0;GPS_Atti;2;0;0;0;0;10;5000;0.0;0.0;17;5;3;2;0;0;;;;;;;1,00E+01;0.0;1.0;1,00E+01;0.0;1,00E+01;1,00E+01;0.0;-0.004971996;1,00E+01;0.009581566;1,00E+01;-0.1;0.020000001;0.0;0.0;0.0;180.0;0.0;0.0;0.0;0;0.9999943;-0.0014846205;0.0028485022;-0.0011184016;0.16975916921757372;-0.32660583464115694;0.12864389707830448;34.734.627;-0.088550285;-0.02170236;0;0;2632;GPS_Atti;OTHER;NONE;GPS_POSITION_NONMATCH;FALSE;Connected;;P;FALSE;FALSE;FALSE;0;0;0.1;0.0;0.1;;;;;;;
38855735;6.826;;;34.609.104;34.590.492;;;0;-0.19952042483174726;0.3182299948129135;-0.05486619204101563;0.006551382;0.005643387;-10.068.843;10.069.215;-11.846.946;10.160.381;0.6316083;16.836.758;3,12E+03;4,18E+03;1,18E+03;5,35E+03;5,21E+10;0;0;0;0.0;51.93;-0.05486619204101563;0.3756023058690537;-14.796.857.926.642.700;-147.913.713.074.386;359.945.133.807.959;NaN;NaN;0.0;0.0;0.0;-0.0;NaN;NaN;NaN;NaN;NaN;NaN;NaN;NaN;FALSE;FALSE;38.798.507.203.655.800;-7.615.168.427.838.930;6.823.485.509.338.940;;0.0;;;0.9999945;-0.0017398067;0.0027779061;-4,84E+03;0.010706531;0.020646166;-0.02110672;-0.021542039;0.01775842;0.010531246;300;4671;0;0;5291;660;0.0;0.0;0.0;0.0;GPS_Atti;2;0;0;0;0;10;5000;0.0;0.0;17;5;3;2;0;0;;;;;;;1,00E+01;0.0;1.0;1,00E+01;0.0;1,00E+01;1,00E+01;0.0;-0.004971996;1,00E+01;0.009581566;1,00E+01;-0.1;0.020000001;0.0;0.0;0.0;180.0;0.0;0.0;0.0;0;0.9999942;-0.0014774131;0.0028523542;-0.0011438538;0.16892445184480878;-0.3270506338404669;0.13155879958243527;347.348;-0.09073963;-0.044300567;0;0;2652;GPS_Atti;OTHER;NONE;GPS_POSITION_NONMATCH;FALSE;Connected;;P;FALSE;FALSE;FALSE;0;0;0.1;0.0;0.1;;;;;;;
39008764;6.860;;;34.609.104;34.590.492;;;0;-0.19952042483174726;0.3182299948129135;-0.05486619204101563;0.006551382;0.005643387;-10.068.843;10.069.215;-11.846.946;10.160.381;0.6316083;16.836.758;3,12E+03;4,18E+03;1,18E+03;5,35E+03;5,21E+10;0;0;0;0.0;51.93;-0.05486619204101563;0.3756023058690537;-14.796.857.926.642.700;-147.913.713.074.386;359.945.133.807.959;NaN;NaN;0.0;0.0;0.0;-0.0;NaN;NaN;NaN;NaN;NaN;NaN;NaN;NaN;FALSE;FALSE;38.798.507.203.655.800;-7.615.168.427.838.930;6.823.485.509.338.940;;0.0;;;0.9999945;-0.0017398067;0.0027779061;-4,84E+03;0.010706531;0.020646166;-0.02110672;-0.021542039;0.01775842;0.010531246;300;4671;0;0;5291;660;0.0;0.0;0.0;0.0;GPS_Atti;2;0;0;0;0;10;5000;0.0;0.0;17;5;3;2;0;0;;;;;;;1,00E+01;0.0;1.0;1,00E+01;0.0;1,00E+01;1,00E+01;0.0;-0.004971996;1,00E+01;0.009581566;1,00E+01;-0.1;0.020000001;0.0;0.0;0.0;180.0;0.0;0.0;0.0;0;0.9999942;-0.0014774131;0.0028523542;-0.0011438538;0.16892445184480878;-0.3270506338404669;0.13155879958243527;347.348;-0.09073963;-0.044300567;0;0;2652;GPS_Atti;OTHER;NONE;GPS_POSITION_NONMATCH;FALSE;Connected;;P;FALSE;FALSE;FALSE;0;0;0.1;0.0;0.1;;;;;;;
39169300;6.896;;;34.587.967;34.590.717;;;0;-0.19703916435628013;0.31535859420183204;-0.05613486018321041;0.0072024353;0.0041458993;-10.048.462;10.048.805;-11.767.045;10.586.962;0.54990625;16.756.694;2,39E+02;4,40E+03;4,40E+03;6,67E+02;5,01E+11;0;0;0;0.0;51.8;-0.05613486018321041;0.3718519961432382;-14.805.874.418.146.200;-14.800.260.932.127.800;3.599.438.651.398.160;NaN;NaN;0.0;0.0;0.0;-0.0;NaN;NaN;NaN;NaN;NaN;NaN;NaN;NaN;FALSE;FALSE;39.106.574.514.559.800;-7.676.739.390.849.290;687.758.198.941.761;;0.0;;;0.99999464;-0.0017181354;0.0027528573;-4,95E+02;0.013550773;0.010232583;-0.005177498;-0.021534543;0.017759014;0.010524395;400;4673;0;0;5331;660;0.0;0.0;0.0;0.0;GPS_Atti;2;0;0;0;0;10;5000;0.0;0.0;17;5;3;2;0;0;;;;;;;1,00E+01;0.0;1.0;1,00E+01;0.0;1,00E+01;1,00E+01;0.0;0.0054958872;1,00E+01;0.009547234;1,00E+01;-0.1;0.020000001;0.0;0.0;0.0;180.0;0.0;0.0;0.0;0;0.9999942;-0.0014598675;0.0028367783;-0.0011858412;0.16690227115163542;-0.325270458727728;0.1363618633933695;3.473.348;-0.08814196;-0.0280641;0;0;2672;GPS_Atti;OTHER;NONE;GPS_POSITION_NONMATCH;FALSE;Connected;;P;FALSE;FALSE;FALSE;0;0;0.1;0.0;0.1;;;;;;;
39324347;6.930;;;34.614.388;34.590.946;;;0;-0.19423746403097247;0.31610978806361717;-0.057531339258088475;0.0066854907;0.0036615764;-10.031.729;10.032.018;-10.994.321;10.106.403;0.5705023;159.863;3,08E+03;2,87E+03;6,94E+03;8,12E+03;4,21E+11;0;0;0;0.0;51.86;-0.057531339258088475;0.3710149045007794;-1.484.885.467.245.910;-14.843.101.538.533.300;3.599.424.686.607.410;NaN;NaN;0.0;0.0;0.0;-0.0;NaN;NaN;NaN;NaN;NaN;NaN;NaN;NaN;FALSE;FALSE;39.397.736.741.948.000;-773.588.969.114.482;6.931.358.141.668.350;;0.0;;;0.99999464;-0.0016936492;0.0027594215;-5,07E+02;0.011523876;0.0032715108;0.014364243;-0.021526106;0.017757256;0.010517863;300;4671;0;0;5371;670;0.0;0.0;0.0;0.0;GPS_Atti;2;0;0;0;0;10;5000;0.0;0.0;17;5;3;2;0;0;;;;;;;1,00E+01;0.0;1.0;1,00E+01;0.0;1,00E+01;1,00E+01;0.0;0.0054958872;1,00E+01;0.009547234;1,00E+01;-0.1;0.020000001;0.0;0.0;0.0;180.0;0.0;0.0;0.0;0;0.9999942;-0.0014390062;0.0028450845;-0.0012293635;0.1644964156880596;-0.3262265393321625;0.14134370734965235;3.473.407;-0.09040407;-0.008446107;0;0;2692;GPS_Atti;OTHER;NONE;GPS_POSITION_NONMATCH;FALSE;Connected;;P;FALSE;FALSE;FALSE;0;0;0.1;0.0;0.1;;;;;;;
39704092;7.015;;;34.614.388;34.590.946;;;0;-0.19423746403097247;0.31610978806361717;-0.057531339258088475;0.0066854907;0.0036615764;-10.031.729;10.032.018;-10.994.321;10.106.403;0.5705023;159.863;3,08E+03;2,87E+03;6,94E+03;8,12E+03;4,21E+11;0;0;0;0.0;51.86;-0.057531339258088475;0.3710149045007794;-1.484.885.467.245.910;-14.843.101.538.533.300;3.599.424.686.607.410;NaN;NaN;0.0;0.0;0.0;-0.0;NaN;NaN;NaN;NaN;NaN;NaN;NaN;NaN;FALSE;FALSE;39.397.736.741.948.000;-773.588.969.114.482;6.931.358.141.668.350;;0.0;;;0.99999464;-0.0016936492;0.0027594215;-5,07E+02;0.011523876;0.0032715108;0.014364243;-0.021526106;0.017757256;0.010517863;300;4671;0;0;5371;670;0.0;0.0;0.0;0.0;GPS_Atti;2;0;0;0;0;10;5000;0.0;0.0;17;5;3;2;0;0;;;;;;;1,00E+01;0.0;1.0;1,00E+01;0.0;1,00E+01;1,00E+01;0.0;0.0054958872;1,00E+01;0.009547234;1,00E+01;-0.1;0.020000001;0.0;0.0;0.0;180.0;0.0;0.0;0.0;0;0.9999942;-0.0014390062;0.0028450845;-0.0012293635;0.1644964156880596;-0.3262265393321625;0.14134370734965235;3.473.407;-0.09040407;-0.008446107;0;0;2692;GPS_Atti;OTHER;NONE;GPS_POSITION_NONMATCH;FALSE;Connected;;P;FALSE;FALSE;FALSE;0;0;0.1;0.0;0.1;;;;;;;
39915417;7.062;;;34.611.748;345.917;;;0;-0.1933330154782722;0.31244222525927495;-0.05821272788756971;0.006780086;0.0032940197;-10.045.658;10.045.941;-14.878.951;11.227.785;0.4432722;19.159.733;2,17E+03;-1,46E+02;8,99E+03;9,25E+03;2,18E+11;0;0;0;0.0;52.05;-0.05821272788756971;0.3674184495087217;-14.830.997.408.572.600;-14.825.176.135.783.900;35.994.178.727.211.200;NaN;NaN;0.0;0.0;0.0;-0.0;NaN;NaN;NaN;NaN;NaN;NaN;NaN;NaN;FALSE;FALSE;39.925.678.220.507.200;-7.870.629.457.298.800;7.042.459.801.078.240;;0.0;;;0.99999475;-0.0016857565;0.0027274222;-5,13E+03;0.014550563;-0.0031220932;-0.0014533997;-0.021506304;0.01775103;0.010504933;200;4674;0;0;5451;680;0.0;0.0;0.0;0.0;GPS_Atti;2;0;0;0;0;10;5000;0.0;0.0;17;5;3;2;0;0;;;;;;;1,00E+01;0.0;1.0;1,00E+01;0.0;1,00E+01;1,00E+01;0.0;0.0054958872;1,00E+01;0.009547234;1,00E+01;-0.1;0.020000001;0.0;0.0;0.0;180.0;0.0;0.0;0.0;0;0.9999942;-0.0014322605;0.0028235002;-0.001299433;0.1637037822991355;-0.32376363622012033;0.14936732733136548;347.375;-0.09264537;-0.02396564;0;0;2732;GPS_Atti;OTHER;NONE;GPS_POSITION_NONMATCH;FALSE;Connected;;P;FALSE;FALSE;FALSE;0;0;0.1;0.0;0.1;;;;;;;
40106806;7.104;;;34.656.666;34.592.274;;;0;-0.1941274514942501;0.3106801757913546;-0.056332126113930577;0.0070669483;0.004550641;-10.047.628;10.047.979;-14.187.104;0.9982876;0.538777;18.164.794;2,65E+03;3,46E+03;8,14E+02;4,43E+02;4,36E+11;0;0;0;0.0;51.97;-0.056332126113930577;0.3663415915439405;-14.805.742.348.902.500;-148.001.091.362.912;35.994.366.787.388.600;NaN;NaN;0.0;0.0;0.0;-0.0;NaN;NaN;NaN;NaN;NaN;NaN;NaN;NaN;FALSE;FALSE;4.018.153.102.456.820;-7.946.355.109.862.650;70.977.198.353.552.800;;0.0;;;0.9999948;-0.0016927416;0.002712021;-4,96E+03;0.015481025;0.012162164;-0.003129959;-0.021496963;0.017745849;0.0104992045;300;4673;0;0;5491;680;0.0;0.0;0.0;0.0;GPS_Atti;2;0;0;0;0;10;5000;0.0;0.0;17;5;3;2;0;0;;;;;;;1,00E+01;0.0;1.0;1,00E+01;0.0;1,00E+01;1,00E+01;0.0;0.0060559846;1,00E+01;0.019348145;1,00E+01;-0.1;0.020000001;0.0;0.0;0.0;180.0;0.0;0.0;0.0;0;0.9999942;-0.001432359;0.0028034493;-0.0013160532;0.16371272577162188;-0.3214687266814122;0.15126863402839455;34.739.655;-0.0943357;-0.025397165;0;0;2752;GPS_Atti;OTHER;NONE;GPS_POSITION_NONMATCH;FALSE;Connected;;P;FALSE;FALSE;FALSE;0;0;0.1;0.0;0.1;;;;;;;
40261723;7.138;;;34.598.534;34.592.976;;;0;-0.19296909755870553;0.31504014568848454;-0.05907890177623226;0.005767823;0.0055924314;-10.050.982;10.051.303;-13.546.615;10.555.838;0.68260854;18.480.583;1,86E+03;4,75E+03;-4,80E+03;7,01E+02;5,11E+11;0;0;0;0.0;52.08;-0.05907890177623226;0.36943993418240484;-14.857.084.337.266.200;-14.851.176.447.088.600;3.599.409.210.982.230;NaN;NaN;0.0;0.0;0.0;-0.0;NaN;NaN;NaN;NaN;NaN;NaN;NaN;NaN;FALSE;FALSE;4.049.950.504.957.810;-8.018.556.734.266.010;7.151.190.074.855.790;;0.0;;;0.9999947;-0.0016825483;0.0027501043;-5,20E+02;0.0026987102;0.021409977;-0.006914139;-0.021488167;0.01774016;0.010493865;200;4676;0;0;5531;690;0.0;0.0;0.0;0.0;GPS_Atti;2;0;0;0;0;10;5000;0.0;0.0;17;5;3;2;0;0;;;;;;;1,00E+01;0.0;1.0;1,00E+01;0.0;1,00E+01;1,00E+01;0.0;0.0060559846;1,00E+01;0.019348145;1,00E+01;-0.1;0.020000001;0.0;0.0;0.0;180.0;0.0;0.0;0.0;0;0.9999941;-0.0014256221;0.0028338884;-0.0013726082;0.16291775590329025;-0.3249649700624963;0.15775213715141098;3.474.128;-0.09305216;-0.028904965;0;0;2772;GPS_Atti;OTHER;NONE;GPS_POSITION_NONMATCH;FALSE;Connected;;P;FALSE;FALSE;FALSE;0;0;0.1;0.0;0.1;;;;;;;
40415317;7.173;;;34.598.534;34.592.976;;;0;-0.19296909755870553;0.31504014568848454;-0.05907890177623226;0.005767823;0.0055924314;-10.050.982;10.051.303;-13.546.615;10.555.838;0.68260854;18.480.583;1,86E+03;4,75E+03;-4,80E+03;7,01E+02;5,11E+11;0;0;0;0.0;52.08;-0.05907890177623226;0.36943993418240484;-14.857.084.337.266.200;-14.851.176.447.088.600;3.599.409.210.982.230;NaN;NaN;0.0;0.0;0.0;-0.0;NaN;NaN;NaN;NaN;NaN;NaN;NaN;NaN;FALSE;FALSE;4.049.950.504.957.810;-8.018.556.734.266.010;7.151.190.074.855.790;;0.0;;;0.9999947;-0.0016825483;0.0027501043;-5,20E+02;0.0026987102;0.021409977;-0.006914139;-0.021488167;0.01774016;0.010493865;200;4676;0;0;5531;690;0.0;0.0;0.0;0.0;GPS_Atti;2;0;0;0;0;10;5000;0.0;0.0;17;5;3;2;0;0;;;;;;;1,00E+01;0.0;1.0;1,00E+01;0.0;1,00E+01;1,00E+01;0.0;0.0060559846;1,00E+01;0.019348145;1,00E+01;-0.1;0.020000001;0.0;0.0;0.0;180.0;0.0;0.0;0.0;0;0.9999941;-0.0014256221;0.0028338884;-0.0013726082;0.16291775590329025;-0.3249649700624963;0.15775213715141098;3.474.128;-0.09305216;-0.028904965;0;0;2772;GPS_Atti;OTHER;NONE;GPS_POSITION_NONMATCH;FALSE;Connected;;P;FALSE;FALSE;FALSE;0;0;0.1;0.0;0.1;;;;;;;
40575569;7.208;;;34.622.314;3.459.366;;;0;-0.19211659036257364;0.31458225136545104;-0.05807683309229854;0.005683494;0.004555197;-10.038.618;10.038.882;-12.380.847;1.166.961;0.6424053;18.186.082;2,38E+02;4,97E+02;-7,62E+02;9,41E+03;5,51E+11;0;0;0;0.0;52.02;-0.05807683309229854;0.36860452205905986;-14.864.566.460.195.300;-14.858.758.776.886.100;3.599.419.231.669.070;NaN;NaN;0.0;0.0;0.0;-0.0;NaN;NaN;NaN;NaN;NaN;NaN;NaN;NaN;FALSE;FALSE;4.084.503.248.673.530;-808.616.847.667.966;72.091.479.765.424.700;;0.0;;;0.9999947;-0.0016751349;0.00274609;-5,11E+02;-0.0010948125;0.01590783;0.0060777664;-0.02147919;0.017735321;0.010487614;400;4677;0;0;5571;690;0.0;0.0;0.0;0.0;GPS_Atti;2;0;0;0;0;10;5000;0.0;0.0;17;5;3;2;0;0;;;;;;;1,00E+01;0.0;1.0;1,00E+01;0.0;1,00E+01;1,00E+01;0.0;0.01612376;1,00E+01;-0.0100317;1,00E+01;-0.1;0.020000001;0.0;0.0;0.0;180.0;0.0;0.0;0.0;0;0.99999404;-0.0014177745;0.0028285857;-0.0013968252;0.16201147240047895;-0.3243600489168993;0.160523806545671;34.740.692;-0.08909724;-0.015504491;0;0;2792;GPS_Atti;OTHER;NONE;GPS_POSITION_NONMATCH;FALSE;Connected;;P;FALSE;FALSE;FALSE;0;0;0.1;0.0;0.1;;;;;;;
40730699;7.243;;;34.577.396;34.594.223;;;0;-0.19383168035193496;0.3210837219938029;-0.05958844144004494;0.006401836;0.0057001407;-10.035.727;10.036.093;-12.404.625;10.073.313;0.47096226;16.659.138;1,65E+03;4,07E+03;-8,43E+02;4,47E+02;4,39E+12;0;0;0;0.0;52.05;-0.05958844144004494;0.37505186799407986;-14.894.123.503.846.300;-14.888.164.659.702.300;35.994.041.155.855.900;NaN;NaN;0.0;0.0;0.0;-0.0;NaN;NaN;NaN;NaN;NaN;NaN;NaN;NaN;FALSE;FALSE;4.113.489.054.317.870;-8.150.695.855.176.670;7.265.754.272.082.760;;0.0;;;0.9999945;-0.0016900358;0.0028028556;-5,25E+01;0.008064071;0.021027338;0.0052700043;-0.021471012;0.017730169;0.010481211;300;4680;0;0;5611;700;0.0;0.0;0.0;0.0;GPS_Atti;2;0;0;0;0;10;5000;0.0;0.0;17;5;3;2;0;0;;;;;;;1,00E+01;0.0;1.0;1,00E+01;0.0;1,00E+01;1,00E+01;0.0;0.01612376;1,00E+01;-0.0100317;1,00E+01;-0.1;0.020000001;0.0;0.0;0.0;180.0;0.0;0.0;0.0;0;0.99999386;-0.0014247274;0.002880503;-0.0014440726;0.16278426507696714;-0.3303181344786254;0.16594864548012145;34.741.646;-0.09003652;-0.016334368;0;0;2812;GPS_Atti;OTHER;NONE;GPS_POSITION_NONMATCH;FALSE;Connected;;P;FALSE;FALSE;FALSE;0;0;0.1;0.0;0.1;;;;;;;
40953467;7.292;;;34.590.607;34.594.814;;;0;-0.19157897687900555;0.3218292673555471;-0.05812837144212876;0.0065291626;0.0036378365;-10.056.208;10.056.486;-1.091.191;11.447.581;0.61526513;16.969.739;4,25E+03;3,77E+03;-6,22E+01;5,71E+03;5,68E+11;0;0;0;0.0;52.19;-0.05812837144212876;0.3745330930179237;-14.929.374.779.901.000;-14.923.561.942.756.800;35.994.187.162.855.700;NaN;NaN;0.0;0.0;0.0;-0.0;NaN;NaN;NaN;NaN;NaN;NaN;NaN;NaN;FALSE;FALSE;41.417.915.918.154.900;-8.211.448.984.844.900;7.321.828.709.584.240;;0.0;;;0.9999946;-0.0016704098;0.0028093301;-5,12E+02;0.009476498;0.0023904573;-0.010538101;-0.021463532;0.017725276;0.010475592;400;4680;0;0;5651;700;0.0;0.0;0.0;0.0;GPS_Atti;2;0;0;0;0;10;5000;0.0;0.0;17;5;3;2;0;0;;;;;;;1,00E+01;0.0;1.0;1,00E+01;0.0;1,00E+01;1,00E+01;0.0;0.01612376;1,00E+01;-0.0100317;1,00E+01;-0.1;0.020000001;0.0;0.0;0.0;180.0;0.0;0.0;0.0;0;0.99999386;-0.0014247274;0.002880503;-0.0014440726;0.16278426507696714;-0.3303181344786254;0.16594864548012145;34.741.646;-0.09003652;-0.016334368;0;0;2812;GPS_Atti;OTHER;NONE;GPS_POSITION_NONMATCH;FALSE;Connected;;P;FALSE;FALSE;FALSE;0;0;0.1;0.0;0.1;;;;;;;
41111104;7.327;;;34.590.607;34.594.814;;;0;-0.19157897687900555;0.3218292673555471;-0.05812837144212876;0.0065291626;0.0036378365;-10.056.208;10.056.486;-1.091.191;11.447.581;0.61526513;16.969.739;4,25E+03;3,77E+03;-6,22E+01;5,71E+03;5,68E+11;0;0;0;0.0;52.19;-0.05812837144212876;0.3745330930179237;-14.929.374.779.901.000;-14.923.561.942.756.800;35.994.187.162.855.700;NaN;NaN;0.0;0.0;0.0;-0.0;NaN;NaN;NaN;NaN;NaN;NaN;NaN;NaN;FALSE;FALSE;41.417.915.918.154.900;-8.211.448.984.844.900;7.321.828.709.584.240;;0.0;;;0.9999946;-0.0016704098;0.0028093301;-5,12E+02;0.009476498;0.0023904573;-0.010538101;-0.021463532;0.017725276;0.010475592;400;4680;0;0;5651;700;0.0;0.0;0.0;0.0;GPS_Atti;2;0;0;0;0;10;5000;0.0;0.0;17;5;3;2;0;0;;;;;;;1,00E+01;0.0;1.0;1,00E+01;0.0;1,00E+01;1,00E+01;0.0;-0.0035245232;1,00E+01;-0.019818306;1,00E+01;-0.1;0.020000001;0.0;0.0;0.0;180.0;0.0;0.0;0.0;0;0.9999938;-0.0014116366;0.0028935722;-0.0014652583;0.16127498085700054;-0.3318170107310808;0.16837413240828436;34.740.192;-0.08543437;-0.031686973;0;0;2832;GPS_Atti;OTHER;NONE;GPS_POSITION_NONMATCH;FALSE;Connected;;P;FALSE;FALSE;FALSE;0;0;0.1;0.0;0.1;;;;;;;
41513059;7.417;;;34.572.113;34.595.333;;;0;-0.19024113149686755;0.3199421817354371;-0.05888432142250728;0.0058371453;0.004865345;-10.031.911;10.032.198;-11.071.993;0.9929078;0.5505663;15.858.371;2,30E+03;3,74E+03;6,27E+02;7,65E+02;4,38E+12;0;0;0;0.0;52.17;-0.05888432142250728;0.3722273271986992;-149.322.872.503.192;-1.492.639.881.817.690;3.599.411.156.785.770;NaN;NaN;0.0;0.0;0.0;-0.0;NaN;NaN;NaN;NaN;NaN;NaN;NaN;NaN;FALSE;FALSE;4.172.111.018.876.650;-8.268.621.860.481.880;737.742.234.308.384;;0.0;;;0.99999464;-0.001658725;0.0027928674;-5,18E+02;-9,40E+01;0.01786078;0.010434151;-0.021456305;0.01772204;0.0104696425;200;4680;0;0;5691;710;0.0;0.0;0.0;0.0;GPS_Atti;2;0;0;0;0;10;5000;0.0;0.0;17;5;3;2;0;0;;;;;;;1,00E+01;0.0;1.0;1,00E+01;0.0;1,00E+01;1,00E+01;0.0;-0.0035245232;1,00E+01;-0.019818306;1,00E+01;-0.1;0.020000001;0.0;0.0;0.0;180.0;0.0;0.0;0.0;0;0.9999938;-0.00140111;0.0028720924;-0.0015057009;0.16005902315559822;-0.32936030130626487;0.1730015803426671;34.739.567;-0.08429013;-0.010515099;0;0;2852;GPS_Atti;OTHER;NONE;GPS_POSITION_NONMATCH;FALSE;Connected;;P;FALSE;FALSE;FALSE;0;0;0.1;0.0;0.1;;;;;;;
