Clock:Tick#,Clock:offsetTime,IMU_ATTI(0):Longitude,IMU_ATTI(0):Latitude,IMU_ATTI(0):press:D,IMU_ATTI(0):alti:D,IMU_ATTI(0):relativeHeight:C,IMU_ATTI(0):absoluteHeight:C,IMU_ATTI(0):numSats,IMU_ATTI(0):roll:C,IMU_ATTI(0):pitch:C,IMU_ATTI(0):yaw:C,IMU_ATTI(0):accelX,IMU_ATTI(0):accelY,IMU_ATTI(0):accelZ,IMU_ATTI(0):accelComposite:C,IMU_ATTI(0):gyroX,IMU_ATTI(0):gyroY,IMU_ATTI(0):gyroZ,IMU_ATTI(0):gyroComposite:C,IMU_ATTI(0):velN,IMU_ATTI(0):velE,IMU_ATTI(0):velD,IMU_ATTI(0):velComposite:C,IMU_ATTI(0):velH:C,IMU_ATTI(0):magX,IMU_ATTI(0):magY,IMU_ATTI(0):magZ,IMU_ATTI(0):magMod:C,IMU_ATTI(0):temperature,IMU_ATTI(0):yawUnWrapped:C,IMU_ATTI(0):tiltInclination:C,IMU_ATTI(0):tiltDirectionEarthFrame:C,IMU_ATTI(0):tiltDirectionBodyFrame:C,IMU_ATTI(0):yaw360:C,IMU_ATTI(0):magYaw:C,IMU_ATTI(0):Yaw-magYaw:C,IMUCalcs(0):PosN:C,IMUCalcs(0):PosE:C,IMUCalcs(0):PosD:C,IMUCalcs(0):height:C,IMUCalcs(0):velN:C,IMUCalcs(0):velE:C,IMUCalcs(0):velD:C,IMUCalcs(0):diffVelN:C,IMUCalcs(0):diffVelE:C,IMUCalcs(0):diffVelD:C,IMUCalcs(0):Lat:C,IMUCalcs(0):Long:C,IMUCalcs(0):VelocityError:C,IMUCalcs(0):PositionError:C,IMUCalcs(0):totalGyroZ:C,IMUCalcs(0):totalGyroX:C,IMUCalcs(0):totalGyroY:C,IMU_ATTI(0):distanceHP:C,IMU_ATTI(0):distanceTravelled:C,IMU_ATTI(0):directionOfTravel[mag]:C,IMU_ATTI(0):directionOfTravel[true]:C,IMU_ATTI(0):quatW:D,IMU_ATTI(0):quatX:D,IMU_ATTI(0):quatY:D,IMU_ATTI(0):quatZ:D,IMU_ATTI(0):agX:D,IMU_ATTI(0):agY:D,IMU_ATTI(0):agZ:D,IMU_ATTI(0):gbX:D,IMU_ATTI(0):gbY:D,IMU_ATTI(0):gbZ:D,IMU_ATTI(0):ty:D,IMU_ATTI(0):tz:D,IMU_ATTI(0):sensor_stat:D,IMU_ATTI(0):filter_stat:D,IMU_ATTI(0):atti_cnt:D,Controller:ctrl_tick:D,Controller:ctrl_pitch:D,Controller:ctrl_roll:D,Controller:ctrl_yaw:D,Controller:ctrl_thr:D,Controller:ctrl_mode,Controller:mode_switch:D,Controller:motor_state:D,Controller:sig_level:D,Controller:ctrl_level:D,Controller:sim_model:D,Controller:max_height:D,Controller:max_radius:D,Controller:D2H_x:D,Controller:D2H_y:D,Controller:act_req_id:D,Controller:act_act_id:D,Controller:cmd_mod:D,Controller:mod_req_id:D,Controller:is_soaring_up:D,Controller:eagle_temp_level:D,MVO:velX,MVO:velY,MVO:velZ,MVO:posX,MVO:posY,MVO:posZ,MVO:hoverPointUncertainty1,MVO:hoverPointUncertainty2,MVO:hoverPointUncertainty3,MVO:hoverPointUncertainty4,MVO:hoverPointUncertainty5,MVO:hoverPointUncertainty6,MVO:velocityUncertainty1,MVO:velocityUncertainty2,MVO:velocityUncertainty3,MVO:velocityUncertainty4,MVO:velocityUncertainty5,MVO:velocityUncertainty6,MVO:height,MVO:heightUncertainty,AirSpeed:comp_alti:D,AirSpeed:windSpeed,AirSpeed:windDirection,AirSpeed:windFromDir,AirSpeed:windN,AirSpeed:windE,AirSpeed:MotorSpd:D,AirSpeed:vel_level:D,ATTI_MINI0:s_qw0,ATTI_MINI0:s_qx0,ATTI_MINI0:s_qy0,ATTI_MINI0:s_qz0,ATTI_MINI0:roll:C,ATTI_MINI0:pitch:C,ATTI_MINI0:yaw:C,ATTI_MINI0:s_pgz0,ATTI_MINI0:s_vgz0,ATTI_MINI0:s_agz0,ATTI_MINI0:s_rsv00,ATTI_MINI0:s_rsv10,ATTI_MINI0:s_cnt0,osd_data:flyCState,osd_data:flycCommand,osd_data:flightAction,osd_data:nonGPSCause,osd_data:compassError,osd_data:connectedToRC,osd_data:lowVoltage,osd_data:ModeSwitch,osd_data:gpsUsed,osd_data:visionUsed,osd_data:notEnoughForce,osd_data:flightTime,osd_data:navHealth,osd_data:vpsHeight,osd_data:relativeHeight,usonic:usonic_h,MotorCtrl:PWM:RFront,MotorCtrl:PWM:LFront,MotorCtrl:PWM:LBack,MotorCtrl:PWM:RBack,Attribute|Value,ConvertDatV3,4.3.0
0,-1.809,,,,,,,,,,,,,,,,,,,,,,,,,,,,,,,,,,,,,,,,,,,,,,,,,,,,,,,,,,,,,,,,,,,,,,,,,,,,,,,,,,,,,,,,,,,,,,,,,,,,,,,,,,,,,,,,,,,,,,,,,,,,,,,,,,,,,,,,,,,,,,,,,,,,,,,,,
8142136,.000,,,35.063583,-0.0,,,0,NaN,0.0,0.0,-0.007916293,0.0067614447,-1.0084704,1.0085242,1.666015,1.4321898,0.85991675,2.359286,0.0,0.0,0.0,0.0,0.0,0,0,0,0.0,53.34,0.0,NaN,NaN,NaN,0.0,NaN,NaN,0.0,0.0,0.0,-0.0,NaN,NaN,NaN,NaN,NaN,NaN,NaN,NaN,false,false,0.0,0.0,0.0,,0.0,,,0.0,0.0,0.0,0.0,0.0,0.0,0.0,0.0,0.0,0.0,700,5134,0,0,39,,,,,,,,,,,,,,,,,,,,,,,,,,,,,,,,,,,,,,,,0.0,,,,,,,,,,,,,,,,,,,,,,,,,,,,,,P,,,,,,,,,,,,,Firmware Date| May  7 2019
8345580,.045,,,35.063583,-0.0,,,0,NaN,0.0,0.0,-0.007916293,0.0067614447,-1.0084704,1.0085242,1.666015,1.4321898,0.85991675,2.359286,0.0,0.0,0.0,0.0,0.0,0,0,0,0.0,53.34,0.0,NaN,NaN,NaN,0.0,NaN,NaN,0.0,0.0,0.0,-0.0,NaN,NaN,NaN,NaN,NaN,NaN,NaN,NaN,false,false,0.0,0.0,0.0,,0.0,,,0.0,0.0,0.0,0.0,0.0,0.0,0.0,0.0,0.0,0.0,700,5134,0,0,39,10,0.0,0.0,0.0,0.0,Manual,0,0,0,0,0,500,5000,0.0,0.0,17,5,26,17,0,0,,,,,,,,,,,,,,,,,,,0.0,,,,,,,,,,0.0,0.0,0.0,0.0,NaN,NaN,NaN,-0.0,0.0,0.0,0,0,20,,,,,,,,P,,,,,,,,,,,,,ACType|Tello
8610886,.104,,,35.08208,-0.0,,,0,NaN,0.0,0.0,0.0062061017,-0.0036827417,-1.0062255,1.0062513,-1.0646727,0.6943691,0.57988954,1.3971214,0.0,0.0,0.0,0.0,0.0,0,0,0,0.0,53.58,0.0,NaN,NaN,NaN,0.0,NaN,NaN,0.0,0.0,0.0,-0.0,NaN,NaN,NaN,NaN,NaN,NaN,NaN,NaN,false,false,0.01510116326242894,-0.027725619099541632,0.01808237631003351,,0.0,,,0.0,0.0,0.0,0.0,0.0,0.0,0.0,0.0,0.0,0.0,700,5137,0,0,119,10,0.0,0.0,0.0,0.0,Manual,0,0,0,0,0,500,5000,0.0,0.0,17,5,26,17,0,0,,,,,,,,,,,,,,,,,,,0.0,,,,,,,,,,0.0,0.0,0.0,0.0,NaN,NaN,NaN,-0.0,0.0,0.0,0,0,40,,,,,,,,P,,,,,,,,,,,,,
8814335,.149,,,35.08208,-0.0,,,0,NaN,0.0,0.0,0.0062061017,-0.0036827417,-1.0062255,1.0062513,-1.0646727,0.6943691,0.57988954,1.3971214,0.0,0.0,0.0,0.0,0.0,0,0,0,0.0,53.58,0.0,NaN,NaN,NaN,0.0,NaN,NaN,0.0,0.0,0.0,-0.0,NaN,NaN,NaN,NaN,NaN,NaN,NaN,NaN,false,false,0.01510116326242894,-0.027725619099541632,0.01808237631003351,,0.0,,,0.0,0.0,0.0,0.0,0.0,0.0,0.0,0.0,0.0,0.0,700,5137,0,0,119,20,0.0,0.0,0.0,0.0,Manual,0,0,0,0,0,500,5000,0.0,0.0,17,5,26,17,0,0,,,,,,,,,,,,,,,,,,,0.0,,,,,,,,,,0.0,0.0,0.0,0.0,NaN,NaN,NaN,-0.0,0.0,0.0,0,0,60,,,,,,,,P,,,,,,,,,,,,,
9079716,.208,,,34.989597,-0.0,,,0,NaN,0.0,0.0,0.006516169,-0.004197568,-1.0074522,1.007482,-1.1248417,0.8285511,0.53736746,1.4968399,0.0,0.0,0.0,0.0,0.0,0,0,0,0.0,53.53,0.0,NaN,NaN,NaN,0.0,NaN,NaN,0.0,0.0,0.0,-0.0,NaN,NaN,NaN,NaN,NaN,NaN,NaN,NaN,false,false,0.0682843999264513,-0.1343065335779663,0.10682810312847835,,0.0,,,0.0,0.0,0.0,0.0,0.0,0.0,0.0,0.0,0.0,0.0,700,5142,0,0,199,20,0.0,0.0,0.0,0.0,Manual,0,0,0,0,0,500,5000,0.0,0.0,17,5,26,17,0,0,,,,,,,,,,,,,,,,,,,0.0,,0.0,0.0,0.0,180.0,0.0,0.0,0.0,0,0.0,0.0,0.0,0.0,NaN,NaN,NaN,-0.0,0.0,0.0,0,0,80,,,,,,,,P,,,,,,,,,,,,,
9236416,.243,,,34.989597,-0.0,,,0,NaN,0.0,0.0,0.006516169,-0.004197568,-1.0074522,1.007482,-1.1248417,0.8285511,0.53736746,1.4968399,0.0,0.0,0.0,0.0,0.0,0,0,0,0.0,53.53,0.0,NaN,NaN,NaN,0.0,NaN,NaN,0.0,0.0,0.0,-0.0,NaN,NaN,NaN,NaN,NaN,NaN,NaN,NaN,false,false,0.0682843999264513,-0.1343065335779663,0.10682810312847835,,0.0,,,0.0,0.0,0.0,0.0,0.0,0.0,0.0,0.0,0.0,0.0,700,5142,0,0,199,20,0.0,0.0,0.0,0.0,Manual,0,0,0,0,0,500,5000,0.0,0.0,17,5,26,17,0,0,,,,,,,,,,,,,,,,,,,0.0,,0.0,0.0,0.0,180.0,0.0,0.0,0.0,0,0.0,0.0,0.0,0.0,NaN,NaN,NaN,-0.0,0.0,0.0,0,0,100,Manual,OTHER,NONE,GPS_POSITION_NONMATCH,False,Connected,,P,False,False,True,0,0,,0.0,,,,,,
9751853,.358,,,34.997524,-0.0,,,0,NaN,0.0,0.0,0.005059626,-0.003928633,-1.0053244,1.0053447,-0.96562546,0.7339796,0.56738305,1.3390601,0.0,0.0,0.0,0.0,0.0,0,0,0,0.0,53.6,0.0,NaN,NaN,NaN,0.0,NaN,NaN,0.0,0.0,0.0,-0.0,NaN,NaN,NaN,NaN,NaN,NaN,NaN,NaN,false,false,0.09704573547933748,-0.18873024874539013,0.14750739596416196,,0.0,,,0.0,0.0,0.0,0.0,0.0,0.0,0.0,0.0,0.0,0.0,700,5142,0,0,239,30,0.0,0.0,0.0,0.0,Manual,0,0,0,0,0,500,5000,0.0,0.0,17,5,26,17,0,0,,,,,,,,,,,,,,,,,,,0.0,,0.0,0.0,0.0,180.0,0.0,0.0,0.0,0,0.0,0.0,0.0,0.0,NaN,NaN,NaN,-0.0,0.0,0.0,0,0,100,Manual,OTHER,NONE,GPS_POSITION_NONMATCH,False,Connected,,P,False,False,True,0,0,,0.0,,,,,,
27028509,4.197,,,34.997524,-0.0,,,0,NaN,0.0,0.0,0.005059626,-0.003928633,-1.0053244,1.0053447,-0.96562546,0.7339796,0.56738305,1.3390601,0.0,0.0,0.0,0.0,0.0,0,0,0,0.0,53.6,0.0,NaN,NaN,NaN,0.0,NaN,NaN,0.0,0.0,0.0,-0.0,NaN,NaN,NaN,NaN,NaN,NaN,NaN,NaN,false,false,0.09704573547933748,-0.18873024874539013,0.14750739596416196,,0.0,,,0.0,0.0,0.0,0.0,0.0,0.0,0.0,0.0,0.0,0.0,700,5142,0,0,239,30,0.0,0.0,0.0,0.0,Manual,0,0,0,0,0,500,5000,0.0,0.0,17,5,26,17,0,0,,,,,,,,,,,,,,,,,,,0.0,,0.0,0.0,0.0,180.0,0.0,0.0,0.0,0,0.0,0.0,0.0,0.0,NaN,NaN,NaN,-0.0,0.0,0.0,0,0,100,Manual,OTHER,NONE,GPS_POSITION_NONMATCH,False,Connected,,P,False,False,True,0,0,,0.0,,,,,,
27263108,4.249,,,35.074154,35.07293,,,0,0.19706292278692863,0.40269699483807603,-0.01263428464648091,0.0076646768,-0.0045942,-1.0039928,1.0040326,-1.009263,0.78498477,0.40995952,1.3427136,9.039146E-5,4.8724913E-5,0.005716382,0.0057173045,1.0268755078734556E-4,0,0,0,0.0,55.59,-0.01263428464648091,0.448325894303333,153.91247295466678,153.92510723931326,359.9873657153535,NaN,NaN,0.0,0.0,0.0,-0.0,NaN,NaN,NaN,NaN,NaN,NaN,NaN,NaN,false,false,2.03160360976101,-4.097836635819082,3.1541547244174026,,0.0,,,0.9999924,0.0017200744,0.003513992,-1.0421075E-4,0.00872869,-0.014362719,0.014725685,-0.018329745,0.014856526,0.009427911,800,5125,0,0,3291,410,0.0,0.0,0.0,0.0,GPS_Atti,2,0,0,0,0,10,5000,0.0,0.0,17,5,3,2,0,0,,,,,,,,,,,,,,,,,,,0.0,,0.0,0.0,0.0,180.0,0.0,0.0,0.0,0,0.99999166,0.0016767838,0.0037318016,2.4636372E-4,-0.19203864947767835,-0.42768301740605114,-0.028948172830188638,35.18337,-0.090958,-0.030891329,0,0,1652,Manual,OTHER,NONE,GPS_POSITION_NONMATCH,False,Connected,,P,False,False,True,0,0,,0.0,,,,,,
27758087,4.359,,,35.074154,35.073036,,,0,0.19834110000931426,0.4028273769452867,-0.018856070518954285,0.0072341515,-0.00415024,-1.003764,1.0037986,-1.0036447,0.7290503,0.44822893,1.3189868,3.8996433E-5,-1.6871569E-4,0.004864757,0.0048678378,1.7316381366315435E-4,0,0,0,0.0,55.59,-0.018856070518954285,0.44900611902183035,153.76706319178638,153.78591926230533,359.98114392948105,NaN,NaN,0.0,0.0,0.0,-0.0,NaN,NaN,NaN,NaN,NaN,NaN,NaN,NaN,false,false,2.053968908778291,-4.150295141359326,3.1936120796351375,,0.0,,,0.9999924,0.0017314196,0.0035150344,-1.5846448E-4,0.0040917583,-0.009249913,0.016431808,-0.018326081,0.014858838,0.009427353,900,5126,0,0,3331,410,0.0,0.0,0.0,0.0,GPS_Atti,2,0,0,0,0,10,5000,0.0,0.0,17,5,3,2,0,0,,,,,,,1.0000001E-6,0.0,1.0,1.0000001E-6,0.0,1.0000001E-6,1.0000001E-6,0.0,-0.005402159,1.0000001E-6,0.029081345,1.0000001E-6,-0.1,0.020000001,0.0,0.0,0.0,180.0,0.0,0.0,0.0,0,0.99999166,0.0016967871,0.0037327756,1.9093722E-4,-0.1943545231508308,-0.42778442688565554,-0.022605526263766124,35.184566,-0.09183813,-0.028447287,0,0,1672,GPS_Atti,OTHER,NONE,GPS_POSITION_NONMATCH,False,Connected,,P,False,False,False,0,0,0.1,0.0,,,,,,
27923101,4.396,,,35.09529,35.073326,,,0,0.19131689410703126,0.406896321062065,-0.022800553637853466,0.0071387114,-0.0022439936,-1.0038949,1.0039228,-0.9913315,0.9276442,0.65158945,1.5059319,-6.1848885E-5,-1.8188616E-4,0.005289271,0.005292759,1.9211418448261534E-4,0,0,0,0.0,55.71,-0.022800553637853466,0.44962685509247724,154.7952424926995,154.81804304633732,359.97719944636214,NaN,NaN,0.0,0.0,0.0,-0.0,NaN,NaN,NaN,NaN,NaN,NaN,NaN,NaN,false,false,2.1112077627685615,-4.254121513901797,3.279832945568593,,0.0,,,0.9999923,0.0016702501,0.0035504955,-1.9304252E-4,-2.1281093E-4,0.012700142,0.016183853,-0.018316241,0.014863236,0.009419558,800,5125,0,0,3411,410,0.0,0.0,0.0,0.0,GPS_Atti,2,0,0,0,0,10,5000,0.0,0.0,17,5,3,2,0,0,,,,,,,1.0000001E-6,0.0,1007.5422,1.0000001E-6,0.0,1.0000001E-6,1.0000001E-6,0.0,-0.006485801,1.0000001E-6,0.038882256,1.0000001E-6,-0.1,0.020000001,0.0,0.0,0.0,180.0,0.0,0.0,0.0,0,0.99999154,0.0016603012,0.0037661497,1.5351882E-4,-0.19018898489706806,-0.43160095452205094,-0.018308446402086474,35.188175,-0.09181525,-0.02724958,0,0,1712,GPS_Atti,OTHER,NONE,GPS_POSITION_NONMATCH,False,Connected,,P,False,False,False,0,0,0.1,0.0,0.1,,,,,
28077936,4.430,,,35.0583,35.073544,,,0,0.1894488256938969,0.4054282170861417,-0.027612654876282915,0.0072034104,-0.0021779845,-1.0012394,1.0012677,-1.0779918,0.8196145,0.400522,1.41218,8.110303E-5,5.009194E-5,0.0055184723,0.0055192956,9.532525668540787E-5,0,0,0,0.0,55.75,-0.027612654876282915,0.447504749399798,154.92689224305204,154.95450489792833,359.9723873451237,NaN,NaN,0.0,0.0,0.0,-0.0,NaN,NaN,NaN,NaN,NaN,NaN,NaN,NaN,false,false,2.138624893510997,-4.308046323202351,3.325365023930125,,0.0,,,0.9999924,0.0016540943,0.0035376179,-2.3511479E-4,4.845485E-5,0.013268141,0.03987789,-0.01831322,0.01486432,0.009413708,800,5128,0,0,3451,430,0.0,0.0,0.0,0.0,GPS_Atti,2,0,0,0,0,10,5000,0.0,0.0,17,5,3,2,0,0,,,,,,,1.0000001E-6,0.0,1007.5422,1.0000001E-6,0.0,1.0000001E-6,1.0000001E-6,0.0,-0.006485801,1.0000001E-6,0.038882256,1.0000001E-6,-0.1,0.020000001,0.0,0.0,0.0,180.0,0.0,0.0,0.0,0,0.9999916,0.0016400169,0.0037548142,1.08872824E-4,-0.1878840088664258,-0.4302932179242823,-0.013181523089436728,35.188297,-0.08843711,-0.0026548365,0,0,1732,GPS_Atti,OTHER,NONE,GPS_POSITION_NONMATCH,False,Connected,,P,False,False,False,0,0,0.1,0.0,0.1,,,,,
28301006,4.480,,,35.01074,35.0737,,,0,0.18962283750018477,0.40478261539072663,-0.02837389661858648,0.0082058525,-0.0034740802,-1.0002847,1.0003244,-1.1112142,0.7195519,0.5570397,1.4362608,2.7846947E-4,-2.7783422E-4,0.0059615006,0.0059744646,3.9336636135917606E-4,0,0,0,0.0,55.73,-0.02837389661858648,0.4469937286228217,154.87088990316764,154.89926379978624,359.9716261033814,NaN,NaN,0.0,0.0,0.0,-0.0,NaN,NaN,NaN,NaN,NaN,NaN,NaN,NaN,false,false,2.1636119258882225,-4.36517242058142,3.3655287053596012,,0.0,,,0.9999924,0.001655635,0.0035319726,-2.4176178E-4,0.012752954,-0.0035165306,0.047392845,-0.018311223,0.014865394,0.009406147,0,5129,0,0,3491,430,0.0,0.0,0.0,0.0,GPS_Atti,2,0,0,0,0,10,5000,0.0,0.0,17,5,3,2,0,0,,,,,,,1.0000001E-6,0.0,1007.5422,1.0000001E-6,0.0,1.0000001E-6,1.0000001E-6,0.0,-0.006485801,1.0000001E-6,0.038882256,1.0000001E-6,-0.1,0.020000001,0.0,0.0,0.0,180.0,0.0,0.0,0.0,0,0.9999916,0.0016400169,0.0037548142,1.08872824E-4,-0.1878840088664258,-0.4302932179242823,-0.013181523089436728,35.188297,-0.08843711,-0.0026548365,0,0,1732,GPS_Atti,OTHER,NONE,GPS_POSITION_NONMATCH,False,Connected,,P,False,False,False,0,0,0.1,0.0,0.1,,,,,
28501907,4.524,,,35.01074,35.0737,,,0,0.18962283750018477,0.40478261539072663,-0.02837389661858648,0.0082058525,-0.0034740802,-1.0002847,1.0003244,-1.1112142,0.7195519,0.5570397,1.4362608,2.7846947E-4,-2.7783422E-4,0.0059615006,0.0059744646,3.9336636135917606E-4,0,0,0,0.0,55.73,-0.02837389661858648,0.4469937286228217,154.87088990316764,154.89926379978624,359.9716261033814,NaN,NaN,0.0,0.0,0.0,-0.0,NaN,NaN,NaN,NaN,NaN,NaN,NaN,NaN,false,false,2.1636119258882225,-4.36517242058142,3.3655287053596012,,0.0,,,0.9999924,0.001655635,0.0035319726,-2.4176178E-4,0.012752954,-0.0035165306,0.047392845,-0.018311223,0.014865394,0.009406147,0,5129,0,0,3491,440,0.0,0.0,0.0,0.0,GPS_Atti,2,0,0,0,0,10,5000,0.0,0.0,17,5,3,2,0,0,,,,,,,1.0000001E-6,0.0,1007.5422,1.0000001E-6,0.0,1.0000001E-6,1.0000001E-6,0.0,-0.006902706,1.0000001E-6,0.058412552,1.0000001E-6,-0.1,0.020000001,0.0,0.0,0.0,180.0,0.0,0.0,0.0,0,0.9999916,0.0016550096,0.0037549874,9.8910714E-5,-0.18960631170011866,-0.43031136709384105,-0.01204643656253001,35.186802,-0.08325485,0.0058649275,0,0,1752,GPS_Atti,OTHER,NONE,GPS_POSITION_NONMATCH,False,Connected,,P,False,False,False,0,0,0.1,0.0,0.1,,,,,
28668862,4.561,,,35.074154,35.073776,,,0,0.19015579472967442,0.40357483949808015,-0.029057931468726986,0.006441326,-0.0030487252,-1.0027155,1.0027407,-1.1337261,0.7005788,0.39532074,1.3901166,1.9488693E-4,8.1149476E-5,0.0047722347,0.004776902,2.11106979958036E-4,0,0,0,0.0,55.82,-0.029057931468726986,0.4461272076633769,154.74242006398063,154.77147799544935,359.97094206853126,NaN,NaN,0.0,0.0,0.0,-0.0,NaN,NaN,NaN,NaN,NaN,NaN,NaN,NaN,false,false,2.1883242735925315,-4.423425308405857,3.402379002356419,,0.0,,,0.99999243,0.0016603044,0.0035214217,-2.4773212E-4,-0.0062961187,0.003675866,0.024214745,-0.018310145,0.014865383,0.009397995,800,5128,0,0,3531,440,0.0,0.0,0.0,0.0,GPS_Atti,2,0,0,0,0,10,5000,0.0,0.0,17,5,3,2,0,0,,,,,,,1.0000001E-6,0.0,1007.5422,1.0000001E-6,0.0,1.0000001E-6,1.0000001E-6,0.0,-0.006902706,1.0000001E-6,0.058412552,1.0000001E-6,-0.1,0.020000001,0.0,0.0,0.0,180.0,0.0,0.0,0.0,0,0.99999166,0.0016480925,0.0037481277,8.828172E-5,-0.1888183247471984,-0.4295231720088843,-0.010824174379250148,35.186813,-0.08537563,-0.016612932,0,0,1772,GPS_Atti,OTHER,NONE,GPS_POSITION_NONMATCH,False,Connected,,P,False,False,False,0,0,0.1,0.0,0.1,,,,,
28860396,4.604,,,35.074154,35.07393,,,0,0.1889035650820724,0.4041761852305813,-0.03246475580975076,0.0074103083,-0.004012247,-1.0031104,1.0031458,-1.0631889,0.92542213,0.47539914,1.4875419,2.2614142E-4,-3.9039784E-5,0.0048831934,0.0048885825,2.2948648232285398E-4,0,0,0,0.0,55.73,-0.03246475580975076,0.44613963961979775,154.9174088668461,154.94987362265584,359.96753524419023,NaN,NaN,0.0,0.0,0.0,-0.0,NaN,NaN,NaN,NaN,NaN,NaN,NaN,NaN,false,false,2.2110346309480455,-4.480725855430908,3.444788809781123,,0.0,,,0.9999924,0.0016494828,0.0035266234,-2.774919E-4,0.0038761273,-0.008076729,0.01725483,-0.018310208,0.014863402,0.00938946,800,5130,0,0,3571,440,0.0,0.0,0.0,0.0,GPS_Atti,2,0,0,0,0,10,5000,0.0,0.0,17,5,3,2,0,0,,,,,,,1.0000001E-6,0.0,1007.5422,1.0000001E-6,0.0,1.0000001E-6,1.0000001E-6,0.0,-0.0069687255,1.0000001E-6,0.029083252,1.0000001E-6,-0.1,0.020000001,0.0,0.0,0.0,180.0,0.0,0.0,0.0,0,0.99999166,0.0016453848,0.0037562058,5.2495358E-5,-0.18852335872922016,-0.43044205011213055,-0.006723731456390039,35.18849,-0.087890916,-0.023082722,0,0,1792,GPS_Atti,OTHER,NONE,GPS_POSITION_NONMATCH,False,Connected,,P,False,False,False,0,0,0.1,0.0,0.1,,,,,
29015451,4.639,,,35.100574,35.07418,,,0,0.18768849668828375,0.407879711452872,-0.031620994437281995,0.0063698376,-0.0042466978,-1.0024678,1.002497,-1.0671753,0.80057365,0.5647711,1.4487056,1.788397E-5,-4.2946223E-5,0.0036257089,0.0036260074,4.652111739066543E-5,0,0,0,0.0,55.84,-0.031620994437281995,0.4489882521486995,155.25883859459447,155.29045958903174,359.9683790055627,NaN,NaN,0.0,0.0,0.0,-0.0,NaN,NaN,NaN,NaN,NaN,NaN,NaN,NaN,false,false,2.238105864874722,-4.536170228048238,3.4897091825628124,,0.0,,,0.9999923,0.0016388622,0.0035589575,-2.7011317E-4,-0.0078108124,-0.00836765,0.02558422,-0.018312579,0.014859271,0.009380123,800,5130,0,0,3611,450,0.0,0.0,0.0,0.0,GPS_Atti,2,0,0,0,0,10,5000,0.0,0.0,17,5,3,2,0,0,,,,,,,1.0000001E-6,0.0,1007.5422,1.0000001E-6,0.0,1.0000001E-6,1.0000001E-6,0.0,-0.0069687255,1.0000001E-6,0.029083252,1.0000001E-6,-0.1,0.020000001,0.0,0.0,0.0,180.0,0.0,0.0,0.0,0,0.9999916,0.0016265288,0.0037785973,5.2736897E-5,-0.1863623763346052,-0.433007860940687,-0.006747466055581541,35.189632,-0.089595385,-0.014113214,0,0,1812,GPS_Atti,OTHER,NONE,GPS_POSITION_NONMATCH,False,Connected,,P,False,False,False,0,0,0.1,0.0,0.1,,,,,
29632991,4.776,,,35.100574,35.07418,,,0,0.18768849668828375,0.407879711452872,-0.031620994437281995,0.0063698376,-0.0042466978,-1.0024678,1.002497,-1.0671753,0.80057365,0.5647711,1.4487056,1.788397E-5,-4.2946223E-5,0.0036257089,0.0036260074,4.652111739066543E-5,0,0,0,0.0,55.84,-0.031620994437281995,0.4489882521486995,155.25883859459447,155.29045958903174,359.9683790055627,NaN,NaN,0.0,0.0,0.0,-0.0,NaN,NaN,NaN,NaN,NaN,NaN,NaN,NaN,false,false,2.238105864874722,-4.536170228048238,3.4897091825628124,,0.0,,,0.9999923,0.0016388622,0.0035589575,-2.7011317E-4,-0.0078108124,-0.00836765,0.02558422,-0.018312579,0.014859271,0.009380123,800,5130,0,0,3611,450,0.0,0.0,0.0,0.0,GPS_Atti,2,0,0,0,0,10,5000,0.0,0.0,17,5,3,2,0,0,,,,,,,1.0000001E-6,0.0,1007.5422,1.0000001E-6,0.0,1.0000001E-6,1.0000001E-6,0.0,-0.0069687255,1.0000001E-6,0.029083252,1.0000001E-6,-0.1,0.020000001,0.0,0.0,0.0,180.0,0.0,0.0,0.0,0,0.9999916,0.0016265288,0.0037785973,5.2736897E-5,-0.1863623763346052,-0.433007860940687,-0.006747466055581541,35.189632,-0.089595385,-0.014113214,0,0,1812,GPS_Atti,OTHER,NONE,GPS_POSITION_NONMATCH,False,Connected,,P,False,False,False,0,0,0.1,0.0,0.1,,,,,
29797848,4.812,,,35.03716,35.075287,,,0,0.19215558152300236,0.4134967767319365,-0.032343099811646396,0.0071338387,-0.0037706417,-1.0024998,1.0025322,-0.9443351,1.0047964,0.54502296,1.4827119,4.03579E-4,-5.8330595E-5,0.0037149186,0.0037372315,4.0777256936633027E-4,0,0,0,0.0,55.87,-0.032343099811646396,0.4559613885021461,155.04324820002864,155.0755912998403,359.96765690018833,NaN,NaN,0.0,0.0,0.0,-0.0,NaN,NaN,NaN,NaN,NaN,NaN,NaN,NaN,false,false,2.324786301370505,-4.693279191032023,3.6307175599386525,,0.0,,,0.9999921,0.0016778805,0.0036079537,-2.7619366E-4,-0.0010078661,-0.0038759485,0.02244091,-0.018321304,0.014854249,0.009352873,800,5132,0,0,3731,450,0.0,0.0,0.0,0.0,GPS_Atti,2,0,0,0,0,10,5000,0.0,0.0,17,5,3,2,0,0,,,,,,,1.0000001E-6,0.0,1.0,1.0000001E-6,0.0,1.0000001E-6,1.0000001E-6,0.0,0.003328668,1.0000001E-6,0.019245148,1.0000001E-6,-0.1,0.020000001,0.0,0.0,0.0,180.0,0.0,0.0,0.0,0,0.99999136,0.0016525498,0.0038218088,1.6869188E-5,-0.1893595724427158,-0.4379530540491782,-0.0026567933406606483,35.192486,-0.08479489,-0.015164751,0,0,1872,GPS_Atti,OTHER,NONE,GPS_POSITION_NONMATCH,False,Connected,,P,False,False,False,0,0,0.1,0.0,0.1,,,,,
29953115,4.847,,,35.066227,35.07557,,,0,0.19486791509552534,0.4140304011424895,-0.03220466822924698,0.00887044,-0.0037158628,-1.0014031,1.0014493,-1.0142409,0.7036312,0.5773419,1.3627565,6.15492E-4,-5.6122757E-5,0.005663602,0.0056972248,6.180454333837461E-4,0,0,0,0.0,55.95,-0.03220466822924698,0.45759374299091515,154.76356307241278,154.79576774064205,359.96779533177073,NaN,NaN,0.0,0.0,0.0,-0.0,NaN,NaN,NaN,NaN,NaN,NaN,NaN,NaN,false,false,2.354004206503401,-4.744265717605774,3.67519211248986,,0.0,,,0.999992,0.0017015468,0.0036126056,-2.7489229E-4,0.01661184,-0.0041779857,0.031505585,-0.018322932,0.014852771,0.009345612,800,5132,0,0,3771,470,0.0,0.0,0.0,0.0,GPS_Atti,2,0,0,0,0,10,5000,0.0,0.0,17,5,3,2,0,0,,,,,,,1.0000001E-6,0.0,1.0,1.0000001E-6,0.0,1.0000001E-6,1.0000001E-6,0.0,0.003328668,1.0000001E-6,0.019245148,1.0000001E-6,-0.1,0.020000001,0.0,0.0,0.0,180.0,0.0,0.0,0.0,0,0.99999124,0.0016691149,0.0038400088,6.2221893E-6,-0.19126242089134168,-0.4400366945057428,-0.001447477129371838,35.191784,-0.08121576,-0.005382766,0,0,1892,GPS_Atti,OTHER,NONE,GPS_POSITION_NONMATCH,False,Connected,,P,False,False,False,0,0,0.1,0.0,0.1,,,,,
30175207,4.896,,,35.09529,35.075886,,,0,0.19625338590147992,0.4192740656548611,-0.027822028661764024,0.008856997,-0.003658619,-1.0039511,1.0039967,-1.0209126,0.8479824,0.56182694,1.4411753,1.7209332E-4,-1.1219199E-4,0.0053725285,0.0053764544,2.0543406423637915E-4,0,0,0,0.0,56.01,-0.027822028661764024,0.4629291346974294,154.88917754022225,154.91699956888402,359.9721779713382,NaN,NaN,0.0,0.0,0.0,-0.0,NaN,NaN,NaN,NaN,NaN,NaN,NaN,NaN,false,false,2.383680201891007,-4.7972826217020135,3.7156125282594914,,0.0,,,0.99999183,0.0017135099,0.003658427,-2.3652475E-4,0.014443688,-0.0011606123,0.007905006,-0.018321835,0.014850208,0.009339291,800,5132,0,0,3811,470,0.0,0.0,0.0,0.0,GPS_Atti,2,0,0,0,0,10,5000,0.0,0.0,17,5,3,2,0,0,,,,,,,1.0000001E-6,0.0,1.0,1.0000001E-6,0.0,1.0000001E-6,1.0000001E-6,0.0,0.003328668,1.0000001E-6,0.019245148,1.0000001E-6,-0.1,0.020000001,0.0,0.0,0.0,180.0,0.0,0.0,0.0,0,0.99999124,0.0016691149,0.0038400088,6.2221893E-6,-0.19126242089134168,-0.4400366945057428,-0.001447477129371838,35.191784,-0.08121576,-0.005382766,0,0,1892,GPS_Atti,OTHER,NONE,GPS_POSITION_NONMATCH,False,Connected,,P,False,False,False,0,0,0.1,0.0,0.1,,,,,
30376898,4.941,,,35.09529,35.075886,,,0,0.19625338590147992,0.4192740656548611,-0.027822028661764024,0.008856997,-0.003658619,-1.0039511,1.0039967,-1.0209126,0.8479824,0.56182694,1.4411753,1.7209332E-4,-1.1219199E-4,0.0053725285,0.0053764544,2.0543406423637915E-4,0,0,0,0.0,56.01,-0.027822028661764024,0.4629291346974294,154.88917754022225,154.91699956888402,359.9721779713382,NaN,NaN,0.0,0.0,0.0,-0.0,NaN,NaN,NaN,NaN,NaN,NaN,NaN,NaN,false,false,2.383680201891007,-4.7972826217020135,3.7156125282594914,,0.0,,,0.99999183,0.0017135099,0.003658427,-2.3652475E-4,0.014443688,-0.0011606123,0.007905006,-0.018321835,0.014850208,0.009339291,800,5132,0,0,3811,480,0.0,0.0,0.0,0.0,GPS_Atti,2,0,0,0,0,10,5000,0.0,0.0,17,5,3,2,0,0,,,,,,,1.0000001E-6,0.0,1.0,1.0000001E-6,0.0,1.0000001E-6,1.0000001E-6,0.0,0.004123181,1.0000001E-6,0.009516716,1.0000001E-6,-0.1,0.020000001,0.0,0.0,0.0,180.0,0.0,0.0,0.0,0,0.9999911,0.0016916178,0.003870544,3.1901945E-5,-0.19382960037150945,-0.4435408145847823,-0.004405971760133524,35.19193,-0.08129527,-0.028232567,0,0,1912,GPS_Atti,OTHER,NONE,GPS_POSITION_NONMATCH,False,Connected,,P,False,False,False,0,0,0.1,0.0,0.1,,,,,
30543884,4.978,,,35.08472,35.076176,,,0,0.197687227605467,0.4220315626576082,-0.030304955854511127,0.007394301,-0.003967703,-1.001176,1.0012112,-1.0335084,0.8083615,0.41637582,1.3765743,1.7813782E-4,-1.9110348E-4,0.0060290163,0.0060346737,2.61253950688688E-4,0,0,0,0.0,56.06,-0.030304955854511127,0.46603439018161646,154.8707630748967,154.90106803075122,359.9696950441455,NaN,NaN,0.0,0.0,0.0,-0.0,NaN,NaN,NaN,NaN,NaN,NaN,NaN,NaN,false,false,2.4091918585412877,-4.850862193355145,3.758810194440052,,0.0,,,0.9999917,0.0017261079,0.00368245,-2.5810488E-4,-6.9016963E-4,-0.0044761207,0.031923294,-0.018320646,0.014849906,0.009333546,900,5132,0,0,3851,480,0.0,0.0,0.0,0.0,GPS_Atti,2,0,0,0,0,10,5000,0.0,0.0,17,5,3,2,0,0,,,,,,,1.0000001E-6,0.0,1.0,1.0000001E-6,0.0,1.0000001E-6,1.0000001E-6,0.0,0.004123181,1.0000001E-6,0.009516716,1.0000001E-6,-0.1,0.020000001,0.0,0.0,0.0,180.0,0.0,0.0,0.0,0,0.99999094,0.0017082402,0.0038982653,-2.6768816E-6,-0.19574971736881214,-0.4467108650857885,-4.5634250096355356E-4,35.191437,-0.078740284,-0.003377865,0,0,1932,GPS_Atti,OTHER,NONE,GPS_POSITION_NONMATCH,False,Connected,,P,False,False,False,0,0,0.1,0.0,0.1,,,,,
30735359,5.021,,,35.045086,35.07641,,,0,0.19877383490801323,0.42229732240508344,-0.03146163903780419,0.006277455,-0.0044815824,-1.0022092,1.0022389,-0.98174363,0.84455067,0.52073735,1.3957986,-2.030969E-4,-2.1951916E-4,0.005797314,0.0058050225,2.990602213858962E-4,0,0,0,0.0,56.03,-0.03146163903780419,0.4667367611246951,154.76265174672693,154.79411338576475,359.9685383609622,NaN,NaN,0.0,0.0,0.0,-0.0,NaN,NaN,NaN,NaN,NaN,NaN,NaN,NaN,false,false,2.4335641953335987,-4.903274648504311,3.80179895271322,,0.0,,,0.99999166,0.001735628,0.0036847491,-2.681598E-4,-0.011497278,-0.0075910464,0.026053429,-0.018318268,0.014851218,0.009327536,800,5133,0,0,3891,480,0.0,0.0,0.0,0.0,GPS_Atti,2,0,0,0,0,10,5000,0.0,0.0,17,5,3,2,0,0,,,,,,,1.0000001E-6,0.0,1.0,1.0000001E-6,0.0,1.0000001E-6,1.0000001E-6,0.0,-0.005347468,1.0000001E-6,0.029154778,1.0000001E-6,-0.1,0.020000001,0.0,0.0,0.0,180.0,0.0,0.0,0.0,0,0.999991,0.001722255,0.0038834985,-2.6216641E-5,-0.19736615958384082,-0.4450140388011433,0.0022377605349017875,35.189983,-0.075525366,-0.008307976,0,0,1952,GPS_Atti,OTHER,NONE,GPS_POSITION_NONMATCH,False,Connected,,P,False,False,False,0,0,0.1,0.0,0.1,,,,,
30890718,5.055,,,35.063583,35.07663,,,0,0.19982692448064976,0.41953740919120663,-0.03128838599373794,0.0061722267,-0.0031068728,-1.0043823,1.0044061,-1.029394,0.8167136,0.51507837,1.4113748,-1.1082739E-6,1.4249753E-4,0.0049447664,0.0049468195,1.4250184184163434E-4,0,0,0,0.0,56.03,-0.03128838599373794,0.4646929986182036,154.50041894519788,154.53170733119163,359.9687116140063,NaN,NaN,0.0,0.0,0.0,-0.0,NaN,NaN,NaN,NaN,NaN,NaN,NaN,NaN,false,false,2.460522346042591,-4.955616538499559,3.845035033308143,,0.0,,,0.9999918,0.001744806,0.0036606644,-2.6665605E-4,-0.012421146,0.005750386,0.002571106,-0.01831436,0.0148542775,0.009321104,800,5133,0,0,3931,490,0.0,0.0,0.0,0.0,GPS_Atti,2,0,0,0,0,10,5000,0.0,0.0,17,5,3,2,0,0,,,,,,,1.0000001E-6,0.0,1.0,1.0000001E-6,0.0,1.0000001E-6,1.0000001E-6,0.0,-0.005347468,1.0000001E-6,0.029154778,1.0000001E-6,-0.1,0.020000001,0.0,0.0,0.0,180.0,0.0,0.0,0.0,0,0.9999911,0.0017234255,0.0038508805,-3.9282975E-5,-0.19750597491891111,-0.4412736780021557,0.003740968890624577,35.189144,-0.075541504,-0.031029705,0,0,1972,GPS_Atti,OTHER,NONE,GPS_POSITION_NONMATCH,False,Connected,,P,False,False,False,0,0,0.1,0.0,0.1,,,,,
31271849,5.140,,,35.063583,35.07663,,,0,0.19982692448064976,0.41953740919120663,-0.03128838599373794,0.0061722267,-0.0031068728,-1.0043823,1.0044061,-1.029394,0.8167136,0.51507837,1.4113748,-1.1082739E-6,1.4249753E-4,0.0049447664,0.0049468195,1.4250184184163434E-4,0,0,0,0.0,56.03,-0.03128838599373794,0.4646929986182036,154.50041894519788,154.53170733119163,359.9687116140063,NaN,NaN,0.0,0.0,0.0,-0.0,NaN,NaN,NaN,NaN,NaN,NaN,NaN,NaN,false,false,2.460522346042591,-4.955616538499559,3.845035033308143,,0.0,,,0.9999918,0.001744806,0.0036606644,-2.6665605E-4,-0.012421146,0.005750386,0.002571106,-0.01831436,0.0148542775,0.009321104,800,5133,0,0,3931,490,0.0,0.0,0.0,0.0,GPS_Atti,2,0,0,0,0,10,5000,0.0,0.0,17,5,3,2,0,0,,,,,,,1.0000001E-6,0.0,1.0,1.0000001E-6,0.0,1.0000001E-6,1.0000001E-6,0.0,-0.005347468,1.0000001E-6,0.029154778,1.0000001E-6,-0.1,0.020000001,0.0,0.0,0.0,180.0,0.0,0.0,0.0,0,0.9999911,0.0017234255,0.0038508805,-3.9282975E-5,-0.19750597491891111,-0.4412736780021557,0.003740968890624577,35.189144,-0.075541504,-0.031029705,0,0,1972,GPS_Atti,OTHER,NONE,GPS_POSITION_NONMATCH,False,Connected,,P,False,False,False,0,0,0.1,0.0,0.1,,,,,
31481051,5.186,,,35.068867,35.07697,,,0,0.1997246193369396,0.4206728975306425,-0.030309193482731502,0.006543639,-0.0017258155,-1.003379,1.0034018,-1.0745564,0.80007714,0.63863075,1.4841307,-1.02473685E-4,3.2335822E-4,0.004010382,0.004024702,3.3920701180075667E-4,0,0,0,0.0,56.2,-0.030309193482731502,0.46567450355210505,154.57284046290042,154.60314965638315,359.9696908065173,NaN,NaN,0.0,0.0,0.0,-0.0,NaN,NaN,NaN,NaN,NaN,NaN,NaN,NaN,false,false,2.5207155205828364,-5.065387234623646,3.9293888486400945,,0.0,,,0.9999917,0.0017438844,0.0036705886,-2.5809705E-4,-0.010351868,0.020798953,0.010491371,-0.018303959,0.014858405,0.009309194,0,5135,0,0,4011,500,0.0,0.0,0.0,0.0,GPS_Atti,2,0,0,0,0,10,5000,0.0,0.0,17,5,3,2,0,0,,,,,,,1.0000001E-6,0.0,1.0,1.0000001E-6,0.0,1.0000001E-6,1.0000001E-6,0.0,-0.005347468,1.0000001E-6,0.029154778,1.0000001E-6,-0.1,0.020000001,0.0,0.0,0.0,180.0,0.0,0.0,0.0,0,0.99999106,0.0017173374,0.0038687987,-6.0728722E-5,-0.1968179137234925,-0.4433227671191248,0.006197622733976636,35.187683,-0.0746782,-0.021749321,0,0,2012,GPS_Atti,OTHER,NONE,GPS_POSITION_NONMATCH,False,Connected,,P,False,False,False,0,0,0.1,0.0,0.1,,,,,
31672855,5.229,,,35.063583,35.077133,,,0,0.19993114259307357,0.419086094107122,-0.030091769128429504,0.007790451,-0.0036516588,-1.0026019,1.0026388,-0.97881234,0.8955448,0.42232093,1.3922749,1.13971255E-4,2.9254094E-4,0.0040072994,0.0040195794,3.139580276317009E-4,0,0,0,0.0,56.19,-0.030091769128429504,0.46433044776879195,154.46605742882704,154.49614919795548,359.96990823087157,NaN,NaN,0.0,0.0,0.0,-0.0,NaN,NaN,NaN,NaN,NaN,NaN,NaN,NaN,false,false,2.5482661402147393,-5.1187087767318395,3.97342048244969,,0.0,,,0.9999918,0.0017456762,0.003656744,-2.5621723E-4,0.003728222,4.8481114E-4,0.01890564,-0.018299699,0.014860593,0.009303381,800,5137,0,0,4051,500,0.0,0.0,0.0,0.0,GPS_Atti,2,0,0,0,0,10,5000,0.0,0.0,17,5,3,2,0,0,,,,,,,1.0000001E-6,0.0,1.0,1.0000001E-6,0.0,1.0000001E-6,1.0000001E-6,0.0,0.0046710316,1.0000001E-6,0.019316673,1.0000001E-6,-0.1,0.020000001,0.0,0.0,0.0,180.0,0.0,0.0,0.0,0,0.9999911,0.0017249654,0.0038627256,-7.47606E-5,-0.19769817590129907,-0.4426239503360414,0.0078033708868979895,35.18608,-0.0721978,-0.012621645,0,0,2032,GPS_Atti,OTHER,NONE,GPS_POSITION_NONMATCH,False,Connected,,P,False,False,False,0,0,0.1,0.0,0.1,,,,,
31827795,5.263,,,35.01338,35.07718,,,0,0.20098294378020462,0.42027062255611347,-0.0309886851203554,0.006935509,-0.0033197787,-1.0023956,1.0024251,-1.0423155,0.8839718,0.5424087,1.470386,-2.036551E-5,1.2379239E-4,0.0039529717,0.003954962,1.254564008855908E-4,0,0,0,0.0,56.26,-0.0309886851203554,0.46585259702678306,154.41113539146647,154.44212407658682,359.96901131487965,NaN,NaN,0.0,0.0,0.0,-0.0,NaN,NaN,NaN,NaN,NaN,NaN,NaN,NaN,false,false,2.573399504929011,-5.171363676810817,4.019780870842418,,0.0,,,0.9999917,0.0017548861,0.0036670647,-2.6399252E-4,-0.00419214,0.0011655968,0.016119003,-0.018296454,0.014861505,0.009298211,800,5138,0,0,4091,510,0.0,0.0,0.0,0.0,GPS_Atti,2,0,0,0,0,10,5000,0.0,0.0,17,5,3,2,0,0,,,,,,,1.0000001E-6,0.0,1.0,1.0000001E-6,0.0,1.0000001E-6,1.0000001E-6,0.0,0.0046710316,1.0000001E-6,0.019316673,1.0000001E-6,-0.1,0.020000001,0.0,0.0,0.0,180.0,0.0,0.0,0.0,0,0.99999106,0.0017371383,0.0038687102,-9.854635E-5,-0.19910366724783832,-0.4433049579135547,0.010522429151692153,35.183895,-0.06952246,-0.0147229945,0,0,2052,GPS_Atti,OTHER,NONE,GPS_POSITION_NONMATCH,False,Connected,,P,False,False,False,0,0,0.1,0.0,0.1,,,,,
32050591,5.313,,,35.0583,35.0771,,,0,0.19880365750636886,0.42041240728993856,-0.030484876707189676,0.009606767,-0.0027135364,-1.0019836,1.0020334,-1.0139477,0.96379143,0.4953853,1.4840453,2.224771E-4,3.4588258E-5,0.003961089,0.0039674826,2.2514975076479293E-4,0,0,0,0.0,56.27,-0.030484876707189676,0.46504478204786615,154.66140025901532,154.69188513572252,359.9695151232928,NaN,NaN,0.0,0.0,0.0,-0.0,NaN,NaN,NaN,NaN,NaN,NaN,NaN,NaN,false,false,2.6004529373245866,-5.224966779179855,4.067948752133809,,0.0,,,0.9999917,0.0017358526,0.003668315,-2.5966362E-4,0.022273183,0.007100261,0.021321297,-0.018293314,0.014863045,0.009293945,900,5139,0,0,4131,510,0.0,0.0,0.0,0.0,GPS_Atti,2,0,0,0,0,10,5000,0.0,0.0,17,5,3,2,0,0,,,,,,,1.0000001E-6,0.0,1.0,1.0000001E-6,0.0,1.0000001E-6,1.0000001E-6,0.0,0.0046710316,1.0000001E-6,0.019316673,1.0000001E-6,-0.1,0.020000001,0.0,0.0,0.0,180.0,0.0,0.0,0.0,0,0.99999106,0.0017371383,0.0038687102,-9.854635E-5,-0.19910366724783832,-0.4433049579135547,0.010522429151692153,35.183895,-0.06952246,-0.0147229945,0,0,2052,GPS_Atti,OTHER,NONE,GPS_POSITION_NONMATCH,False,Connected,,P,False,False,False,0,0,0.1,0.0,0.1,,,,,
32252030,5.358,,,35.0583,35.0771,,,0,0.19880365750636886,0.42041240728993856,-0.030484876707189676,0.009606767,-0.0027135364,-1.0019836,1.0020334,-1.0139477,0.96379143,0.4953853,1.4840453,2.224771E-4,3.4588258E-5,0.003961089,0.0039674826,2.2514975076479293E-4,0,0,0,0.0,56.27,-0.030484876707189676,0.46504478204786615,154.66140025901532,154.69188513572252,359.9695151232928,NaN,NaN,0.0,0.0,0.0,-0.0,NaN,NaN,NaN,NaN,NaN,NaN,NaN,NaN,false,false,2.6004529373245866,-5.224966779179855,4.067948752133809,,0.0,,,0.9999917,0.0017358526,0.003668315,-2.5966362E-4,0.022273183,0.007100261,0.021321297,-0.018293314,0.014863045,0.009293945,900,5139,0,0,4131,520,0.0,0.0,0.0,0.0,GPS_Atti,2,0,0,0,0,10,5000,0.0,0.0,17,5,3,2,0,0,,,,,,,1.0000001E-6,0.0,1.0,1.0000001E-6,0.0,1.0000001E-6,1.0000001E-6,0.0,0.014244843,1.0000001E-6,0.038877487,1.0000001E-6,-0.1,0.020000001,0.0,0.0,0.0,180.0,0.0,0.0,0.0,0,0.99999106,0.0017169913,0.0038735198,-1.1049883E-4,-0.19680036933130846,-0.44385395088172785,0.01190006314182021,35.18071,-0.06683318,-0.008824456,0,0,2072,GPS_Atti,OTHER,NONE,GPS_POSITION_NONMATCH,False,Connected,,P,False,False,False,0,0,0.1,0.0,0.1,,,,,
32418492,5.395,,,35.03452,35.076942,,,0,0.20104887713214337,0.4213245019714877,-0.031087043398796275,0.008261084,-0.0036301974,-1.0022506,1.0022911,-1.0533146,0.81554174,0.61805624,1.4685276,-4.6548346E-5,8.439441E-6,0.004128943,0.004129214,4.7307216109710584E-5,0,0,0,0.0,56.34,-0.031087043398796275,0.4668319534675114,154.45954128258566,154.49062832598446,359.96891295660123,NaN,NaN,0.0,0.0,0.0,-0.0,NaN,NaN,NaN,NaN,NaN,NaN,NaN,NaN,false,false,2.6294183704171807,-5.278745218509645,4.1142369089546875,,0.0,,,0.99999166,0.001755467,0.00367626,-2.648326E-4,0.00952635,-0.002673788,0.017552376,-0.018291527,0.014864201,0.009290543,800,5139,0,0,4171,520,0.0,0.0,0.0,0.0,GPS_Atti,2,0,0,0,0,10,5000,0.0,0.0,17,5,3,2,0,0,,,,,,,1.0000001E-6,0.0,1.0,1.0000001E-6,0.0,1.0000001E-6,1.0000001E-6,0.0,0.014244843,1.0000001E-6,0.038877487,1.0000001E-6,-0.1,0.020000001,0.0,0.0,0.0,180.0,0.0,0.0,0.0,0,0.999991,0.0017423175,0.0038826333,-1.3184876E-4,-0.1997121175636431,-0.4448937330569398,0.014333516233935108,35.17799,-0.06524391,-0.012013607,0,0,2092,GPS_Atti,OTHER,NONE,GPS_POSITION_NONMATCH,False,Connected,,P,False,False,False,0,0,0.1,0.0,0.1,,,,,
32914230,5.505,,,35.100574,35.076763,,,0,0.20395594872373657,0.4216979806514029,-0.03568193441745931,0.0088322135,-0.003728195,-1.0032835,1.0033293,-0.98184395,0.8931844,0.5101163,1.4219756,1.3009278E-4,2.4206005E-4,0.003080787,0.0030930187,2.748039293837455E-4,0,0,0,0.0,56.41,-0.03568193441745931,0.4684273812691502,154.1537068551542,154.1893887895717,359.9643180655825,NaN,NaN,0.0,0.0,0.0,-0.0,NaN,NaN,NaN,NaN,NaN,NaN,NaN,NaN,false,false,2.658792573156102,-5.331734595518331,4.158726974194046,,0.0,,,0.9999916,0.0017809842,0.0036794406,-3.0483116E-4,0.014875345,-0.0026209485,0.0077028275,-0.018291373,0.0148666315,0.009286724,800,5137,0,0,4211,520,0.0,0.0,0.0,0.0,GPS_Atti,2,0,0,0,0,10,5000,0.0,0.0,17,5,3,2,0,0,,,,,,,1.0000001E-6,0.0,1.0,1.0000001E-6,0.0,1.0000001E-6,1.0000001E-6,0.0,0.0053831674,1.0000001E-6,0.009446144,1.0000001E-6,-0.1,0.020000001,0.0,0.0,0.0,180.0,0.0,0.0,0.0,0,0.9999909,0.0017609581,0.0038955358,-1.8787576E-4,-0.20187336511488263,-0.4463607625412043,0.020742822419082704,35.177383,-0.06933354,-0.021482702,0,0,2112,GPS_Atti,OTHER,NONE,GPS_POSITION_NONMATCH,False,Connected,,P,False,False,False,0,0,0.1,0.0,0.1,,,,,
33079128,5.542,,,35.039803,35.076653,,,0,0.20323015026933808,0.41736481696395916,-0.035993059342168426,0.00853722,-0.0018320254,-1.0013969,1.0014349,-1.1152352,0.74573094,0.5746138,1.4594675,1.2431735E-4,1.2801761E-4,0.003085814,0.0030909693,1.7844693948310903E-4,0,0,0,0.0,56.3,-0.035993059342168426,0.4642121954105333,154.00117143627813,154.0371644956203,359.96400694065784,NaN,NaN,0.0,0.0,0.0,-0.0,NaN,NaN,NaN,NaN,NaN,NaN,NaN,NaN,false,false,2.7152761733660036,-5.440932802512041,4.244067872297698,,0.0,,,0.9999918,0.0017746489,0.003641624,-3.0763663E-4,0.013982512,0.01439065,0.025735855,-0.01828769,0.014872521,0.009278618,800,5142,0,0,4291,520,0.0,0.0,0.0,0.0,GPS_Atti,2,0,0,0,0,10,5000,0.0,0.0,17,5,3,2,0,0,,,,,,,1.0000001E-6,0.0,1.0,1.0000001E-6,0.0,1.0000001E-6,1.0000001E-6,0.0,0.005265152,1.0000001E-6,0.029188156,1.0000001E-6,-0.1,0.020000001,0.0,0.0,0.0,180.0,0.0,0.0,0.0,0,0.99999094,0.0017569491,0.003874661,-2.2333127E-4,-0.20142928318055145,-0.44396161050902166,0.02481170769507754,35.17756,-0.07132521,-0.002638801,0,0,2152,GPS_Atti,OTHER,NONE,GPS_POSITION_NONMATCH,False,Connected,,P,False,False,False,0,0,0.1,0.0,0.1,,,,,
33234125,5.576,,,35.074154,35.076607,,,0,0.2044633637008759,0.41737639907756674,-0.03621574859587145,0.008648503,-0.003249921,-1.0025961,1.0026387,-1.0630198,0.94681406,0.4773076,1.5014294,9.380575E-5,-9.070386E-5,0.003752158,0.0037544263,1.304864319830483E-4,0,0,0,0.0,56.47,-0.03621574859587145,0.4647637763627344,153.86488835324565,153.90110410184153,359.96378425140415,NaN,NaN,0.0,0.0,0.0,-0.0,NaN,NaN,NaN,NaN,NaN,NaN,NaN,NaN,false,false,2.7427495461978246,-5.497822994914348,4.288272619765387,,0.0,,,0.9999917,0.0017854177,0.0036417183,-3.0954057E-4,0.014167532,0.0031046513,0.016625404,-0.018286936,0.014874666,0.0092741,900,5142,0,0,4331,540,0.0,0.0,0.0,0.0,GPS_Atti,2,0,0,0,0,10,5000,0.0,0.0,17,5,3,2,0,0,,,,,,,1.0000001E-6,0.0,1.0,1.0000001E-6,0.0,1.0000001E-6,1.0000001E-6,0.0,0.005265152,1.0000001E-6,0.029188156,1.0000001E-6,-0.1,0.020000001,0.0,0.0,0.0,180.0,0.0,0.0,0.0,0,0.9999909,0.0017721007,0.003876853,-2.4160744E-4,-0.20317369181053124,-0.44420877135342235,0.02689882769991042,35.175552,-0.06677919,-0.011032337,0,0,2172,GPS_Atti,OTHER,NONE,GPS_POSITION_NONMATCH,False,Connected,,P,False,False,False,0,0,0.1,0.0,0.1,,,,,
33456826,5.625,,,35.042446,35.076496,,,0,0.20890437940170703,0.41741660080959664,-0.041548937528552245,0.008265826,-0.0030834882,-1.0034828,1.0035216,-1.0835829,0.8481334,0.5253798,1.4729244,6.8943744E-5,4.898467E-4,0.0037400038,0.0037725763,4.946746576898365E-4,0,0,0,0.0,56.61,-0.041548937528552245,0.4667703612089962,153.37217653100748,153.41372546853603,359.95845106247145,NaN,NaN,0.0,0.0,0.0,-0.0,NaN,NaN,NaN,NaN,NaN,NaN,NaN,NaN,false,false,2.7688275686488417,-5.553652113300448,4.334955844688544,,0.0,,,0.99999166,0.0018243422,0.0036419716,-3.559392E-4,0.008539915,0.0064761564,0.0041532516,-0.01828537,0.014874763,0.009270405,800,5142,0,0,4371,540,0.0,0.0,0.0,0.0,GPS_Atti,2,0,0,0,0,10,5000,0.0,0.0,17,5,3,2,0,0,,,,,,,1.0000001E-6,0.0,1.0,1.0000001E-6,0.0,1.0000001E-6,1.0000001E-6,0.0,0.005265152,1.0000001E-6,0.029188156,1.0000001E-6,-0.1,0.020000001,0.0,0.0,0.0,180.0,0.0,0.0,0.0,0,0.9999909,0.0017721007,0.003876853,-2.4160744E-4,-0.20317369181053124,-0.44420877135342235,0.02689882769991042,35.175552,-0.06677919,-0.011032337,0,0,2172,GPS_Atti,OTHER,NONE,GPS_POSITION_NONMATCH,False,Connected,,P,False,False,False,0,0,0.1,0.0,0.1,,,,,
33658162,5.670,,,35.042446,35.076496,,,0,0.20890437940170703,0.41741660080959664,-0.041548937528552245,0.008265826,-0.0030834882,-1.0034828,1.0035216,-1.0835829,0.8481334,0.5253798,1.4729244,6.8943744E-5,4.898467E-4,0.0037400038,0.0037725763,4.946746576898365E-4,0,0,0,0.0,56.61,-0.041548937528552245,0.4667703612089962,153.37217653100748,153.41372546853603,359.95845106247145,NaN,NaN,0.0,0.0,0.0,-0.0,NaN,NaN,NaN,NaN,NaN,NaN,NaN,NaN,false,false,2.7688275686488417,-5.553652113300448,4.334955844688544,,0.0,,,0.99999166,0.0018243422,0.0036419716,-3.559392E-4,0.008539915,0.0064761564,0.0041532516,-0.01828537,0.014874763,0.009270405,800,5142,0,0,4371,550,0.0,0.0,0.0,0.0,GPS_Atti,2,0,0,0,0,10,5000,0.0,0.0,17,5,3,2,0,0,,,,,,,1.0000001E-6,0.0,1.0,1.0000001E-6,0.0,1.0000001E-6,1.0000001E-6,0.0,0.016066037,1.0000001E-6,0.02915287,1.0000001E-6,-0.1,0.020000001,0.0,0.0,0.0,180.0,0.0,0.0,0.0,0,0.9999908,0.0017890274,0.00387786,-3.0492526E-4,-0.2051414958834409,-0.4443107601599459,0.03414677225702916,35.173344,-0.06399554,-0.022876909,0,0,2192,GPS_Atti,OTHER,NONE,GPS_POSITION_NONMATCH,False,Connected,,P,False,False,False,0,0,0.1,0.0,0.1,,,,,
33825128,5.707,,,35.031876,35.07634,,,0,0.20880901327836734,0.42149283403018856,-0.03998145798171139,0.0084756855,-0.004199676,-1.0042536,1.0042982,-1.1143453,0.85757184,0.6883206,1.5655607,2.0020086E-4,-1.7806748E-4,0.0031749816,0.0031862669,2.6793358567114606E-4,0,0,0,0.0,56.52,-0.03998145798171139,0.47037672898311916,153.6063540680795,153.6463355260612,359.9600185420183,NaN,NaN,0.0,0.0,0.0,-0.0,NaN,NaN,NaN,NaN,NaN,NaN,NaN,NaN,false,false,2.800459041500428,-5.6109345435512274,4.379409954263416,,0.0,,,0.99999154,0.0018234723,0.0036775684,-3.4219865E-4,0.012990497,-0.00922592,-0.005177498,-0.018281234,0.014875884,0.009264652,900,5142,0,0,4411,550,0.0,0.0,0.0,0.0,GPS_Atti,2,0,0,0,0,10,5000,0.0,0.0,17,5,3,2,0,0,,,,,,,1.0000001E-6,0.0,1.0,1.0000001E-6,0.0,1.0000001E-6,1.0000001E-6,0.0,0.016066037,1.0000001E-6,0.02915287,1.0000001E-6,-0.1,0.020000001,0.0,0.0,0.0,180.0,0.0,0.0,0.0,0,0.9999907,0.0017996009,0.0039229235,-3.0828657E-4,-0.20635616027850767,-0.4494735733463568,0.034517946175156834,35.17151,-0.06411796,-0.031745527,0,0,2212,GPS_Atti,OTHER,NONE,GPS_POSITION_NONMATCH,False,Connected,,P,False,False,False,0,0,0.1,0.0,0.1,,,,,
34016631,5.750,,,35.087364,35.076252,,,0,0.20845291448444503,0.41883454630410516,-0.03697430450560006,0.007358811,-0.0023077244,-1.0026673,1.002697,-1.0658239,0.8134845,0.57683164,1.4596138,1.1640556E-4,2.3494648E-4,0.0025747637,0.00258808,2.622024108893835E-4,0,0,0,0.0,56.47,-0.03697430450560006,0.46783747058273245,153.50391591171118,153.54089021621678,359.9630256954944,NaN,NaN,0.0,0.0,0.0,-0.0,NaN,NaN,NaN,NaN,NaN,NaN,NaN,NaN,false,false,2.8333466937206957,-5.667608077644733,4.422849090467771,,0.0,,,0.9999916,0.0018202609,0.0036544197,-3.1601018E-4,1.6984716E-4,0.014180016,0.014221191,-0.018277157,0.0148765845,0.00925847,800,5141,0,0,4451,550,0.0,0.0,0.0,0.0,GPS_Atti,2,0,0,0,0,10,5000,0.0,0.0,17,5,3,2,0,0,,,,,,,1.0000001E-6,0.0,1.0,1.0000001E-6,0.0,1.0000001E-6,1.0000001E-6,0.0,0.0062929094,1.0000001E-6,-0.010082245,1.0000001E-6,-0.1,0.020000001,0.0,0.0,0.0,180.0,0.0,0.0,0.0,0,0.99999076,0.0017944181,0.0039020756,-2.998004E-4,-0.2057577508552975,-0.44708651402776384,0.03355212620969412,35.171204,-0.06667729,-0.01196751,0,0,2232,GPS_Atti,OTHER,NONE,GPS_POSITION_NONMATCH,False,Connected,,P,False,False,False,0,0,0.1,0.0,0.1,,,,,
34172463,5.785,,,35.074154,35.07622,,,0,0.20972281774261164,0.41668208165898296,-0.03841604727787086,0.0076933103,-0.002846599,-1.001886,1.0019196,-1.0368704,0.95749927,0.48096025,1.4910492,-8.3820356E-5,2.4639077E-5,0.00219675,0.0021984866,8.736667591814478E-5,0,0,0,0.0,56.62,-0.03841604727787086,0.4664809919973006,153.2450366225503,153.28345266982816,359.96158395272215,NaN,NaN,0.0,0.0,0.0,-0.0,NaN,NaN,NaN,NaN,NaN,NaN,NaN,NaN,false,false,2.860883605862707,-5.722346356577251,4.468952132666239,,0.0,,,0.99999166,0.0018313826,0.0036356093,-3.2858553E-4,0.0028980486,0.010389986,0.02158451,-0.018272363,0.014876878,0.009252903,800,5144,0,0,4491,560,0.0,0.0,0.0,0.0,GPS_Atti,2,0,0,0,0,10,5000,0.0,0.0,17,5,3,2,0,0,,,,,,,1.0000001E-6,0.0,1.0,1.0000001E-6,0.0,1.0000001E-6,1.0000001E-6,0.0,0.0062929094,1.0000001E-6,-0.010082245,1.0000001E-6,-0.1,0.020000001,0.0,0.0,0.0,180.0,0.0,0.0,0.0,0,0.9999908,0.0018093722,0.0038798766,-3.305567E-4,-0.20748428315677686,-0.4445357921304115,0.037074451789324066,35.17108,-0.06783449,-0.0042737722,0,0,2252,GPS_Atti,OTHER,NONE,GPS_POSITION_NONMATCH,False,Connected,,P,False,False,False,0,0,0.1,0.0,0.1,,,,,
34789449,5.922,,,35.074154,35.07622,,,0,0.20972281774261164,0.41668208165898296,-0.03841604727787086,0.0076933103,-0.002846599,-1.001886,1.0019196,-1.0368704,0.95749927,0.48096025,1.4910492,-8.3820356E-5,2.4639077E-5,0.00219675,0.0021984866,8.736667591814478E-5,0,0,0,0.0,56.62,-0.03841604727787086,0.4664809919973006,153.2450366225503,153.28345266982816,359.96158395272215,NaN,NaN,0.0,0.0,0.0,-0.0,NaN,NaN,NaN,NaN,NaN,NaN,NaN,NaN,false,false,2.860883605862707,-5.722346356577251,4.468952132666239,,0.0,,,0.99999166,0.0018313826,0.0036356093,-3.2858553E-4,0.0028980486,0.010389986,0.02158451,-0.018272363,0.014876878,0.009252903,800,5144,0,0,4491,560,0.0,0.0,0.0,0.0,GPS_Atti,2,0,0,0,0,10,5000,0.0,0.0,17,5,3,2,0,0,,,,,,,1.0000001E-6,0.0,1.0,1.0000001E-6,0.0,1.0000001E-6,1.0000001E-6,0.0,0.0062929094,1.0000001E-6,-0.010082245,1.0000001E-6,-0.1,0.020000001,0.0,0.0,0.0,180.0,0.0,0.0,0.0,0,0.9999908,0.0018093722,0.0038798766,-3.305567E-4,-0.20748428315677686,-0.4445357921304115,0.037074451789324066,35.17108,-0.06783449,-0.0042737722,0,0,2252,GPS_Atti,OTHER,NONE,GPS_POSITION_NONMATCH,False,Connected,,P,False,False,False,0,0,0.1,0.0,0.1,,,,,
34954117,5.958,,,35.08472,35.076397,,,0,0.20471312129776228,0.41785568450766725,-0.040040916541296795,0.008240828,-0.0030374827,-1.004298,1.0043364,-0.95783776,0.84376794,0.57576776,1.4003235,-1.4939273E-4,1.8855526E-4,0.0017322231,0.0017488477,2.4056448661178187E-4,0,0,0,0.0,56.67,-0.040040916541296795,0.4653040546558831,153.85940890580704,153.89944982234832,359.9599590834587,NaN,NaN,0.0,0.0,0.0,-0.0,NaN,NaN,NaN,NaN,NaN,NaN,NaN,NaN,false,false,2.943447031818632,-5.878195293478914,4.609687299032011,,0.0,,,0.9999917,0.0017877202,0.0036458403,-3.4290575E-4,0.0077688694,0.0078004356,-0.003127098,-0.01826013,0.014870301,0.0092380345,800,5144,0,0,4611,560,0.0,0.0,0.0,0.0,GPS_Atti,2,0,0,0,0,10,5000,0.0,0.0,17,5,3,2,0,0,,,,,,,1.0000001E-6,0.0,1087.1141,1.0000001E-6,0.0,1.0000001E-6,1.0000001E-6,0.0,0.01531891,1.0000001E-6,0.029223442,1.0000001E-6,-0.1,0.020000001,0.0,0.0,0.0,180.0,0.0,0.0,0.0,0,0.9999909,0.0017672832,0.0038714064,-4.0167087E-4,-0.20269249848048448,-0.4435522840328794,0.04524393550812827,35.16991,-0.06643348,-0.027789025,0,0,2312,GPS_Atti,OTHER,NONE,GPS_POSITION_NONMATCH,False,Connected,,P,False,False,False,0,0,0.1,0.0,0.1,,,,,
35109005,5.993,,,35.066227,35.076496,,,0,0.20291191074474635,0.41803933456825076,-0.040441768578947726,0.0069959294,-0.0034450602,-1.0059102,1.0059403,-1.0618658,0.90587264,0.48233452,1.4767569,1.8946588E-4,-4.1320745E-5,0.0024568299,0.0024644712,1.939193675598273E-4,0,0,0,0.0,56.8,-0.040441768578947726,0.4646796815439608,154.0684133576862,154.10885512626515,359.95955823142106,NaN,NaN,0.0,0.0,0.0,-0.0,NaN,NaN,NaN,NaN,NaN,NaN,NaN,NaN,false,false,2.9709831947095644,-5.9307562674693095,4.655220126090917,,0.0,,,0.9999917,0.0017720151,0.0036474424,-3.464583E-4,-0.001731392,-3.577303E-4,-0.019373894,-0.018257918,0.014867889,0.00923324,800,5145,0,0,4651,580,0.0,0.0,0.0,0.0,GPS_Atti,2,0,0,0,0,10,5000,0.0,0.0,17,5,3,2,0,0,,,,,,,1.0000001E-6,0.0,1087.1141,1.0000001E-6,0.0,1.0000001E-6,1.0000001E-6,0.0,0.01531891,1.0000001E-6,0.029223442,1.0000001E-6,-0.1,0.020000001,0.0,0.0,0.0,180.0,0.0,0.0,0.0,0,0.9999909,0.0017626084,0.0038812642,-4.2450003E-4,-0.2021674018132687,-0.444677456745937,0.04786003156219382,35.17087,-0.06765269,-0.043842375,0,0,2332,GPS_Atti,OTHER,NONE,GPS_POSITION_NONMATCH,False,Connected,,P,False,False,False,0,0,0.1,0.0,0.1,,,,,
35331699,6.042,,,35.087364,35.076763,,,0,0.20566805189731954,0.4186324297544622,-0.0395993562480539,0.008386798,-0.003992256,-1.002276,1.002319,-0.9734391,0.9401446,0.5588355,1.4641559,4.8927753E-4,-4.4890057E-5,0.0022361963,0.0022895373,4.913325080217461E-4,0,0,0,0.0,56.8,-0.0395993562480539,0.46642196349845017,153.7964885290268,153.83608788527482,359.96040064375194,NaN,NaN,0.0,0.0,0.0,-0.0,NaN,NaN,NaN,NaN,NaN,NaN,NaN,NaN,false,false,2.9981313366711326,-5.983826126216844,4.703354375686139,,0.0,,,0.99999166,0.0017960417,0.0036526227,-3.390099E-4,0.011361871,-0.0047036596,0.015253067,-0.018256979,0.014866127,0.009228472,800,5145,0,0,4691,580,0.0,0.0,0.0,0.0,GPS_Atti,2,0,0,0,0,10,5000,0.0,0.0,17,5,3,2,0,0,,,,,,,1.0000001E-6,0.0,1087.1141,1.0000001E-6,0.0,1.0000001E-6,1.0000001E-6,0.0,0.01531891,1.0000001E-6,0.029223442,1.0000001E-6,-0.1,0.020000001,0.0,0.0,0.0,180.0,0.0,0.0,0.0,0,0.9999909,0.0017626084,0.0038812642,-4.2450003E-4,-0.2021674018132687,-0.444677456745937,0.04786003156219382,35.17087,-0.06765269,-0.043842375,0,0,2332,GPS_Atti,OTHER,NONE,GPS_POSITION_NONMATCH,False,Connected,,P,False,False,False,0,0,0.1,0.0,0.1,,,,,
35490182,6.077,,,35.087364,35.076763,,,0,0.20566805189731954,0.4186324297544622,-0.0395993562480539,0.008386798,-0.003992256,-1.002276,1.002319,-0.9734391,0.9401446,0.5588355,1.4641559,4.8927753E-4,-4.4890057E-5,0.0022361963,0.0022895373,4.913325080217461E-4,0,0,0,0.0,56.8,-0.0395993562480539,0.46642196349845017,153.7964885290268,153.83608788527482,359.96040064375194,NaN,NaN,0.0,0.0,0.0,-0.0,NaN,NaN,NaN,NaN,NaN,NaN,NaN,NaN,false,false,2.9981313366711326,-5.983826126216844,4.703354375686139,,0.0,,,0.99999166,0.0017960417,0.0036526227,-3.390099E-4,0.011361871,-0.0047036596,0.015253067,-0.018256979,0.014866127,0.009228472,800,5145,0,0,4691,580,0.0,0.0,0.0,0.0,GPS_Atti,2,0,0,0,0,10,5000,0.0,0.0,17,5,3,2,0,0,,,,,,,1.0000001E-6,0.0,1087.1141,1.0000001E-6,0.0,1.0000001E-6,1.0000001E-6,0.0,-0.0041536726,1.0000001E-6,0.019210815,1.0000001E-6,-0.1,0.020000001,0.0,0.0,0.0,180.0,0.0,0.0,0.0,0,0.9999908,0.0017816762,0.0038886683,-4.366115E-4,-0.20435814392158738,-0.4455225361855326,0.04923790995466686,35.17027,-0.065718405,-0.008676079,0,0,2352,GPS_Atti,OTHER,NONE,GPS_POSITION_NONMATCH,False,Connected,,P,False,False,False,0,0,0.1,0.0,0.1,,,,,
35700382,6.124,,,35.053013,35.077,,,0,0.20623169497957974,0.41893900011335766,-0.0386464176843926,0.0069471123,-0.0030036962,-1.0000088,1.0000374,-0.9593149,0.93391484,0.40405878,1.3984797,1.2303283E-4,1.07932414E-4,0.0029369602,0.002941517,1.6366576960957384E-4,0,0,0,0.0,56.91,-0.0386464176843926,0.46694578495822664,153.75195512443568,153.79060154212007,359.9613535823156,NaN,NaN,0.0,0.0,0.0,-0.0,NaN,NaN,NaN,NaN,NaN,NaN,NaN,NaN,false,false,3.0231934701788283,-6.034131688059777,4.752132240825155,,0.0,,,0.99999166,0.001800931,0.0036553112,-3.306712E-4,-7.526204E-4,0.0023846878,0.03706169,-0.018255923,0.014863854,0.009224866,800,5145,0,0,4731,590,0.0,0.0,0.0,0.0,GPS_Atti,2,0,0,0,0,10,5000,0.0,0.0,17,5,3,2,0,0,,,,,,,1.0000001E-6,0.0,1087.1141,1.0000001E-6,0.0,1.0000001E-6,1.0000001E-6,0.0,-0.0041536726,1.0000001E-6,0.019210815,1.0000001E-6,-0.1,0.020000001,0.0,0.0,0.0,180.0,0.0,0.0,0.0,0,0.9999908,0.0017845099,0.003881067,-4.4815813E-4,-0.20468761996988008,-0.4446490172463601,0.050561348724148115,35.170727,-0.065705955,0.013457004,0,0,2372,GPS_Atti,OTHER,NONE,GPS_POSITION_NONMATCH,False,Connected,,P,False,False,False,0,0,0.1,0.0,0.1,,,,,
35891857,6.167,,,35.074154,35.07729,,,0,0.20991970637794682,0.4175114761698416,-0.03726709134874709,0.0078783,-0.0055270293,-1.0017701,1.0018164,-0.932048,0.7530439,0.47098872,1.2874855,1.9644965E-4,-2.2324127E-4,0.002634024,0.0026507569,2.973703624455329E-4,0,0,0,0.0,56.8,-0.03726709134874709,0.46731038517027124,153.27034179205194,153.3076088834007,359.9627329086513,NaN,NaN,0.0,0.0,0.0,-0.0,NaN,NaN,NaN,NaN,NaN,NaN,NaN,NaN,false,false,3.046011694788593,-6.083451917366833,4.796122313361728,,0.0,,,0.99999166,0.0018330667,0.0036428648,-3.1853956E-4,0.0054776296,-0.017224051,0.0203619,-0.01825592,0.014861697,0.009222724,900,5147,0,0,4771,590,0.0,0.0,0.0,0.0,GPS_Atti,2,0,0,0,0,10,5000,0.0,0.0,17,5,3,2,0,0,,,,,,,1.0000001E-6,0.0,1.0,1.0000001E-6,0.0,1.0000001E-6,1.0000001E-6,0.0,-0.0035065524,1.0000001E-6,0.029009819,1.0000001E-6,-0.1,0.020000001,0.0,0.0,0.0,180.0,0.0,0.0,0.0,0,0.9999908,0.0018297479,0.0038602978,-4.5527623E-4,-0.2098735862148316,-0.4422652998711954,0.05136127207829284,35.170906,-0.065398626,-0.0028044544,0,0,2392,GPS_Atti,OTHER,NONE,GPS_POSITION_NONMATCH,False,Connected,,P,False,False,False,0,0,0.1,0.0,0.1,,,,,
36046873,6.201,,,35.079437,35.077576,,,0,0.20968262236757296,0.4177932648859463,-0.039748494561677006,0.0079471115,-0.002900961,-1.0041754,1.0042111,-1.1371955,0.7990175,0.40501392,1.4476459,2.1307985E-4,2.771842E-4,0.002242292,0.002269385,3.496199545356016E-4,0,0,0,0.0,56.89,-0.039748494561677006,0.46745577050195497,153.30933786539597,153.34908635995765,359.96025150543835,NaN,NaN,0.0,0.0,0.0,-0.0,NaN,NaN,NaN,NaN,NaN,NaN,NaN,NaN,false,false,3.06878068238618,-6.137235521718996,4.836463363369312,,0.0,,,0.99999166,0.0018310775,0.0036452848,-3.4019674E-4,0.007977538,0.0056981677,-0.0038261414,-0.018256214,0.014859376,0.009219649,800,5150,0,0,4811,600,0.0,0.0,0.0,0.0,GPS_Atti,2,0,0,0,0,10,5000,0.0,0.0,17,5,3,2,0,0,,,,,,,1.0000001E-6,0.0,1.0,1.0000001E-6,0.0,1.0000001E-6,1.0000001E-6,0.0,-0.0035065524,1.0000001E-6,0.029009819,1.0000001E-6,-0.1,0.020000001,0.0,0.0,0.0,180.0,0.0,0.0,0.0,0,0.9999908,0.0018148306,0.0038617225,-4.9626344E-4,-0.20818240216802283,-0.44242077214258674,0.05606434754184691,35.16988,-0.062482867,-0.02640029,0,0,2412,GPS_Atti,OTHER,NONE,GPS_POSITION_NONMATCH,False,Connected,,P,False,False,False,0,0,0.1,0.0,0.1,,,,,
36470665,6.295,,,35.079437,35.077576,,,0,0.20968262236757296,0.4177932648859463,-0.039748494561677006,0.0079471115,-0.002900961,-1.0041754,1.0042111,-1.1371955,0.7990175,0.40501392,1.4476459,2.1307985E-4,2.771842E-4,0.002242292,0.002269385,3.496199545356016E-4,0,0,0,0.0,56.89,-0.039748494561677006,0.46745577050195497,153.30933786539597,153.34908635995765,359.96025150543835,NaN,NaN,0.0,0.0,0.0,-0.0,NaN,NaN,NaN,NaN,NaN,NaN,NaN,NaN,false,false,3.06878068238618,-6.137235521718996,4.836463363369312,,0.0,,,0.99999166,0.0018310775,0.0036452848,-3.4019674E-4,0.007977538,0.0056981677,-0.0038261414,-0.018256214,0.014859376,0.009219649,800,5150,0,0,4811,610,0.0,0.0,0.0,0.0,GPS_Atti,2,0,0,0,0,10,5000,0.0,0.0,17,5,3,2,0,0,,,,,,,1.0000001E-6,0.0,1.0,1.0000001E-6,0.0,1.0000001E-6,1.0000001E-6,0.0,-0.0035065524,1.0000001E-6,0.029009819,1.0000001E-6,-0.1,0.020000001,0.0,0.0,0.0,180.0,0.0,0.0,0.0,0,0.9999908,0.0018148306,0.0038617225,-4.9626344E-4,-0.20818240216802283,-0.44242077214258674,0.05606434754184691,35.16988,-0.062482867,-0.02640029,0,0,2412,GPS_Atti,OTHER,NONE,GPS_POSITION_NONMATCH,False,Connected,,P,False,False,False,0,0,0.1,0.0,0.1,,,,,
36637325,6.332,,,35.03716,35.078167,,,0,0.2115276597793553,0.4206080276410257,-0.04142016575449142,0.0071525993,-0.0033566332,-1.0046117,1.0046428,-0.9659018,0.85383755,0.3904228,1.3470095,1.1825138E-4,-4.362821E-5,0.0010631768,0.0010706221,1.2604288988151023E-4,0,0,0,0.0,56.92,-0.04142016575449142,0.47079915978936604,153.26064320272832,153.3020633684828,359.9585798342455,NaN,NaN,0.0,0.0,0.0,-0.0,NaN,NaN,NaN,NaN,NaN,NaN,NaN,NaN,false,false,3.1101984253227393,-6.246742086574589,4.922526181731875,,0.0,,,0.99999154,0.0018472403,0.0036698154,-3.546806E-4,-0.0016412325,0.002016209,-0.011604309,-0.018254913,0.014856009,0.009211629,800,5149,0,0,4891,610,0.0,0.0,0.0,0.0,GPS_Atti,2,0,0,0,0,10,5000,0.0,0.0,17,5,3,2,0,0,,,,,,,1.0000001E-6,0.0,1.0,1.0000001E-6,0.0,1.0000001E-6,1.0000001E-6,0.0,-0.0035065524,1.0000001E-6,0.029009819,1.0000001E-6,-0.1,0.020000001,0.0,0.0,0.0,180.0,0.0,0.0,0.0,0,0.99999064,0.0018256367,0.0038862526,-5.499795E-4,-0.20944598514137885,-0.44521995950355714,0.06220983054644581,35.16824,-0.061420623,-0.03339502,0,0,2452,GPS_Atti,OTHER,NONE,GPS_POSITION_NONMATCH,False,Connected,,P,False,False,False,0,0,0.1,0.0,0.1,,,,,
36829124,6.375,,,35.103218,35.078438,,,0,0.21348762417011752,0.42404262156710665,-0.04100926368199056,0.0075125406,-0.0036772913,-1.0028692,1.0029042,-0.94804394,0.7805078,0.54085004,1.3418266,2.0021088E-4,3.352674E-4,0.0017747103,0.001817164,3.904979185529792E-4,0,0,0,0.0,56.91,-0.04100926368199056,0.4747481249232825,153.23597233143798,153.27698159511996,359.958990736318,NaN,NaN,0.0,0.0,0.0,-0.0,NaN,NaN,NaN,NaN,NaN,NaN,NaN,NaN,false,false,3.1344537265576413,-6.2965914203206275,4.965093233384344,,0.0,,,0.99999136,0.0018643413,0.0036997881,-3.509762E-4,8.104369E-5,0.0024595894,0.008930206,-0.018253129,0.01485538,0.00920818,800,5149,0,0,4931,610,0.0,0.0,0.0,0.0,GPS_Atti,2,0,0,0,0,10,5000,0.0,0.0,17,5,3,2,0,0,,,,,,,1.0000001E-6,0.0,1.0,1.0000001E-6,0.0,1.0000001E-6,1.0000001E-6,0.0,0.006967526,1.0000001E-6,0.01931858,1.0000001E-6,-0.1,0.020000001,0.0,0.0,0.0,180.0,0.0,0.0,0.0,0,0.9999905,0.0018298163,0.0039204336,-5.6612457E-4,-0.20993429363087476,-0.4491331709724592,0.06405087200420645,35.169384,-0.06462476,-0.012826052,0,0,2472,GPS_Atti,OTHER,NONE,GPS_POSITION_NONMATCH,False,Connected,,P,False,False,False,0,0,0.1,0.0,0.1,,,,,
36984045,6.409,,,35.090008,35.07882,,,0,0.21323891440562823,0.42309071283019395,-0.04081090224729433,0.007452065,-0.004127545,-1.0039291,1.0039654,-0.9040509,0.83572304,0.50806594,1.3318678,1.3321507E-4,1.9333621E-4,0.0012852069,0.0013064769,2.3478744714601433E-4,0,0,0,0.0,56.9,-0.04081090224729433,0.47378611216600275,153.21126810862802,153.25207901087532,359.9591890977527,NaN,NaN,0.0,0.0,0.0,-0.0,NaN,NaN,NaN,NaN,NaN,NaN,NaN,NaN,false,false,3.161822597554366,-6.344917258909053,5.007264784069797,,0.0,,,0.9999914,0.0018621617,0.0036914852,-3.4926867E-4,-7.1213767E-4,-0.0029180162,-0.004875183,-0.018249702,0.01485531,0.00920465,900,5150,0,0,4971,620,0.0,0.0,0.0,0.0,GPS_Atti,2,0,0,0,0,10,5000,0.0,0.0,17,5,3,2,0,0,,,,,,,1.0000001E-6,0.0,1.0,1.0000001E-6,0.0,1.0000001E-6,1.0000001E-6,0.0,0.006967526,1.0000001E-6,0.01931858,1.0000001E-6,-0.1,0.020000001,0.0,0.0,0.0,180.0,0.0,0.0,0.0,0,0.9999905,0.0018347779,0.0039117853,-5.8413204E-4,-0.21051036897605102,-0.44813806001871315,0.066113967030382,35.169933,-0.06443983,-0.026280334,0,0,2492,GPS_Atti,OTHER,NONE,GPS_POSITION_NONMATCH,False,Connected,,P,False,False,False,0,0,0.1,0.0,0.1,,,,,
37206572,6.459,,,35.055656,35.079216,,,0,0.21568605489035275,0.4245888099890355,-0.03988193949079098,0.008279401,-0.0024314697,-1.0013939,1.0014311,-0.9605419,0.95297533,0.45201504,1.4265764,-3.3442648E-6,5.2319036E-4,0.0017493776,0.0018259411,5.232010568198361E-4,0,0,0,0.0,57.02,-0.03988193949079098,0.476227598654389,153.03040556070178,153.0702875001926,359.9601180605092,NaN,NaN,0.0,0.0,0.0,-0.0,NaN,NaN,NaN,NaN,NaN,NaN,NaN,NaN,false,false,3.1867998325169573,-6.3934260546770965,5.0537991290547595,,0.0,,,0.9999913,0.0018834913,0.003704566,-3.4105853E-4,0.007545799,0.014240378,0.020941734,-0.01824473,0.014854797,0.009201282,800,5151,0,0,5011,620,0.0,0.0,0.0,0.0,GPS_Atti,2,0,0,0,0,10,5000,0.0,0.0,17,5,3,2,0,0,,,,,,,1.0000001E-6,0.0,1.0,1.0000001E-6,0.0,1.0000001E-6,1.0000001E-6,0.0,0.006967526,1.0000001E-6,0.01931858,1.0000001E-6,-0.1,0.020000001,0.0,0.0,0.0,180.0,0.0,0.0,0.0,0,0.9999905,0.0018347779,0.0039117853,-5.8413204E-4,-0.21051036897605102,-0.44813806001871315,0.066113967030382,35.169933,-0.06443983,-0.026280334,0,0,2492,GPS_Atti,OTHER,NONE,GPS_POSITION_NONMATCH,False,Connected,,P,False,False,False,0,0,0.1,0.0,0.1,,,,,
