Clock:Tick#;Clock:offsetTime;IMU_ATTI(0):Longitude;IMU_ATTI(0):Latitude;IMU_ATTI(0):press:D;IMU_ATTI(0):alti:D;IMU_ATTI(0):relativeHeight:C;IMU_ATTI(0):absoluteHeight:C;IMU_ATTI(0):numSats;IMU_ATTI(0):roll:C;IMU_ATTI(0):pitch:C;IMU_ATTI(0):yaw:C;IMU_ATTI(0):accelX;IMU_ATTI(0):accelY;IMU_ATTI(0):accelZ;IMU_ATTI(0):accelComposite:C;IMU_ATTI(0):gyroX;IMU_ATTI(0):gyroY;IMU_ATTI(0):gyroZ;IMU_ATTI(0):gyroComposite:C;IMU_ATTI(0):velN;IMU_ATTI(0):velE;IMU_ATTI(0):velD;IMU_ATTI(0):velComposite:C;IMU_ATTI(0):velH:C;IMU_ATTI(0):magX;IMU_ATTI(0):magY;IMU_ATTI(0):magZ;IMU_ATTI(0):magMod:C;IMU_ATTI(0):temperature;IMU_ATTI(0):yawUnWrapped:C;IMU_ATTI(0):tiltInclination:C;IMU_ATTI(0):tiltDirectionEarthFrame:C;IMU_ATTI(0):tiltDirectionBodyFrame:C;IMU_ATTI(0):yaw360:C;IMU_ATTI(0):magYaw:C;IMU_ATTI(0):Yaw-magYaw:C;IMUCalcs(0):PosN:C;IMUCalcs(0):PosE:C;IMUCalcs(0):PosD:C;IMUCalcs(0):height:C;IMUCalcs(0):velN:C;IMUCalcs(0):velE:C;IMUCalcs(0):velD:C;IMUCalcs(0):diffVelN:C;IMUCalcs(0):diffVelE:C;IMUCalcs(0):diffVelD:C;IMUCalcs(0):Lat:C;IMUCalcs(0):Long:C;IMUCalcs(0):VelocityError:C;IMUCalcs(0):PositionError:C;IMUCalcs(0):totalGyroZ:C;IMUCalcs(0):totalGyroX:C;IMUCalcs(0):totalGyroY:C;IMU_ATTI(0):distanceHP:C;IMU_ATTI(0):distanceTravelled:C;IMU_ATTI(0):directionOfTravel[mag]:C;IMU_ATTI(0):directionOfTravel[true]:C;IMU_ATTI(0):quatW:D;IMU_ATTI(0):quatX:D;IMU_ATTI(0):quatY:D;IMU_ATTI(0):quatZ:D;IMU_ATTI(0):agX:D;IMU_ATTI(0):agY:D;IMU_ATTI(0):agZ:D;IMU_ATTI(0):gbX:D;IMU_ATTI(0):gbY:D;IMU_ATTI(0):gbZ:D;IMU_ATTI(0):ty:D;IMU_ATTI(0):tz:D;IMU_ATTI(0):sensor_stat:D;IMU_ATTI(0):filter_stat:D;IMU_ATTI(0):atti_cnt:D;Controller:ctrl_tick:D;Controller:ctrl_pitch:D;Controller:ctrl_roll:D;Controller:ctrl_yaw:D;Controller:ctrl_thr:D;Controller:ctrl_mode;Controller:mode_switch:D;Controller:motor_state:D;Controller:sig_level:D;Controller:ctrl_level:D;Controller:sim_model:D;Controller:max_height:D;Controller:max_radius:D;Controller:D2H_x:D;Controller:D2H_y:D;Controller:act_req_id:D;Controller:act_act_id:D;Controller:cmd_mod:D;Controller:mod_req_id:D;Controller:is_soaring_up:D;Controller:eagle_temp_level:D;MVO:velX;MVO:velY;MVO:velZ;MVO:posX;MVO:posY;MVO:posZ;MVO:hoverPointUncertainty1;MVO:hoverPointUncertainty2;MVO:hoverPointUncertainty3;MVO:hoverPointUncertainty4;MVO:hoverPointUncertainty5;MVO:hoverPointUncertainty6;MVO:velocityUncertainty1;MVO:velocityUncertainty2;MVO:velocityUncertainty3;MVO:velocityUncertainty4;MVO:velocityUncertainty5;MVO:velocityUncertainty6;MVO:height;MVO:heightUncertainty;AirSpeed:comp_alti:D;AirSpeed:windSpeed;AirSpeed:windDirection;AirSpeed:windFromDir;AirSpeed:windN;AirSpeed:windE;AirSpeed:MotorSpd:D;AirSpeed:vel_level:D;ATTI_MINI0:s_qw0;ATTI_MINI0:s_qx0;ATTI_MINI0:s_qy0;ATTI_MINI0:s_qz0;ATTI_MINI0:roll:C;ATTI_MINI0:pitch:C;ATTI_MINI0:yaw:C;ATTI_MINI0:s_pgz0;ATTI_MINI0:s_vgz0;ATTI_MINI0:s_agz0;ATTI_MINI0:s_rsv00;ATTI_MINI0:s_rsv10;ATTI_MINI0:s_cnt0;osd_data:flyCState;osd_data:flycCommand;osd_data:flightAction;osd_data:nonGPSCause;osd_data:compassError;osd_data:connectedToRC;osd_data:lowVoltage;osd_data:ModeSwitch;osd_data:gpsUsed;osd_data:visionUsed;osd_data:notEnoughForce;osd_data:flightTime;osd_data:navHealth;osd_data:vpsHeight;osd_data:relativeHeight;usonic:usonic_h;MotorCtrl:PWM:RFront;MotorCtrl:PWM:LFront;MotorCtrl:PWM:LBack;MotorCtrl:PWM:RBack;Attribute|Value;ConvertDatV3;4.3.0
0;-1.809;;;;;;;;;;;;;;;;;;;;;;;;;;;;;;;;;;;;;;;;;;;;;;;;;;;;;;;;;;;;;;;;;;;;;;;;;;;;;;;;;;;;;;;;;;;;;;;;;;;;;;;;;;;;;;;;;;;;;;;;;;;;;;;;;;;;;;;;;;;;;;;;;;;;;;;;;;;;
8142136;.000;;;35.063.583;-0.0;;;0;NaN;0.0;0.0;-0.007916293;0.0067614447;-10.084.704;10.085.242;1.666.015;14.321.898;0.85991675;2.359.286;0.0;0.0;0.0;0.0;0.0;0;0;0;0.0;53.34;0.0;NaN;NaN;NaN;0.0;NaN;NaN;0.0;0.0;0.0;-0.0;NaN;NaN;NaN;NaN;NaN;NaN;NaN;NaN;FALSE;FALSE;0.0;0.0;0.0;;0.0;;;0.0;0.0;0.0;0.0;0.0;0.0;0.0;0.0;0.0;0.0;700;5134;0;0;39;;;;;;;;;;;;;;;;;;;;;;;;;;;;;;;;;;;;;;;;0.0;;;;;;;;;;;;;;;;;;;;;;;;;;;;;;P;;;;;;;;;;;;;Firmware Date| May  7 2019;;
8345580;.045;;;35.063.583;-0.0;;;0;NaN;0.0;0.0;-0.007916293;0.0067614447;-10.084.704;10.085.242;1.666.015;14.321.898;0.85991675;2.359.286;0.0;0.0;0.0;0.0;0.0;0;0;0;0.0;53.34;0.0;NaN;NaN;NaN;0.0;NaN;NaN;0.0;0.0;0.0;-0.0;NaN;NaN;NaN;NaN;NaN;NaN;NaN;NaN;FALSE;FALSE;0.0;0.0;0.0;;0.0;;;0.0;0.0;0.0;0.0;0.0;0.0;0.0;0.0;0.0;0.0;700;5134;0;0;39;10;0.0;0.0;0.0;0.0;Manual;0;0;0;0;0;500;5000;0.0;0.0;17;5;26;17;0;0;;;;;;;;;;;;;;;;;;;0.0;;;;;;;;;;0.0;0.0;0.0;0.0;NaN;NaN;NaN;-0.0;0.0;0.0;0;0;20;;;;;;;;P;;;;;;;;;;;;;ACType|Tello;;
8610886;.104;;;3.508.208;-0.0;;;0;NaN;0.0;0.0;0.0062061017;-0.0036827417;-10.062.255;10.062.513;-10.646.727;0.6943691;0.57988954;13.971.214;0.0;0.0;0.0;0.0;0.0;0;0;0;0.0;53.58;0.0;NaN;NaN;NaN;0.0;NaN;NaN;0.0;0.0;0.0;-0.0;NaN;NaN;NaN;NaN;NaN;NaN;NaN;NaN;FALSE;FALSE;0.01510116326242894;-0.027725619099541632;0.01808237631003351;;0.0;;;0.0;0.0;0.0;0.0;0.0;0.0;0.0;0.0;0.0;0.0;700;5137;0;0;119;10;0.0;0.0;0.0;0.0;Manual;0;0;0;0;0;500;5000;0.0;0.0;17;5;26;17;0;0;;;;;;;;;;;;;;;;;;;0.0;;;;;;;;;;0.0;0.0;0.0;0.0;NaN;NaN;NaN;-0.0;0.0;0.0;0;0;40;;;;;;;;P;;;;;;;;;;;;;;;
8814335;.149;;;3.508.208;-0.0;;;0;NaN;0.0;0.0;0.0062061017;-0.0036827417;-10.062.255;10.062.513;-10.646.727;0.6943691;0.57988954;13.971.214;0.0;0.0;0.0;0.0;0.0;0;0;0;0.0;53.58;0.0;NaN;NaN;NaN;0.0;NaN;NaN;0.0;0.0;0.0;-0.0;NaN;NaN;NaN;NaN;NaN;NaN;NaN;NaN;FALSE;FALSE;0.01510116326242894;-0.027725619099541632;0.01808237631003351;;0.0;;;0.0;0.0;0.0;0.0;0.0;0.0;0.0;0.0;0.0;0.0;700;5137;0;0;119;20;0.0;0.0;0.0;0.0;Manual;0;0;0;0;0;500;5000;0.0;0.0;17;5;26;17;0;0;;;;;;;;;;;;;;;;;;;0.0;;;;;;;;;;0.0;0.0;0.0;0.0;NaN;NaN;NaN;-0.0;0.0;0.0;0;0;60;;;;;;;;P;;;;;;;;;;;;;;;
9079716;.208;;;34.989.597;-0.0;;;0;NaN;0.0;0.0;0.006516169;-0.004197568;-10.074.522;1.007.482;-11.248.417;0.8285511;0.53736746;14.968.399;0.0;0.0;0.0;0.0;0.0;0;0;0;0.0;53.53;0.0;NaN;NaN;NaN;0.0;NaN;NaN;0.0;0.0;0.0;-0.0;NaN;NaN;NaN;NaN;NaN;NaN;NaN;NaN;FALSE;FALSE;0.0682843999264513;-0.1343065335779663;0.10682810312847835;;0.0;;;0.0;0.0;0.0;0.0;0.0;0.0;0.0;0.0;0.0;0.0;700;5142;0;0;199;20;0.0;0.0;0.0;0.0;Manual;0;0;0;0;0;500;5000;0.0;0.0;17;5;26;17;0;0;;;;;;;;;;;;;;;;;;;0.0;;0.0;0.0;0.0;180.0;0.0;0.0;0.0;0;0.0;0.0;0.0;0.0;NaN;NaN;NaN;-0.0;0.0;0.0;0;0;80;;;;;;;;P;;;;;;;;;;;;;;;
9236416;.243;;;34.989.597;-0.0;;;0;NaN;0.0;0.0;0.006516169;-0.004197568;-10.074.522;1.007.482;-11.248.417;0.8285511;0.53736746;14.968.399;0.0;0.0;0.0;0.0;0.0;0;0;0;0.0;53.53;0.0;NaN;NaN;NaN;0.0;NaN;NaN;0.0;0.0;0.0;-0.0;NaN;NaN;NaN;NaN;NaN;NaN;NaN;NaN;FALSE;FALSE;0.0682843999264513;-0.1343065335779663;0.10682810312847835;;0.0;;;0.0;0.0;0.0;0.0;0.0;0.0;0.0;0.0;0.0;0.0;700;5142;0;0;199;20;0.0;0.0;0.0;0.0;Manual;0;0;0;0;0;500;5000;0.0;0.0;17;5;26;17;0;0;;;;;;;;;;;;;;;;;;;0.0;;0.0;0.0;0.0;180.0;0.0;0.0;0.0;0;0.0;0.0;0.0;0.0;NaN;NaN;NaN;-0.0;0.0;0.0;0;0;100;Manual;OTHER;NONE;GPS_POSITION_NONMATCH;FALSE;Connected;;P;FALSE;FALSE;TRUE;0;0;;0.0;;;;;;;;
9751853;.358;;;34.997.524;-0.0;;;0;NaN;0.0;0.0;0.005059626;-0.003928633;-10.053.244;10.053.447;-0.96562546;0.7339796;0.56738305;13.390.601;0.0;0.0;0.0;0.0;0.0;0;0;0;0.0;53.6;0.0;NaN;NaN;NaN;0.0;NaN;NaN;0.0;0.0;0.0;-0.0;NaN;NaN;NaN;NaN;NaN;NaN;NaN;NaN;FALSE;FALSE;0.09704573547933748;-0.18873024874539013;0.14750739596416196;;0.0;;;0.0;0.0;0.0;0.0;0.0;0.0;0.0;0.0;0.0;0.0;700;5142;0;0;239;30;0.0;0.0;0.0;0.0;Manual;0;0;0;0;0;500;5000;0.0;0.0;17;5;26;17;0;0;;;;;;;;;;;;;;;;;;;0.0;;0.0;0.0;0.0;180.0;0.0;0.0;0.0;0;0.0;0.0;0.0;0.0;NaN;NaN;NaN;-0.0;0.0;0.0;0;0;100;Manual;OTHER;NONE;GPS_POSITION_NONMATCH;FALSE;Connected;;P;FALSE;FALSE;TRUE;0;0;;0.0;;;;;;;;
27028509;4.197;;;34.997.524;-0.0;;;0;NaN;0.0;0.0;0.005059626;-0.003928633;-10.053.244;10.053.447;-0.96562546;0.7339796;0.56738305;13.390.601;0.0;0.0;0.0;0.0;0.0;0;0;0;0.0;53.6;0.0;NaN;NaN;NaN;0.0;NaN;NaN;0.0;0.0;0.0;-0.0;NaN;NaN;NaN;NaN;NaN;NaN;NaN;NaN;FALSE;FALSE;0.09704573547933748;-0.18873024874539013;0.14750739596416196;;0.0;;;0.0;0.0;0.0;0.0;0.0;0.0;0.0;0.0;0.0;0.0;700;5142;0;0;239;30;0.0;0.0;0.0;0.0;Manual;0;0;0;0;0;500;5000;0.0;0.0;17;5;26;17;0;0;;;;;;;;;;;;;;;;;;;0.0;;0.0;0.0;0.0;180.0;0.0;0.0;0.0;0;0.0;0.0;0.0;0.0;NaN;NaN;NaN;-0.0;0.0;0.0;0;0;100;Manual;OTHER;NONE;GPS_POSITION_NONMATCH;FALSE;Connected;;P;FALSE;FALSE;TRUE;0;0;;0.0;;;;;;;;
27263108;4.249;;;35.074.154;3.507.293;;;0;0.19706292278692863;0.40269699483807603;-0.01263428464648091;0.0076646768;-0.0045942;-10.039.928;10.040.326;-1.009.263;0.78498477;0.40995952;13.427.136;9,04E+01;4,87E+02;0.005716382;0.0057173045;1,03E+12;0;0;0;0.0;55.59;-0.01263428464648091;0.448325894303333;15.391.247.295.466.600;15.392.510.723.931.300;3.599.873.657.153.530;NaN;NaN;0.0;0.0;0.0;-0.0;NaN;NaN;NaN;NaN;NaN;NaN;NaN;NaN;FALSE;FALSE;203.160.360.976.101;-4.097.836.635.819.080;31.541.547.244.174.000;;0.0;;;0.9999924;0.0017200744;0.003513992;-1,04E+03;0.00872869;-0.014362719;0.014725685;-0.018329745;0.014856526;0.009427911;800;5125;0;0;3291;410;0.0;0.0;0.0;0.0;GPS_Atti;2;0;0;0;0;10;5000;0.0;0.0;17;5;3;2;0;0;;;;;;;;;;;;;;;;;;;0.0;;0.0;0.0;0.0;180.0;0.0;0.0;0.0;0;0.99999166;0.0016767838;0.0037318016;2,46E+03;-0.19203864947767835;-0.42768301740605114;-0.028948172830188638;3.518.337;-0.090958;-0.030891329;0;0;1652;Manual;OTHER;NONE;GPS_POSITION_NONMATCH;FALSE;Connected;;P;FALSE;FALSE;TRUE;0;0;;0.0;;;;;;;;
27758087;4.359;;;35.074.154;35.073.036;;;0;0.19834110000931426;0.4028273769452867;-0.018856070518954285;0.0072341515;-0.00415024;-1.003.764;10.037.986;-10.036.447;0.7290503;0.44822893;13.189.868;3,90E+02;-1,69E+03;0.004864757;0.0048678378;1,73E+12;0;0;0;0.0;55.59;-0.018856070518954285;0.44900611902183035;15.376.706.319.178.600;15.378.591.926.230.500;35.998.114.392.948.100;NaN;NaN;0.0;0.0;0.0;-0.0;NaN;NaN;NaN;NaN;NaN;NaN;NaN;NaN;FALSE;FALSE;2.053.968.908.778.290;-4.150.295.141.359.320;31.936.120.796.351.300;;0.0;;;0.9999924;0.0017314196;0.0035150344;-1,58E+03;0.0040917583;-0.009249913;0.016431808;-0.018326081;0.014858838;0.009427353;900;5126;0;0;3331;410;0.0;0.0;0.0;0.0;GPS_Atti;2;0;0;0;0;10;5000;0.0;0.0;17;5;3;2;0;0;;;;;;;1,00E+01;0.0;1.0;1,00E+01;0.0;1,00E+01;1,00E+01;0.0;-0.005402159;1,00E+01;0.029081345;1,00E+01;-0.1;0.020000001;0.0;0.0;0.0;180.0;0.0;0.0;0.0;0;0.99999166;0.0016967871;0.0037327756;1,91E+03;-0.1943545231508308;-0.42778442688565554;-0.022605526263766124;35.184.566;-0.09183813;-0.028447287;0;0;1672;GPS_Atti;OTHER;NONE;GPS_POSITION_NONMATCH;FALSE;Connected;;P;FALSE;FALSE;FALSE;0;0;0.1;0.0;;;;;;;;
27923101;4.396;;;3.509.529;35.073.326;;;0;0.19131689410703126;0.406896321062065;-0.022800553637853466;0.0071387114;-0.0022439936;-10.038.949;10.039.228;-0.9913315;0.9276442;0.65158945;15.059.319;-6,18E+02;-1,82E+03;0.005289271;0.005292759;1,92E+12;0;0;0;0.0;55.71;-0.022800553637853466;0.44962685509247724;1.547.952.424.926.990;15.481.804.304.633.700;35.997.719.944.636.200;NaN;NaN;0.0;0.0;0.0;-0.0;NaN;NaN;NaN;NaN;NaN;NaN;NaN;NaN;FALSE;FALSE;21.112.077.627.685.600;-4.254.121.513.901.790;3.279.832.945.568.590;;0.0;;;0.9999923;0.0016702501;0.0035504955;-1,93E+03;-2,13E+03;0.012700142;0.016183853;-0.018316241;0.014863236;0.009419558;800;5125;0;0;3411;410;0.0;0.0;0.0;0.0;GPS_Atti;2;0;0;0;0;10;5000;0.0;0.0;17;5;3;2;0;0;;;;;;;1,00E+01;0.0;10.075.422;1,00E+01;0.0;1,00E+01;1,00E+01;0.0;-0.006485801;1,00E+01;0.038882256;1,00E+01;-0.1;0.020000001;0.0;0.0;0.0;180.0;0.0;0.0;0.0;0;0.99999154;0.0016603012;0.0037661497;1,54E+03;-0.19018898489706806;-0.43160095452205094;-0.018308446402086474;35.188.175;-0.09181525;-0.02724958;0;0;1712;GPS_Atti;OTHER;NONE;GPS_POSITION_NONMATCH;FALSE;Connected;;P;FALSE;FALSE;FALSE;0;0;0.1;0.0;0.1;;;;;;;
28077936;4.430;;;350.583;35.073.544;;;0;0.1894488256938969;0.4054282170861417;-0.027612654876282915;0.0072034104;-0.0021779845;-10.012.394;10.012.677;-10.779.918;0.8196145;0.400522;141.218;8,11E+01;5,01E+01;0.0055184723;0.0055192956;9,53E+10;0;0;0;0.0;55.75;-0.027612654876282915;0.447504749399798;15.492.689.224.305.200;15.495.450.489.792.800;3.599.723.873.451.230;NaN;NaN;0.0;0.0;0.0;-0.0;NaN;NaN;NaN;NaN;NaN;NaN;NaN;NaN;FALSE;FALSE;2.138.624.893.510.990;-4.308.046.323.202.350;3.325.365.023.930.120;;0.0;;;0.9999924;0.0016540943;0.0035376179;-2,35E+03;4,85E+01;0.013268141;0.03987789;-0.01831322;0.01486432;0.009413708;800;5128;0;0;3451;430;0.0;0.0;0.0;0.0;GPS_Atti;2;0;0;0;0;10;5000;0.0;0.0;17;5;3;2;0;0;;;;;;;1,00E+01;0.0;10.075.422;1,00E+01;0.0;1,00E+01;1,00E+01;0.0;-0.006485801;1,00E+01;0.038882256;1,00E+01;-0.1;0.020000001;0.0;0.0;0.0;180.0;0.0;0.0;0.0;0;0.9999916;0.0016400169;0.0037548142;1,09E+04;-0.1878840088664258;-0.4302932179242823;-0.013181523089436728;35.188.297;-0.08843711;-0.0026548365;0;0;1732;GPS_Atti;OTHER;NONE;GPS_POSITION_NONMATCH;FALSE;Connected;;P;FALSE;FALSE;FALSE;0;0;0.1;0.0;0.1;;;;;;;
28301006;4.480;;;3.501.074;350.737;;;0;0.18962283750018477;0.40478261539072663;-0.02837389661858648;0.0082058525;-0.0034740802;-10.002.847;10.003.244;-11.112.142;0.7195519;0.5570397;14.362.608;2,78E+03;-2,78E+03;0.0059615006;0.0059744646;3,93E+12;0;0;0;0.0;55.73;-0.02837389661858648;0.4469937286228217;15.487.088.990.316.700;15.489.926.379.978.600;3.599.716.261.033.810;NaN;NaN;0.0;0.0;0.0;-0.0;NaN;NaN;NaN;NaN;NaN;NaN;NaN;NaN;FALSE;FALSE;21.636.119.258.882.200;-436.517.242.058.142;33.655.287.053.596.000;;0.0;;;0.9999924;0.001655635;0.0035319726;-2,42E+03;0.012752954;-0.0035165306;0.047392845;-0.018311223;0.014865394;0.009406147;0;5129;0;0;3491;430;0.0;0.0;0.0;0.0;GPS_Atti;2;0;0;0;0;10;5000;0.0;0.0;17;5;3;2;0;0;;;;;;;1,00E+01;0.0;10.075.422;1,00E+01;0.0;1,00E+01;1,00E+01;0.0;-0.006485801;1,00E+01;0.038882256;1,00E+01;-0.1;0.020000001;0.0;0.0;0.0;180.0;0.0;0.0;0.0;0;0.9999916;0.0016400169;0.0037548142;1,09E+04;-0.1878840088664258;-0.4302932179242823;-0.013181523089436728;35.188.297;-0.08843711;-0.0026548365;0;0;1732;GPS_Atti;OTHER;NONE;GPS_POSITION_NONMATCH;FALSE;Connected;;P;FALSE;FALSE;FALSE;0;0;0.1;0.0;0.1;;;;;;;
28501907;4.524;;;3.501.074;350.737;;;0;0.18962283750018477;0.40478261539072663;-0.02837389661858648;0.0082058525;-0.0034740802;-10.002.847;10.003.244;-11.112.142;0.7195519;0.5570397;14.362.608;2,78E+03;-2,78E+03;0.0059615006;0.0059744646;3,93E+12;0;0;0;0.0;55.73;-0.02837389661858648;0.4469937286228217;15.487.088.990.316.700;15.489.926.379.978.600;3.599.716.261.033.810;NaN;NaN;0.0;0.0;0.0;-0.0;NaN;NaN;NaN;NaN;NaN;NaN;NaN;NaN;FALSE;FALSE;21.636.119.258.882.200;-436.517.242.058.142;33.655.287.053.596.000;;0.0;;;0.9999924;0.001655635;0.0035319726;-2,42E+03;0.012752954;-0.0035165306;0.047392845;-0.018311223;0.014865394;0.009406147;0;5129;0;0;3491;440;0.0;0.0;0.0;0.0;GPS_Atti;2;0;0;0;0;10;5000;0.0;0.0;17;5;3;2;0;0;;;;;;;1,00E+01;0.0;10.075.422;1,00E+01;0.0;1,00E+01;1,00E+01;0.0;-0.006902706;1,00E+01;0.058412552;1,00E+01;-0.1;0.020000001;0.0;0.0;0.0;180.0;0.0;0.0;0.0;0;0.9999916;0.0016550096;0.0037549874;9,89E+02;-0.18960631170011866;-0.43031136709384105;-0.01204643656253001;35.186.802;-0.08325485;0.0058649275;0;0;1752;GPS_Atti;OTHER;NONE;GPS_POSITION_NONMATCH;FALSE;Connected;;P;FALSE;FALSE;FALSE;0;0;0.1;0.0;0.1;;;;;;;
28668862;4.561;;;35.074.154;35.073.776;;;0;0.19015579472967442;0.40357483949808015;-0.029057931468726986;0.006441326;-0.0030487252;-10.027.155;10.027.407;-11.337.261;0.7005788;0.39532074;13.901.166;1,95E+03;8,11E+02;0.0047722347;0.004776902;2,11E+10;0;0;0;0.0;55.82;-0.029057931468726986;0.4461272076633769;15.474.242.006.398.000;15.477.147.799.544.900;35.997.094.206.853.100;NaN;NaN;0.0;0.0;0.0;-0.0;NaN;NaN;NaN;NaN;NaN;NaN;NaN;NaN;FALSE;FALSE;21.883.242.735.925.300;-4.423.425.308.405.850;3.402.379.002.356.410;;0.0;;;0.99999243;0.0016603044;0.0035214217;-2,48E+03;-0.0062961187;0.003675866;0.024214745;-0.018310145;0.014865383;0.009397995;800;5128;0;0;3531;440;0.0;0.0;0.0;0.0;GPS_Atti;2;0;0;0;0;10;5000;0.0;0.0;17;5;3;2;0;0;;;;;;;1,00E+01;0.0;10.075.422;1,00E+01;0.0;1,00E+01;1,00E+01;0.0;-0.006902706;1,00E+01;0.058412552;1,00E+01;-0.1;0.020000001;0.0;0.0;0.0;180.0;0.0;0.0;0.0;0;0.99999166;0.0016480925;0.0037481277;8,83E+01;-0.1888183247471984;-0.4295231720088843;-0.010824174379250148;35.186.813;-0.08537563;-0.016612932;0;0;1772;GPS_Atti;OTHER;NONE;GPS_POSITION_NONMATCH;FALSE;Connected;;P;FALSE;FALSE;FALSE;0;0;0.1;0.0;0.1;;;;;;;
28860396;4.604;;;35.074.154;3.507.393;;;0;0.1889035650820724;0.4041761852305813;-0.03246475580975076;0.0074103083;-0.004012247;-10.031.104;10.031.458;-10.631.889;0.92542213;0.47539914;14.875.419;2,26E+03;-3,90E+02;0.0048831934;0.0048885825;2,29E+12;0;0;0;0.0;55.73;-0.03246475580975076;0.44613963961979775;1.549.174.088.668.460;15.494.987.362.265.500;35.996.753.524.419.000;NaN;NaN;0.0;0.0;0.0;-0.0;NaN;NaN;NaN;NaN;NaN;NaN;NaN;NaN;FALSE;FALSE;22.110.346.309.480.400;-4.480.725.855.430.900;3.444.788.809.781.120;;0.0;;;0.9999924;0.0016494828;0.0035266234;-2,77E+02;0.0038761273;-0.008076729;0.01725483;-0.018310208;0.014863402;0.00938946;800;5130;0;0;3571;440;0.0;0.0;0.0;0.0;GPS_Atti;2;0;0;0;0;10;5000;0.0;0.0;17;5;3;2;0;0;;;;;;;1,00E+01;0.0;10.075.422;1,00E+01;0.0;1,00E+01;1,00E+01;0.0;-0.0069687255;1,00E+01;0.029083252;1,00E+01;-0.1;0.020000001;0.0;0.0;0.0;180.0;0.0;0.0;0.0;0;0.99999166;0.0016453848;0.0037562058;5,25E+02;-0.18852335872922016;-0.43044205011213055;-0.006723731456390039;3.518.849;-0.087890916;-0.023082722;0;0;1792;GPS_Atti;OTHER;NONE;GPS_POSITION_NONMATCH;FALSE;Connected;;P;FALSE;FALSE;FALSE;0;0;0.1;0.0;0.1;;;;;;;
29015451;4.639;;;35.100.574;3.507.418;;;0;0.18768849668828375;0.407879711452872;-0.031620994437281995;0.0063698376;-0.0042466978;-10.024.678;1.002.497;-10.671.753;0.80057365;0.5647711;14.487.056;1,79E+01;-4,29E+02;0.0036257089;0.0036260074;4,65E+10;0;0;0;0.0;55.84;-0.031620994437281995;0.4489882521486995;15.525.883.859.459.400;15.529.045.958.903.100;3.599.683.790.055.620;NaN;NaN;0.0;0.0;0.0;-0.0;NaN;NaN;NaN;NaN;NaN;NaN;NaN;NaN;FALSE;FALSE;2.238.105.864.874.720;-4.536.170.228.048.230;34.897.091.825.628.100;;0.0;;;0.9999923;0.0016388622;0.0035589575;-2,70E+03;-0.0078108124;-0.00836765;0.02558422;-0.018312579;0.014859271;0.009380123;800;5130;0;0;3611;450;0.0;0.0;0.0;0.0;GPS_Atti;2;0;0;0;0;10;5000;0.0;0.0;17;5;3;2;0;0;;;;;;;1,00E+01;0.0;10.075.422;1,00E+01;0.0;1,00E+01;1,00E+01;0.0;-0.0069687255;1,00E+01;0.029083252;1,00E+01;-0.1;0.020000001;0.0;0.0;0.0;180.0;0.0;0.0;0.0;0;0.9999916;0.0016265288;0.0037785973;5,27E+02;-0.1863623763346052;-0.433007860940687;-0.006747466055581541;35.189.632;-0.089595385;-0.014113214;0;0;1812;GPS_Atti;OTHER;NONE;GPS_POSITION_NONMATCH;FALSE;Connected;;P;FALSE;FALSE;FALSE;0;0;0.1;0.0;0.1;;;;;;;
29632991;4.776;;;35.100.574;3.507.418;;;0;0.18768849668828375;0.407879711452872;-0.031620994437281995;0.0063698376;-0.0042466978;-10.024.678;1.002.497;-10.671.753;0.80057365;0.5647711;14.487.056;1,79E+01;-4,29E+02;0.0036257089;0.0036260074;4,65E+10;0;0;0;0.0;55.84;-0.031620994437281995;0.4489882521486995;15.525.883.859.459.400;15.529.045.958.903.100;3.599.683.790.055.620;NaN;NaN;0.0;0.0;0.0;-0.0;NaN;NaN;NaN;NaN;NaN;NaN;NaN;NaN;FALSE;FALSE;2.238.105.864.874.720;-4.536.170.228.048.230;34.897.091.825.628.100;;0.0;;;0.9999923;0.0016388622;0.0035589575;-2,70E+03;-0.0078108124;-0.00836765;0.02558422;-0.018312579;0.014859271;0.009380123;800;5130;0;0;3611;450;0.0;0.0;0.0;0.0;GPS_Atti;2;0;0;0;0;10;5000;0.0;0.0;17;5;3;2;0;0;;;;;;;1,00E+01;0.0;10.075.422;1,00E+01;0.0;1,00E+01;1,00E+01;0.0;-0.0069687255;1,00E+01;0.029083252;1,00E+01;-0.1;0.020000001;0.0;0.0;0.0;180.0;0.0;0.0;0.0;0;0.9999916;0.0016265288;0.0037785973;5,27E+02;-0.1863623763346052;-0.433007860940687;-0.006747466055581541;35.189.632;-0.089595385;-0.014113214;0;0;1812;GPS_Atti;OTHER;NONE;GPS_POSITION_NONMATCH;FALSE;Connected;;P;FALSE;FALSE;FALSE;0;0;0.1;0.0;0.1;;;;;;;
29797848;4.812;;;3.503.716;35.075.287;;;0;0.19215558152300236;0.4134967767319365;-0.032343099811646396;0.0071338387;-0.0037706417;-10.024.998;10.025.322;-0.9443351;10.047.964;0.54502296;14.827.119;4,04E+01;-5,83E+02;0.0037149186;0.0037372315;4,08E+12;0;0;0;0.0;55.87;-0.032343099811646396;0.4559613885021461;15.504.324.820.002.800;1.550.755.912.998.400;35.996.765.690.018.800;NaN;NaN;0.0;0.0;0.0;-0.0;NaN;NaN;NaN;NaN;NaN;NaN;NaN;NaN;FALSE;FALSE;2.324.786.301.370.500;-4.693.279.191.032.020;36.307.175.599.386.500;;0.0;;;0.9999921;0.0016778805;0.0036079537;-2,76E+03;-0.0010078661;-0.0038759485;0.02244091;-0.018321304;0.014854249;0.009352873;800;5132;0;0;3731;450;0.0;0.0;0.0;0.0;GPS_Atti;2;0;0;0;0;10;5000;0.0;0.0;17;5;3;2;0;0;;;;;;;1,00E+01;0.0;1.0;1,00E+01;0.0;1,00E+01;1,00E+01;0.0;0.003328668;1,00E+01;0.019245148;1,00E+01;-0.1;0.020000001;0.0;0.0;0.0;180.0;0.0;0.0;0.0;0;0.99999136;0.0016525498;0.0038218088;1,69E+02;-0.1893595724427158;-0.4379530540491782;-0.0026567933406606483;35.192.486;-0.08479489;-0.015164751;0;0;1872;GPS_Atti;OTHER;NONE;GPS_POSITION_NONMATCH;FALSE;Connected;;P;FALSE;FALSE;FALSE;0;0;0.1;0.0;0.1;;;;;;;
29953115;4.847;;;35.066.227;3.507.557;;;0;0.19486791509552534;0.4140304011424895;-0.03220466822924698;0.00887044;-0.0037158628;-10.014.031;10.014.493;-10.142.409;0.7036312;0.5773419;13.627.565;6,15E+01;-5,61E+02;0.005663602;0.0056972248;6,18E+11;0;0;0;0.0;55.95;-0.03220466822924698;0.45759374299091515;15.476.356.307.241.200;15.479.576.774.064.200;35.996.779.533.177.000;NaN;NaN;0.0;0.0;0.0;-0.0;NaN;NaN;NaN;NaN;NaN;NaN;NaN;NaN;FALSE;FALSE;2.354.004.206.503.400;-4.744.265.717.605.770;367.519.211.248.986;;0.0;;;0.999992;0.0017015468;0.0036126056;-2,75E+03;0.01661184;-0.0041779857;0.031505585;-0.018322932;0.014852771;0.009345612;800;5132;0;0;3771;470;0.0;0.0;0.0;0.0;GPS_Atti;2;0;0;0;0;10;5000;0.0;0.0;17;5;3;2;0;0;;;;;;;1,00E+01;0.0;1.0;1,00E+01;0.0;1,00E+01;1,00E+01;0.0;0.003328668;1,00E+01;0.019245148;1,00E+01;-0.1;0.020000001;0.0;0.0;0.0;180.0;0.0;0.0;0.0;0;0.99999124;0.0016691149;0.0038400088;6,22E+01;-0.19126242089134168;-0.4400366945057428;-0.001447477129371838;35.191.784;-0.08121576;-0.005382766;0;0;1892;GPS_Atti;OTHER;NONE;GPS_POSITION_NONMATCH;FALSE;Connected;;P;FALSE;FALSE;FALSE;0;0;0.1;0.0;0.1;;;;;;;
30175207;4.896;;;3.509.529;35.075.886;;;0;0.19625338590147992;0.4192740656548611;-0.027822028661764024;0.008856997;-0.003658619;-10.039.511;10.039.967;-10.209.126;0.8479824;0.56182694;14.411.753;1,72E+03;-1,12E+03;0.0053725285;0.0053764544;2,05E+12;0;0;0;0.0;56.01;-0.027822028661764024;0.4629291346974294;15.488.917.754.022.200;15.491.699.956.888.400;3.599.721.779.713.380;NaN;NaN;0.0;0.0;0.0;-0.0;NaN;NaN;NaN;NaN;NaN;NaN;NaN;NaN;FALSE;FALSE;2.383.680.201.891.000;-47.972.826.217.020.100;37.156.125.282.594.900;;0.0;;;0.99999183;0.0017135099;0.003658427;-2,37E+03;0.014443688;-0.0011606123;0.007905006;-0.018321835;0.014850208;0.009339291;800;5132;0;0;3811;470;0.0;0.0;0.0;0.0;GPS_Atti;2;0;0;0;0;10;5000;0.0;0.0;17;5;3;2;0;0;;;;;;;1,00E+01;0.0;1.0;1,00E+01;0.0;1,00E+01;1,00E+01;0.0;0.003328668;1,00E+01;0.019245148;1,00E+01;-0.1;0.020000001;0.0;0.0;0.0;180.0;0.0;0.0;0.0;0;0.99999124;0.0016691149;0.0038400088;6,22E+01;-0.19126242089134168;-0.4400366945057428;-0.001447477129371838;35.191.784;-0.08121576;-0.005382766;0;0;1892;GPS_Atti;OTHER;NONE;GPS_POSITION_NONMATCH;FALSE;Connected;;P;FALSE;FALSE;FALSE;0;0;0.1;0.0;0.1;;;;;;;
30376898;4.941;;;3.509.529;35.075.886;;;0;0.19625338590147992;0.4192740656548611;-0.027822028661764024;0.008856997;-0.003658619;-10.039.511;10.039.967;-10.209.126;0.8479824;0.56182694;14.411.753;1,72E+03;-1,12E+03;0.0053725285;0.0053764544;2,05E+12;0;0;0;0.0;56.01;-0.027822028661764024;0.4629291346974294;15.488.917.754.022.200;15.491.699.956.888.400;3.599.721.779.713.380;NaN;NaN;0.0;0.0;0.0;-0.0;NaN;NaN;NaN;NaN;NaN;NaN;NaN;NaN;FALSE;FALSE;2.383.680.201.891.000;-47.972.826.217.020.100;37.156.125.282.594.900;;0.0;;;0.99999183;0.0017135099;0.003658427;-2,37E+03;0.014443688;-0.0011606123;0.007905006;-0.018321835;0.014850208;0.009339291;800;5132;0;0;3811;480;0.0;0.0;0.0;0.0;GPS_Atti;2;0;0;0;0;10;5000;0.0;0.0;17;5;3;2;0;0;;;;;;;1,00E+01;0.0;1.0;1,00E+01;0.0;1,00E+01;1,00E+01;0.0;0.004123181;1,00E+01;0.009516716;1,00E+01;-0.1;0.020000001;0.0;0.0;0.0;180.0;0.0;0.0;0.0;0;0.9999911;0.0016916178;0.003870544;3,19E+02;-0.19382960037150945;-0.4435408145847823;-0.004405971760133524;3.519.193;-0.08129527;-0.028232567;0;0;1912;GPS_Atti;OTHER;NONE;GPS_POSITION_NONMATCH;FALSE;Connected;;P;FALSE;FALSE;FALSE;0;0;0.1;0.0;0.1;;;;;;;
30543884;4.978;;;3.508.472;35.076.176;;;0;0.197687227605467;0.4220315626576082;-0.030304955854511127;0.007394301;-0.003967703;-1.001.176;10.012.112;-10.335.084;0.8083615;0.41637582;13.765.743;1,78E+03;-1,91E+03;0.0060290163;0.0060346737;2,61E+10;0;0;0;0.0;56.06;-0.030304955854511127;0.46603439018161646;1.548.707.630.748.960;15.490.106.803.075.100;3.599.696.950.441.450;NaN;NaN;0.0;0.0;0.0;-0.0;NaN;NaN;NaN;NaN;NaN;NaN;NaN;NaN;FALSE;FALSE;24.091.918.585.412.800;-4.850.862.193.355.140;3.758.810.194.440.050;;0.0;;;0.9999917;0.0017261079;0.00368245;-2,58E+03;-6,90E+03;-0.0044761207;0.031923294;-0.018320646;0.014849906;0.009333546;900;5132;0;0;3851;480;0.0;0.0;0.0;0.0;GPS_Atti;2;0;0;0;0;10;5000;0.0;0.0;17;5;3;2;0;0;;;;;;;1,00E+01;0.0;1.0;1,00E+01;0.0;1,00E+01;1,00E+01;0.0;0.004123181;1,00E+01;0.009516716;1,00E+01;-0.1;0.020000001;0.0;0.0;0.0;180.0;0.0;0.0;0.0;0;0.99999094;0.0017082402;0.0038982653;-2,68E+01;-0.19574971736881214;-0.4467108650857885;-4,56E+12;35.191.437;-0.078740284;-0.003377865;0;0;1932;GPS_Atti;OTHER;NONE;GPS_POSITION_NONMATCH;FALSE;Connected;;P;FALSE;FALSE;FALSE;0;0;0.1;0.0;0.1;;;;;;;
30735359;5.021;;;35.045.086;3.507.641;;;0;0.19877383490801323;0.42229732240508344;-0.03146163903780419;0.006277455;-0.0044815824;-10.022.092;10.022.389;-0.98174363;0.84455067;0.52073735;13.957.986;-2,03E+02;-2,20E+03;0.005797314;0.0058050225;2,99E+11;0;0;0;0.0;56.03;-0.03146163903780419;0.4667367611246951;15.476.265.174.672.600;15.479.411.338.576.400;3.599.685.383.609.620;NaN;NaN;0.0;0.0;0.0;-0.0;NaN;NaN;NaN;NaN;NaN;NaN;NaN;NaN;FALSE;FALSE;24.335.641.953.335.900;-4.903.274.648.504.310;380.179.895.271.322;;0.0;;;0.99999166;0.001735628;0.0036847491;-2,68E+02;-0.011497278;-0.0075910464;0.026053429;-0.018318268;0.014851218;0.009327536;800;5133;0;0;3891;480;0.0;0.0;0.0;0.0;GPS_Atti;2;0;0;0;0;10;5000;0.0;0.0;17;5;3;2;0;0;;;;;;;1,00E+01;0.0;1.0;1,00E+01;0.0;1,00E+01;1,00E+01;0.0;-0.005347468;1,00E+01;0.029154778;1,00E+01;-0.1;0.020000001;0.0;0.0;0.0;180.0;0.0;0.0;0.0;0;0.999991;0.001722255;0.0038834985;-2,62E+02;-0.19736615958384082;-0.4450140388011433;0.0022377605349017875;35.189.983;-0.075525366;-0.008307976;0;0;1952;GPS_Atti;OTHER;NONE;GPS_POSITION_NONMATCH;FALSE;Connected;;P;FALSE;FALSE;FALSE;0;0;0.1;0.0;0.1;;;;;;;
30890718;5.055;;;35.063.583;3.507.663;;;0;0.19982692448064976;0.41953740919120663;-0.03128838599373794;0.0061722267;-0.0031068728;-10.043.823;10.044.061;-1.029.394;0.8167136;0.51507837;14.113.748;-1,11E+01;1,42E+03;0.0049447664;0.0049468195;1,43E+12;0;0;0;0.0;56.03;-0.03128838599373794;0.4646929986182036;15.450.041.894.519.700;15.453.170.733.119.100;3.599.687.116.140.060;NaN;NaN;0.0;0.0;0.0;-0.0;NaN;NaN;NaN;NaN;NaN;NaN;NaN;NaN;FALSE;FALSE;2.460.522.346.042.590;-4.955.616.538.499.550;3.845.035.033.308.140;;0.0;;;0.9999918;0.001744806;0.0036606644;-2,67E+03;-0.012421146;0.005750386;0.002571106;-0.01831436;0.0148542775;0.009321104;800;5133;0;0;3931;490;0.0;0.0;0.0;0.0;GPS_Atti;2;0;0;0;0;10;5000;0.0;0.0;17;5;3;2;0;0;;;;;;;1,00E+01;0.0;1.0;1,00E+01;0.0;1,00E+01;1,00E+01;0.0;-0.005347468;1,00E+01;0.029154778;1,00E+01;-0.1;0.020000001;0.0;0.0;0.0;180.0;0.0;0.0;0.0;0;0.9999911;0.0017234255;0.0038508805;-3,93E+02;-0.19750597491891111;-0.4412736780021557;0.003740968890624577;35.189.144;-0.075541504;-0.031029705;0;0;1972;GPS_Atti;OTHER;NONE;GPS_POSITION_NONMATCH;FALSE;Connected;;P;FALSE;FALSE;FALSE;0;0;0.1;0.0;0.1;;;;;;;
31271849;5.140;;;35.063.583;3.507.663;;;0;0.19982692448064976;0.41953740919120663;-0.03128838599373794;0.0061722267;-0.0031068728;-10.043.823;10.044.061;-1.029.394;0.8167136;0.51507837;14.113.748;-1,11E+01;1,42E+03;0.0049447664;0.0049468195;1,43E+12;0;0;0;0.0;56.03;-0.03128838599373794;0.4646929986182036;15.450.041.894.519.700;15.453.170.733.119.100;3.599.687.116.140.060;NaN;NaN;0.0;0.0;0.0;-0.0;NaN;NaN;NaN;NaN;NaN;NaN;NaN;NaN;FALSE;FALSE;2.460.522.346.042.590;-4.955.616.538.499.550;3.845.035.033.308.140;;0.0;;;0.9999918;0.001744806;0.0036606644;-2,67E+03;-0.012421146;0.005750386;0.002571106;-0.01831436;0.0148542775;0.009321104;800;5133;0;0;3931;490;0.0;0.0;0.0;0.0;GPS_Atti;2;0;0;0;0;10;5000;0.0;0.0;17;5;3;2;0;0;;;;;;;1,00E+01;0.0;1.0;1,00E+01;0.0;1,00E+01;1,00E+01;0.0;-0.005347468;1,00E+01;0.029154778;1,00E+01;-0.1;0.020000001;0.0;0.0;0.0;180.0;0.0;0.0;0.0;0;0.9999911;0.0017234255;0.0038508805;-3,93E+02;-0.19750597491891111;-0.4412736780021557;0.003740968890624577;35.189.144;-0.075541504;-0.031029705;0;0;1972;GPS_Atti;OTHER;NONE;GPS_POSITION_NONMATCH;FALSE;Connected;;P;FALSE;FALSE;FALSE;0;0;0.1;0.0;0.1;;;;;;;
31481051;5.186;;;35.068.867;3.507.697;;;0;0.1997246193369396;0.4206728975306425;-0.030309193482731502;0.006543639;-0.0017258155;-1.003.379;10.034.018;-10.745.564;0.80007714;0.63863075;14.841.307;-1,02E+04;3,23E+03;0.004010382;0.004024702;3,39E+12;0;0;0;0.0;56.2;-0.030309193482731502;0.46567450355210505;15.457.284.046.290.000;15.460.314.965.638.300;3.599.696.908.065.170;NaN;NaN;0.0;0.0;0.0;-0.0;NaN;NaN;NaN;NaN;NaN;NaN;NaN;NaN;FALSE;FALSE;25.207.155.205.828.300;-5.065.387.234.623.640;39.293.888.486.400.900;;0.0;;;0.9999917;0.0017438844;0.0036705886;-2,58E+03;-0.010351868;0.020798953;0.010491371;-0.018303959;0.014858405;0.009309194;0;5135;0;0;4011;500;0.0;0.0;0.0;0.0;GPS_Atti;2;0;0;0;0;10;5000;0.0;0.0;17;5;3;2;0;0;;;;;;;1,00E+01;0.0;1.0;1,00E+01;0.0;1,00E+01;1,00E+01;0.0;-0.005347468;1,00E+01;0.029154778;1,00E+01;-0.1;0.020000001;0.0;0.0;0.0;180.0;0.0;0.0;0.0;0;0.99999106;0.0017173374;0.0038687987;-6,07E+02;-0.1968179137234925;-0.4433227671191248;0.006197622733976636;35.187.683;-0.0746782;-0.021749321;0;0;2012;GPS_Atti;OTHER;NONE;GPS_POSITION_NONMATCH;FALSE;Connected;;P;FALSE;FALSE;FALSE;0;0;0.1;0.0;0.1;;;;;;;
31672855;5.229;;;35.063.583;35.077.133;;;0;0.19993114259307357;0.419086094107122;-0.030091769128429504;0.007790451;-0.0036516588;-10.026.019;10.026.388;-0.97881234;0.8955448;0.42232093;13.922.749;1,14E+04;2,93E+03;0.0040072994;0.0040195794;3,14E+11;0;0;0;0.0;56.19;-0.030091769128429504;0.46433044776879195;15.446.605.742.882.700;15.449.614.919.795.500;35.996.990.823.087.100;NaN;NaN;0.0;0.0;0.0;-0.0;NaN;NaN;NaN;NaN;NaN;NaN;NaN;NaN;FALSE;FALSE;25.482.661.402.147.300;-51.187.087.767.318.300;397.342.048.244.969;;0.0;;;0.9999918;0.0017456762;0.003656744;-2,56E+03;0.003728222;4,85E+03;0.01890564;-0.018299699;0.014860593;0.009303381;800;5137;0;0;4051;500;0.0;0.0;0.0;0.0;GPS_Atti;2;0;0;0;0;10;5000;0.0;0.0;17;5;3;2;0;0;;;;;;;1,00E+01;0.0;1.0;1,00E+01;0.0;1,00E+01;1,00E+01;0.0;0.0046710316;1,00E+01;0.019316673;1,00E+01;-0.1;0.020000001;0.0;0.0;0.0;180.0;0.0;0.0;0.0;0;0.9999911;0.0017249654;0.0038627256;-7,48E+00;-0.19769817590129907;-0.4426239503360414;0.0078033708868979895;3.518.608;-0.0721978;-0.012621645;0;0;2032;GPS_Atti;OTHER;NONE;GPS_POSITION_NONMATCH;FALSE;Connected;;P;FALSE;FALSE;FALSE;0;0;0.1;0.0;0.1;;;;;;;
31827795;5.263;;;3.501.338;3.507.718;;;0;0.20098294378020462;0.42027062255611347;-0.0309886851203554;0.006935509;-0.0033197787;-10.023.956;10.024.251;-10.423.155;0.8839718;0.5424087;1.470.386;-2,04E+01;1,24E+03;0.0039529717;0.003954962;1,25E+11;0;0;0;0.0;56.26;-0.0309886851203554;0.46585259702678306;15.441.113.539.146.600;15.444.212.407.658.600;35.996.901.131.487.900;NaN;NaN;0.0;0.0;0.0;-0.0;NaN;NaN;NaN;NaN;NaN;NaN;NaN;NaN;FALSE;FALSE;2.573.399.504.929.010;-5.171.363.676.810.810;4.019.780.870.842.410;;0.0;;;0.9999917;0.0017548861;0.0036670647;-2,64E+03;-0.00419214;0.0011655968;0.016119003;-0.018296454;0.014861505;0.009298211;800;5138;0;0;4091;510;0.0;0.0;0.0;0.0;GPS_Atti;2;0;0;0;0;10;5000;0.0;0.0;17;5;3;2;0;0;;;;;;;1,00E+01;0.0;1.0;1,00E+01;0.0;1,00E+01;1,00E+01;0.0;0.0046710316;1,00E+01;0.019316673;1,00E+01;-0.1;0.020000001;0.0;0.0;0.0;180.0;0.0;0.0;0.0;0;0.99999106;0.0017371383;0.0038687102;-9,85E+01;-0.19910366724783832;-0.4433049579135547;0.010522429151692153;35.183.895;-0.06952246;-0.0147229945;0;0;2052;GPS_Atti;OTHER;NONE;GPS_POSITION_NONMATCH;FALSE;Connected;;P;FALSE;FALSE;FALSE;0;0;0.1;0.0;0.1;;;;;;;
32050591;5.313;;;350.583;350.771;;;0;0.19880365750636886;0.42041240728993856;-0.030484876707189676;0.009606767;-0.0027135364;-10.019.836;10.020.334;-10.139.477;0.96379143;0.4953853;14.840.453;2,22E+02;3,46E+02;0.003961089;0.0039674826;2,25E+12;0;0;0;0.0;56.27;-0.030484876707189676;0.46504478204786615;15.466.140.025.901.500;15.469.188.513.572.200;3.599.695.151.232.920;NaN;NaN;0.0;0.0;0.0;-0.0;NaN;NaN;NaN;NaN;NaN;NaN;NaN;NaN;FALSE;FALSE;26.004.529.373.245.800;-5.224.966.779.179.850;4.067.948.752.133.800;;0.0;;;0.9999917;0.0017358526;0.003668315;-2,60E+03;0.022273183;0.007100261;0.021321297;-0.018293314;0.014863045;0.009293945;900;5139;0;0;4131;510;0.0;0.0;0.0;0.0;GPS_Atti;2;0;0;0;0;10;5000;0.0;0.0;17;5;3;2;0;0;;;;;;;1,00E+01;0.0;1.0;1,00E+01;0.0;1,00E+01;1,00E+01;0.0;0.0046710316;1,00E+01;0.019316673;1,00E+01;-0.1;0.020000001;0.0;0.0;0.0;180.0;0.0;0.0;0.0;0;0.99999106;0.0017371383;0.0038687102;-9,85E+01;-0.19910366724783832;-0.4433049579135547;0.010522429151692153;35.183.895;-0.06952246;-0.0147229945;0;0;2052;GPS_Atti;OTHER;NONE;GPS_POSITION_NONMATCH;FALSE;Connected;;P;FALSE;FALSE;FALSE;0;0;0.1;0.0;0.1;;;;;;;
32252030;5.358;;;350.583;350.771;;;0;0.19880365750636886;0.42041240728993856;-0.030484876707189676;0.009606767;-0.0027135364;-10.019.836;10.020.334;-10.139.477;0.96379143;0.4953853;14.840.453;2,22E+02;3,46E+02;0.003961089;0.0039674826;2,25E+12;0;0;0;0.0;56.27;-0.030484876707189676;0.46504478204786615;15.466.140.025.901.500;15.469.188.513.572.200;3.599.695.151.232.920;NaN;NaN;0.0;0.0;0.0;-0.0;NaN;NaN;NaN;NaN;NaN;NaN;NaN;NaN;FALSE;FALSE;26.004.529.373.245.800;-5.224.966.779.179.850;4.067.948.752.133.800;;0.0;;;0.9999917;0.0017358526;0.003668315;-2,60E+03;0.022273183;0.007100261;0.021321297;-0.018293314;0.014863045;0.009293945;900;5139;0;0;4131;520;0.0;0.0;0.0;0.0;GPS_Atti;2;0;0;0;0;10;5000;0.0;0.0;17;5;3;2;0;0;;;;;;;1,00E+01;0.0;1.0;1,00E+01;0.0;1,00E+01;1,00E+01;0.0;0.014244843;1,00E+01;0.038877487;1,00E+01;-0.1;0.020000001;0.0;0.0;0.0;180.0;0.0;0.0;0.0;0;0.99999106;0.0017169913;0.0038735198;-1,10E+03;-0.19680036933130846;-0.44385395088172785;0.01190006314182021;3.518.071;-0.06683318;-0.008824456;0;0;2072;GPS_Atti;OTHER;NONE;GPS_POSITION_NONMATCH;FALSE;Connected;;P;FALSE;FALSE;FALSE;0;0;0.1;0.0;0.1;;;;;;;
32418492;5.395;;;3.503.452;35.076.942;;;0;0.20104887713214337;0.4213245019714877;-0.031087043398796275;0.008261084;-0.0036301974;-10.022.506;10.022.911;-10.533.146;0.81554174;0.61805624;14.685.276;-4,65E+02;8,44E+00;0.004128943;0.004129214;4,73E+11;0;0;0;0.0;56.34;-0.031087043398796275;0.4668319534675114;15.445.954.128.258.500;15.449.062.832.598.400;35.996.891.295.660.100;NaN;NaN;0.0;0.0;0.0;-0.0;NaN;NaN;NaN;NaN;NaN;NaN;NaN;NaN;FALSE;FALSE;26.294.183.704.171.800;-5.278.745.218.509.640;41.142.369.089.546.800;;0.0;;;0.99999166;0.001755467;0.00367626;-2,65E+02;0.00952635;-0.002673788;0.017552376;-0.018291527;0.014864201;0.009290543;800;5139;0;0;4171;520;0.0;0.0;0.0;0.0;GPS_Atti;2;0;0;0;0;10;5000;0.0;0.0;17;5;3;2;0;0;;;;;;;1,00E+01;0.0;1.0;1,00E+01;0.0;1,00E+01;1,00E+01;0.0;0.014244843;1,00E+01;0.038877487;1,00E+01;-0.1;0.020000001;0.0;0.0;0.0;180.0;0.0;0.0;0.0;0;0.999991;0.0017423175;0.0038826333;-1,32E+03;-0.1997121175636431;-0.4448937330569398;0.014333516233935108;3.517.799;-0.06524391;-0.012013607;0;0;2092;GPS_Atti;OTHER;NONE;GPS_POSITION_NONMATCH;FALSE;Connected;;P;FALSE;FALSE;FALSE;0;0;0.1;0.0;0.1;;;;;;;
32914230;5.505;;;35.100.574;35.076.763;;;0;0.20395594872373657;0.4216979806514029;-0.03568193441745931;0.0088322135;-0.003728195;-10.032.835;10.033.293;-0.98184395;0.8931844;0.5101163;14.219.756;1,30E+03;2,42E+03;0.003080787;0.0030930187;2,75E+11;0;0;0;0.0;56.41;-0.03568193441745931;0.4684273812691502;1.541.537.068.551.540;1.541.893.887.895.710;3.599.643.180.655.820;NaN;NaN;0.0;0.0;0.0;-0.0;NaN;NaN;NaN;NaN;NaN;NaN;NaN;NaN;FALSE;FALSE;2.658.792.573.156.100;-5.331.734.595.518.330;4.158.726.974.194.040;;0.0;;;0.9999916;0.0017809842;0.0036794406;-3,05E+03;0.014875345;-0.0026209485;0.0077028275;-0.018291373;0.0148666315;0.009286724;800;5137;0;0;4211;520;0.0;0.0;0.0;0.0;GPS_Atti;2;0;0;0;0;10;5000;0.0;0.0;17;5;3;2;0;0;;;;;;;1,00E+01;0.0;1.0;1,00E+01;0.0;1,00E+01;1,00E+01;0.0;0.0053831674;1,00E+01;0.009446144;1,00E+01;-0.1;0.020000001;0.0;0.0;0.0;180.0;0.0;0.0;0.0;0;0.9999909;0.0017609581;0.0038955358;-1,88E+03;-0.20187336511488263;-0.4463607625412043;0.020742822419082704;35.177.383;-0.06933354;-0.021482702;0;0;2112;GPS_Atti;OTHER;NONE;GPS_POSITION_NONMATCH;FALSE;Connected;;P;FALSE;FALSE;FALSE;0;0;0.1;0.0;0.1;;;;;;;
33079128;5.542;;;35.039.803;35.076.653;;;0;0.20323015026933808;0.41736481696395916;-0.035993059342168426;0.00853722;-0.0018320254;-10.013.969;10.014.349;-11.152.352;0.74573094;0.5746138;14.594.675;1,24E+03;1,28E+03;0.003085814;0.0030909693;1,78E+12;0;0;0;0.0;56.3;-0.035993059342168426;0.4642121954105333;15.400.117.143.627.800;1.540.371.644.956.200;35.996.400.694.065.700;NaN;NaN;0.0;0.0;0.0;-0.0;NaN;NaN;NaN;NaN;NaN;NaN;NaN;NaN;FALSE;FALSE;27.152.761.733.660.000;-5.440.932.802.512.040;4.244.067.872.297.690;;0.0;;;0.9999918;0.0017746489;0.003641624;-3,08E+03;0.013982512;0.01439065;0.025735855;-0.01828769;0.014872521;0.009278618;800;5142;0;0;4291;520;0.0;0.0;0.0;0.0;GPS_Atti;2;0;0;0;0;10;5000;0.0;0.0;17;5;3;2;0;0;;;;;;;1,00E+01;0.0;1.0;1,00E+01;0.0;1,00E+01;1,00E+01;0.0;0.005265152;1,00E+01;0.029188156;1,00E+01;-0.1;0.020000001;0.0;0.0;0.0;180.0;0.0;0.0;0.0;0;0.99999094;0.0017569491;0.003874661;-2,23E+03;-0.20142928318055145;-0.44396161050902166;0.02481170769507754;3.517.756;-0.07132521;-0.002638801;0;0;2152;GPS_Atti;OTHER;NONE;GPS_POSITION_NONMATCH;FALSE;Connected;;P;FALSE;FALSE;FALSE;0;0;0.1;0.0;0.1;;;;;;;
33234125;5.576;;;35.074.154;35.076.607;;;0;0.2044633637008759;0.41737639907756674;-0.03621574859587145;0.008648503;-0.003249921;-10.025.961;10.026.387;-10.630.198;0.94681406;0.4773076;15.014.294;9,38E+01;-9,07E+01;0.003752158;0.0037544263;1,30E+11;0;0;0;0.0;56.47;-0.03621574859587145;0.4647637763627344;15.386.488.835.324.500;15.390.110.410.184.100;35.996.378.425.140.400;NaN;NaN;0.0;0.0;0.0;-0.0;NaN;NaN;NaN;NaN;NaN;NaN;NaN;NaN;FALSE;FALSE;27.427.495.461.978.200;-5.497.822.994.914.340;4.288.272.619.765.380;;0.0;;;0.9999917;0.0017854177;0.0036417183;-3,10E+03;0.014167532;0.0031046513;0.016625404;-0.018286936;0.014874666;0.0092741;900;5142;0;0;4331;540;0.0;0.0;0.0;0.0;GPS_Atti;2;0;0;0;0;10;5000;0.0;0.0;17;5;3;2;0;0;;;;;;;1,00E+01;0.0;1.0;1,00E+01;0.0;1,00E+01;1,00E+01;0.0;0.005265152;1,00E+01;0.029188156;1,00E+01;-0.1;0.020000001;0.0;0.0;0.0;180.0;0.0;0.0;0.0;0;0.9999909;0.0017721007;0.003876853;-2,42E+03;-0.20317369181053124;-0.44420877135342235;0.02689882769991042;35.175.552;-0.06677919;-0.011032337;0;0;2172;GPS_Atti;OTHER;NONE;GPS_POSITION_NONMATCH;FALSE;Connected;;P;FALSE;FALSE;FALSE;0;0;0.1;0.0;0.1;;;;;;;
33456826;5.625;;;35.042.446;35.076.496;;;0;0.20890437940170703;0.41741660080959664;-0.041548937528552245;0.008265826;-0.0030834882;-10.034.828;10.035.216;-10.835.829;0.8481334;0.5253798;14.729.244;6,89E+02;4,90E+02;0.0037400038;0.0037725763;4,95E+11;0;0;0;0.0;56.61;-0.041548937528552245;0.4667703612089962;15.337.217.653.100.700;15.341.372.546.853.600;35.995.845.106.247.100;NaN;NaN;0.0;0.0;0.0;-0.0;NaN;NaN;NaN;NaN;NaN;NaN;NaN;NaN;FALSE;FALSE;27.688.275.686.488.400;-5.553.652.113.300.440;4.334.955.844.688.540;;0.0;;;0.99999166;0.0018243422;0.0036419716;-3,56E+02;0.008539915;0.0064761564;0.0041532516;-0.01828537;0.014874763;0.009270405;800;5142;0;0;4371;540;0.0;0.0;0.0;0.0;GPS_Atti;2;0;0;0;0;10;5000;0.0;0.0;17;5;3;2;0;0;;;;;;;1,00E+01;0.0;1.0;1,00E+01;0.0;1,00E+01;1,00E+01;0.0;0.005265152;1,00E+01;0.029188156;1,00E+01;-0.1;0.020000001;0.0;0.0;0.0;180.0;0.0;0.0;0.0;0;0.9999909;0.0017721007;0.003876853;-2,42E+03;-0.20317369181053124;-0.44420877135342235;0.02689882769991042;35.175.552;-0.06677919;-0.011032337;0;0;2172;GPS_Atti;OTHER;NONE;GPS_POSITION_NONMATCH;FALSE;Connected;;P;FALSE;FALSE;FALSE;0;0;0.1;0.0;0.1;;;;;;;
33658162;5.670;;;35.042.446;35.076.496;;;0;0.20890437940170703;0.41741660080959664;-0.041548937528552245;0.008265826;-0.0030834882;-10.034.828;10.035.216;-10.835.829;0.8481334;0.5253798;14.729.244;6,89E+02;4,90E+02;0.0037400038;0.0037725763;4,95E+11;0;0;0;0.0;56.61;-0.041548937528552245;0.4667703612089962;15.337.217.653.100.700;15.341.372.546.853.600;35.995.845.106.247.100;NaN;NaN;0.0;0.0;0.0;-0.0;NaN;NaN;NaN;NaN;NaN;NaN;NaN;NaN;FALSE;FALSE;27.688.275.686.488.400;-5.553.652.113.300.440;4.334.955.844.688.540;;0.0;;;0.99999166;0.0018243422;0.0036419716;-3,56E+02;0.008539915;0.0064761564;0.0041532516;-0.01828537;0.014874763;0.009270405;800;5142;0;0;4371;550;0.0;0.0;0.0;0.0;GPS_Atti;2;0;0;0;0;10;5000;0.0;0.0;17;5;3;2;0;0;;;;;;;1,00E+01;0.0;1.0;1,00E+01;0.0;1,00E+01;1,00E+01;0.0;0.016066037;1,00E+01;0.02915287;1,00E+01;-0.1;0.020000001;0.0;0.0;0.0;180.0;0.0;0.0;0.0;0;0.9999908;0.0017890274;0.00387786;-3,05E+03;-0.2051414958834409;-0.4443107601599459;0.03414677225702916;35.173.344;-0.06399554;-0.022876909;0;0;2192;GPS_Atti;OTHER;NONE;GPS_POSITION_NONMATCH;FALSE;Connected;;P;FALSE;FALSE;FALSE;0;0;0.1;0.0;0.1;;;;;;;
33825128;5.707;;;35.031.876;3.507.634;;;0;0.20880901327836734;0.42149283403018856;-0.03998145798171139;0.0084756855;-0.004199676;-10.042.536;10.042.982;-11.143.453;0.85757184;0.6883206;15.655.607;2,00E+03;-1,78E+03;0.0031749816;0.0031862669;2,68E+12;0;0;0;0.0;56.52;-0.03998145798171139;0.47037672898311916;1.536.063.540.680.790;1.536.463.355.260.610;3.599.600.185.420.180;NaN;NaN;0.0;0.0;0.0;-0.0;NaN;NaN;NaN;NaN;NaN;NaN;NaN;NaN;FALSE;FALSE;2.800.459.041.500.420;-56.109.345.435.512.200;4.379.409.954.263.410;;0.0;;;0.99999154;0.0018234723;0.0036775684;-3,42E+03;0.012990497;-0.00922592;-0.005177498;-0.018281234;0.014875884;0.009264652;900;5142;0;0;4411;550;0.0;0.0;0.0;0.0;GPS_Atti;2;0;0;0;0;10;5000;0.0;0.0;17;5;3;2;0;0;;;;;;;1,00E+01;0.0;1.0;1,00E+01;0.0;1,00E+01;1,00E+01;0.0;0.016066037;1,00E+01;0.02915287;1,00E+01;-0.1;0.020000001;0.0;0.0;0.0;180.0;0.0;0.0;0.0;0;0.9999907;0.0017996009;0.0039229235;-3,08E+03;-0.20635616027850767;-0.4494735733463568;0.034517946175156834;3.517.151;-0.06411796;-0.031745527;0;0;2212;GPS_Atti;OTHER;NONE;GPS_POSITION_NONMATCH;FALSE;Connected;;P;FALSE;FALSE;FALSE;0;0;0.1;0.0;0.1;;;;;;;
34016631;5.750;;;35.087.364;35.076.252;;;0;0.20845291448444503;0.41883454630410516;-0.03697430450560006;0.007358811;-0.0023077244;-10.026.673;1.002.697;-10.658.239;0.8134845;0.57683164;14.596.138;1,16E+03;2,35E+03;0.0025747637;0.00258808;2,62E+11;0;0;0;0.0;56.47;-0.03697430450560006;0.46783747058273245;15.350.391.591.171.100;15.354.089.021.621.600;3.599.630.256.954.940;NaN;NaN;0.0;0.0;0.0;-0.0;NaN;NaN;NaN;NaN;NaN;NaN;NaN;NaN;FALSE;FALSE;28.333.466.937.206.900;-5.667.608.077.644.730;4.422.849.090.467.770;;0.0;;;0.9999916;0.0018202609;0.0036544197;-3,16E+03;1,70E+03;0.014180016;0.014221191;-0.018277157;0.0148765845;0.00925847;800;5141;0;0;4451;550;0.0;0.0;0.0;0.0;GPS_Atti;2;0;0;0;0;10;5000;0.0;0.0;17;5;3;2;0;0;;;;;;;1,00E+01;0.0;1.0;1,00E+01;0.0;1,00E+01;1,00E+01;0.0;0.0062929094;1,00E+01;-0.010082245;1,00E+01;-0.1;0.020000001;0.0;0.0;0.0;180.0;0.0;0.0;0.0;0;0.99999076;0.0017944181;0.0039020756;-3,00E+02;-0.2057577508552975;-0.44708651402776384;0.03355212620969412;35.171.204;-0.06667729;-0.01196751;0;0;2232;GPS_Atti;OTHER;NONE;GPS_POSITION_NONMATCH;FALSE;Connected;;P;FALSE;FALSE;FALSE;0;0;0.1;0.0;0.1;;;;;;;
34172463;5.785;;;35.074.154;3.507.622;;;0;0.20972281774261164;0.41668208165898296;-0.03841604727787086;0.0076933103;-0.002846599;-1.001.886;10.019.196;-10.368.704;0.95749927;0.48096025;14.910.492;-8,38E+02;2,46E+02;0.00219675;0.0021984866;8,74E+10;0;0;0;0.0;56.62;-0.03841604727787086;0.4664809919973006;1.532.450.366.225.500;15.328.345.266.982.800;35.996.158.395.272.200;NaN;NaN;0.0;0.0;0.0;-0.0;NaN;NaN;NaN;NaN;NaN;NaN;NaN;NaN;FALSE;FALSE;2.860.883.605.862.700;-5.722.346.356.577.250;4.468.952.132.666.230;;0.0;;;0.99999166;0.0018313826;0.0036356093;-3,29E+03;0.0028980486;0.010389986;0.02158451;-0.018272363;0.014876878;0.009252903;800;5144;0;0;4491;560;0.0;0.0;0.0;0.0;GPS_Atti;2;0;0;0;0;10;5000;0.0;0.0;17;5;3;2;0;0;;;;;;;1,00E+01;0.0;1.0;1,00E+01;0.0;1,00E+01;1,00E+01;0.0;0.0062929094;1,00E+01;-0.010082245;1,00E+01;-0.1;0.020000001;0.0;0.0;0.0;180.0;0.0;0.0;0.0;0;0.9999908;0.0018093722;0.0038798766;-3,31E+02;-0.20748428315677686;-0.4445357921304115;0.037074451789324066;3.517.108;-0.06783449;-0.0042737722;0;0;2252;GPS_Atti;OTHER;NONE;GPS_POSITION_NONMATCH;FALSE;Connected;;P;FALSE;FALSE;FALSE;0;0;0.1;0.0;0.1;;;;;;;
34789449;5.922;;;35.074.154;3.507.622;;;0;0.20972281774261164;0.41668208165898296;-0.03841604727787086;0.0076933103;-0.002846599;-1.001.886;10.019.196;-10.368.704;0.95749927;0.48096025;14.910.492;-8,38E+02;2,46E+02;0.00219675;0.0021984866;8,74E+10;0;0;0;0.0;56.62;-0.03841604727787086;0.4664809919973006;1.532.450.366.225.500;15.328.345.266.982.800;35.996.158.395.272.200;NaN;NaN;0.0;0.0;0.0;-0.0;NaN;NaN;NaN;NaN;NaN;NaN;NaN;NaN;FALSE;FALSE;2.860.883.605.862.700;-5.722.346.356.577.250;4.468.952.132.666.230;;0.0;;;0.99999166;0.0018313826;0.0036356093;-3,29E+03;0.0028980486;0.010389986;0.02158451;-0.018272363;0.014876878;0.009252903;800;5144;0;0;4491;560;0.0;0.0;0.0;0.0;GPS_Atti;2;0;0;0;0;10;5000;0.0;0.0;17;5;3;2;0;0;;;;;;;1,00E+01;0.0;1.0;1,00E+01;0.0;1,00E+01;1,00E+01;0.0;0.0062929094;1,00E+01;-0.010082245;1,00E+01;-0.1;0.020000001;0.0;0.0;0.0;180.0;0.0;0.0;0.0;0;0.9999908;0.0018093722;0.0038798766;-3,31E+02;-0.20748428315677686;-0.4445357921304115;0.037074451789324066;3.517.108;-0.06783449;-0.0042737722;0;0;2252;GPS_Atti;OTHER;NONE;GPS_POSITION_NONMATCH;FALSE;Connected;;P;FALSE;FALSE;FALSE;0;0;0.1;0.0;0.1;;;;;;;
34954117;5.958;;;3.508.472;35.076.397;;;0;0.20471312129776228;0.41785568450766725;-0.040040916541296795;0.008240828;-0.0030374827;-1.004.298;10.043.364;-0.95783776;0.84376794;0.57576776;14.003.235;-1,49E+03;1,89E+03;0.0017322231;0.0017488477;2,41E+12;0;0;0;0.0;56.67;-0.040040916541296795;0.4653040546558831;15.385.940.890.580.700;15.389.944.982.234.800;3.599.599.590.834.580;NaN;NaN;0.0;0.0;0.0;-0.0;NaN;NaN;NaN;NaN;NaN;NaN;NaN;NaN;FALSE;FALSE;2.943.447.031.818.630;-5.878.195.293.478.910;4.609.687.299.032.010;;0.0;;;0.9999917;0.0017877202;0.0036458403;-3,43E+03;0.0077688694;0.0078004356;-0.003127098;-0.01826013;0.014870301;0.0092380345;800;5144;0;0;4611;560;0.0;0.0;0.0;0.0;GPS_Atti;2;0;0;0;0;10;5000;0.0;0.0;17;5;3;2;0;0;;;;;;;1,00E+01;0.0;10.871.141;1,00E+01;0.0;1,00E+01;1,00E+01;0.0;0.01531891;1,00E+01;0.029223442;1,00E+01;-0.1;0.020000001;0.0;0.0;0.0;180.0;0.0;0.0;0.0;0;0.9999909;0.0017672832;0.0038714064;-4,02E+03;-0.20269249848048448;-0.4435522840328794;0.04524393550812827;3.516.991;-0.06643348;-0.027789025;0;0;2312;GPS_Atti;OTHER;NONE;GPS_POSITION_NONMATCH;FALSE;Connected;;P;FALSE;FALSE;FALSE;0;0;0.1;0.0;0.1;;;;;;;
35109005;5.993;;;35.066.227;35.076.496;;;0;0.20291191074474635;0.41803933456825076;-0.040441768578947726;0.0069959294;-0.0034450602;-10.059.102;10.059.403;-10.618.658;0.90587264;0.48233452;14.767.569;1,89E+03;-4,13E+02;0.0024568299;0.0024644712;1,94E+11;0;0;0;0.0;56.8;-0.040441768578947726;0.4646796815439608;1.540.684.133.576.860;15.410.885.512.626.500;35.995.955.823.142.100;NaN;NaN;0.0;0.0;0.0;-0.0;NaN;NaN;NaN;NaN;NaN;NaN;NaN;NaN;FALSE;FALSE;29.709.831.947.095.600;-59.307.562.674.693.000;4.655.220.126.090.910;;0.0;;;0.9999917;0.0017720151;0.0036474424;-3,46E+02;-0.001731392;-3,58E+02;-0.019373894;-0.018257918;0.014867889;0.00923324;800;5145;0;0;4651;580;0.0;0.0;0.0;0.0;GPS_Atti;2;0;0;0;0;10;5000;0.0;0.0;17;5;3;2;0;0;;;;;;;1,00E+01;0.0;10.871.141;1,00E+01;0.0;1,00E+01;1,00E+01;0.0;0.01531891;1,00E+01;0.029223442;1,00E+01;-0.1;0.020000001;0.0;0.0;0.0;180.0;0.0;0.0;0.0;0;0.9999909;0.0017626084;0.0038812642;-4,25E+03;-0.2021674018132687;-0.444677456745937;0.04786003156219382;3.517.087;-0.06765269;-0.043842375;0;0;2332;GPS_Atti;OTHER;NONE;GPS_POSITION_NONMATCH;FALSE;Connected;;P;FALSE;FALSE;FALSE;0;0;0.1;0.0;0.1;;;;;;;
35331699;6.042;;;35.087.364;35.076.763;;;0;0.20566805189731954;0.4186324297544622;-0.0395993562480539;0.008386798;-0.003992256;-1.002.276;1.002.319;-0.9734391;0.9401446;0.5588355;14.641.559;4,89E+03;-4,49E+02;0.0022361963;0.0022895373;4,91E+11;0;0;0;0.0;56.8;-0.0395993562480539;0.46642196349845017;1.537.964.885.290.260;15.383.608.788.527.400;35.996.040.064.375.100;NaN;NaN;0.0;0.0;0.0;-0.0;NaN;NaN;NaN;NaN;NaN;NaN;NaN;NaN;FALSE;FALSE;29.981.313.366.711.300;-5.983.826.126.216.840;4.703.354.375.686.130;;0.0;;;0.99999166;0.0017960417;0.0036526227;-3,39E+02;0.011361871;-0.0047036596;0.015253067;-0.018256979;0.014866127;0.009228472;800;5145;0;0;4691;580;0.0;0.0;0.0;0.0;GPS_Atti;2;0;0;0;0;10;5000;0.0;0.0;17;5;3;2;0;0;;;;;;;1,00E+01;0.0;10.871.141;1,00E+01;0.0;1,00E+01;1,00E+01;0.0;0.01531891;1,00E+01;0.029223442;1,00E+01;-0.1;0.020000001;0.0;0.0;0.0;180.0;0.0;0.0;0.0;0;0.9999909;0.0017626084;0.0038812642;-4,25E+03;-0.2021674018132687;-0.444677456745937;0.04786003156219382;3.517.087;-0.06765269;-0.043842375;0;0;2332;GPS_Atti;OTHER;NONE;GPS_POSITION_NONMATCH;FALSE;Connected;;P;FALSE;FALSE;FALSE;0;0;0.1;0.0;0.1;;;;;;;
35490182;6.077;;;35.087.364;35.076.763;;;0;0.20566805189731954;0.4186324297544622;-0.0395993562480539;0.008386798;-0.003992256;-1.002.276;1.002.319;-0.9734391;0.9401446;0.5588355;14.641.559;4,89E+03;-4,49E+02;0.0022361963;0.0022895373;4,91E+11;0;0;0;0.0;56.8;-0.0395993562480539;0.46642196349845017;1.537.964.885.290.260;15.383.608.788.527.400;35.996.040.064.375.100;NaN;NaN;0.0;0.0;0.0;-0.0;NaN;NaN;NaN;NaN;NaN;NaN;NaN;NaN;FALSE;FALSE;29.981.313.366.711.300;-5.983.826.126.216.840;4.703.354.375.686.130;;0.0;;;0.99999166;0.0017960417;0.0036526227;-3,39E+02;0.011361871;-0.0047036596;0.015253067;-0.018256979;0.014866127;0.009228472;800;5145;0;0;4691;580;0.0;0.0;0.0;0.0;GPS_Atti;2;0;0;0;0;10;5000;0.0;0.0;17;5;3;2;0;0;;;;;;;1,00E+01;0.0;10.871.141;1,00E+01;0.0;1,00E+01;1,00E+01;0.0;-0.0041536726;1,00E+01;0.019210815;1,00E+01;-0.1;0.020000001;0.0;0.0;0.0;180.0;0.0;0.0;0.0;0;0.9999908;0.0017816762;0.0038886683;-4,37E+02;-0.20435814392158738;-0.4455225361855326;0.04923790995466686;3.517.027;-0.065718405;-0.008676079;0;0;2352;GPS_Atti;OTHER;NONE;GPS_POSITION_NONMATCH;FALSE;Connected;;P;FALSE;FALSE;FALSE;0;0;0.1;0.0;0.1;;;;;;;
35700382;6.124;;;35.053.013;35.077;;;0;0.20623169497957974;0.41893900011335766;-0.0386464176843926;0.0069471123;-0.0030036962;-10.000.088;10.000.374;-0.9593149;0.93391484;0.40405878;13.984.797;1,23E+03;1,08E+04;0.0029369602;0.002941517;1,64E+12;0;0;0;0.0;56.91;-0.0386464176843926;0.46694578495822664;15.375.195.512.443.500;15.379.060.154.212.000;3.599.613.535.823.150;NaN;NaN;0.0;0.0;0.0;-0.0;NaN;NaN;NaN;NaN;NaN;NaN;NaN;NaN;FALSE;FALSE;30.231.934.701.788.200;-6.034.131.688.059.770;4.752.132.240.825.150;;0.0;;;0.99999166;0.001800931;0.0036553112;-3,31E+02;-7,53E+02;0.0023846878;0.03706169;-0.018255923;0.014863854;0.009224866;800;5145;0;0;4731;590;0.0;0.0;0.0;0.0;GPS_Atti;2;0;0;0;0;10;5000;0.0;0.0;17;5;3;2;0;0;;;;;;;1,00E+01;0.0;10.871.141;1,00E+01;0.0;1,00E+01;1,00E+01;0.0;-0.0041536726;1,00E+01;0.019210815;1,00E+01;-0.1;0.020000001;0.0;0.0;0.0;180.0;0.0;0.0;0.0;0;0.9999908;0.0017845099;0.003881067;-4,48E+03;-0.20468761996988008;-0.4446490172463601;0.050561348724148115;35.170.727;-0.065705955;0.013457004;0;0;2372;GPS_Atti;OTHER;NONE;GPS_POSITION_NONMATCH;FALSE;Connected;;P;FALSE;FALSE;FALSE;0;0;0.1;0.0;0.1;;;;;;;
35891857;6.167;;;35.074.154;3.507.729;;;0;0.20991970637794682;0.4175114761698416;-0.03726709134874709;0.0078783;-0.0055270293;-10.017.701;10.018.164;-0.932048;0.7530439;0.47098872;12.874.855;1,96E+03;-2,23E+03;0.002634024;0.0026507569;2,97E+11;0;0;0;0.0;56.8;-0.03726709134874709;0.46731038517027124;15.327.034.179.205.100;1.533.076.088.834.000;3.599.627.329.086.510;NaN;NaN;0.0;0.0;0.0;-0.0;NaN;NaN;NaN;NaN;NaN;NaN;NaN;NaN;FALSE;FALSE;3.046.011.694.788.590;-6.083.451.917.366.830;4.796.122.313.361.720;;0.0;;;0.99999166;0.0018330667;0.0036428648;-3,19E+03;0.0054776296;-0.017224051;0.0203619;-0.01825592;0.014861697;0.009222724;900;5147;0;0;4771;590;0.0;0.0;0.0;0.0;GPS_Atti;2;0;0;0;0;10;5000;0.0;0.0;17;5;3;2;0;0;;;;;;;1,00E+01;0.0;1.0;1,00E+01;0.0;1,00E+01;1,00E+01;0.0;-0.0035065524;1,00E+01;0.029009819;1,00E+01;-0.1;0.020000001;0.0;0.0;0.0;180.0;0.0;0.0;0.0;0;0.9999908;0.0018297479;0.0038602978;-4,55E+03;-0.2098735862148316;-0.4422652998711954;0.05136127207829284;35.170.906;-0.065398626;-0.0028044544;0;0;2392;GPS_Atti;OTHER;NONE;GPS_POSITION_NONMATCH;FALSE;Connected;;P;FALSE;FALSE;FALSE;0;0;0.1;0.0;0.1;;;;;;;
36046873;6.201;;;35.079.437;35.077.576;;;0;0.20968262236757296;0.4177932648859463;-0.039748494561677006;0.0079471115;-0.002900961;-10.041.754;10.042.111;-11.371.955;0.7990175;0.40501392;14.476.459;2,13E+03;2,77E+02;0.002242292;0.002269385;3,50E+11;0;0;0;0.0;56.89;-0.039748494561677006;0.46745577050195497;15.330.933.786.539.500;15.334.908.635.995.700;35.996.025.150.543.800;NaN;NaN;0.0;0.0;0.0;-0.0;NaN;NaN;NaN;NaN;NaN;NaN;NaN;NaN;FALSE;FALSE;306.878.068.238.618;-6.137.235.521.718.990;4.836.463.363.369.310;;0.0;;;0.99999166;0.0018310775;0.0036452848;-3,40E+03;0.007977538;0.0056981677;-0.0038261414;-0.018256214;0.014859376;0.009219649;800;5150;0;0;4811;600;0.0;0.0;0.0;0.0;GPS_Atti;2;0;0;0;0;10;5000;0.0;0.0;17;5;3;2;0;0;;;;;;;1,00E+01;0.0;1.0;1,00E+01;0.0;1,00E+01;1,00E+01;0.0;-0.0035065524;1,00E+01;0.029009819;1,00E+01;-0.1;0.020000001;0.0;0.0;0.0;180.0;0.0;0.0;0.0;0;0.9999908;0.0018148306;0.0038617225;-4,96E+03;-0.20818240216802283;-0.44242077214258674;0.05606434754184691;3.516.988;-0.062482867;-0.02640029;0;0;2412;GPS_Atti;OTHER;NONE;GPS_POSITION_NONMATCH;FALSE;Connected;;P;FALSE;FALSE;FALSE;0;0;0.1;0.0;0.1;;;;;;;
36470665;6.295;;;35.079.437;35.077.576;;;0;0.20968262236757296;0.4177932648859463;-0.039748494561677006;0.0079471115;-0.002900961;-10.041.754;10.042.111;-11.371.955;0.7990175;0.40501392;14.476.459;2,13E+03;2,77E+02;0.002242292;0.002269385;3,50E+11;0;0;0;0.0;56.89;-0.039748494561677006;0.46745577050195497;15.330.933.786.539.500;15.334.908.635.995.700;35.996.025.150.543.800;NaN;NaN;0.0;0.0;0.0;-0.0;NaN;NaN;NaN;NaN;NaN;NaN;NaN;NaN;FALSE;FALSE;306.878.068.238.618;-6.137.235.521.718.990;4.836.463.363.369.310;;0.0;;;0.99999166;0.0018310775;0.0036452848;-3,40E+03;0.007977538;0.0056981677;-0.0038261414;-0.018256214;0.014859376;0.009219649;800;5150;0;0;4811;610;0.0;0.0;0.0;0.0;GPS_Atti;2;0;0;0;0;10;5000;0.0;0.0;17;5;3;2;0;0;;;;;;;1,00E+01;0.0;1.0;1,00E+01;0.0;1,00E+01;1,00E+01;0.0;-0.0035065524;1,00E+01;0.029009819;1,00E+01;-0.1;0.020000001;0.0;0.0;0.0;180.0;0.0;0.0;0.0;0;0.9999908;0.0018148306;0.0038617225;-4,96E+03;-0.20818240216802283;-0.44242077214258674;0.05606434754184691;3.516.988;-0.062482867;-0.02640029;0;0;2412;GPS_Atti;OTHER;NONE;GPS_POSITION_NONMATCH;FALSE;Connected;;P;FALSE;FALSE;FALSE;0;0;0.1;0.0;0.1;;;;;;;
36637325;6.332;;;3.503.716;35.078.167;;;0;0.2115276597793553;0.4206080276410257;-0.04142016575449142;0.0071525993;-0.0033566332;-10.046.117;10.046.428;-0.9659018;0.85383755;0.3904228;13.470.095;1,18E+03;-4,36E+01;0.0010631768;0.0010706221;1,26E+12;0;0;0;0.0;56.92;-0.04142016575449142;0.47079915978936604;15.326.064.320.272.800;1.533.020.633.684.820;3.599.585.798.342.450;NaN;NaN;0.0;0.0;0.0;-0.0;NaN;NaN;NaN;NaN;NaN;NaN;NaN;NaN;FALSE;FALSE;31.101.984.253.227.300;-6.246.742.086.574.580;4.922.526.181.731.870;;0.0;;;0.99999154;0.0018472403;0.0036698154;-3,55E+02;-0.0016412325;0.002016209;-0.011604309;-0.018254913;0.014856009;0.009211629;800;5149;0;0;4891;610;0.0;0.0;0.0;0.0;GPS_Atti;2;0;0;0;0;10;5000;0.0;0.0;17;5;3;2;0;0;;;;;;;1,00E+01;0.0;1.0;1,00E+01;0.0;1,00E+01;1,00E+01;0.0;-0.0035065524;1,00E+01;0.029009819;1,00E+01;-0.1;0.020000001;0.0;0.0;0.0;180.0;0.0;0.0;0.0;0;0.99999064;0.0018256367;0.0038862526;-5,50E+02;-0.20944598514137885;-0.44521995950355714;0.06220983054644581;3.516.824;-0.061420623;-0.03339502;0;0;2452;GPS_Atti;OTHER;NONE;GPS_POSITION_NONMATCH;FALSE;Connected;;P;FALSE;FALSE;FALSE;0;0;0.1;0.0;0.1;;;;;;;
36829124;6.375;;;35.103.218;35.078.438;;;0;0.21348762417011752;0.42404262156710665;-0.04100926368199056;0.0075125406;-0.0036772913;-10.028.692;10.029.042;-0.94804394;0.7805078;0.54085004;13.418.266;2,00E+03;3,35E+02;0.0017747103;0.001817164;3,90E+11;0;0;0;0.0;56.91;-0.04100926368199056;0.4747481249232825;15.323.597.233.143.700;15.327.698.159.511.900;359.958.990.736.318;NaN;NaN;0.0;0.0;0.0;-0.0;NaN;NaN;NaN;NaN;NaN;NaN;NaN;NaN;FALSE;FALSE;31.344.537.265.576.400;-62.965.914.203.206.200;4.965.093.233.384.340;;0.0;;;0.99999136;0.0018643413;0.0036997881;-3,51E+02;8,10E+01;0.0024595894;0.008930206;-0.018253129;0.01485538;0.00920818;800;5149;0;0;4931;610;0.0;0.0;0.0;0.0;GPS_Atti;2;0;0;0;0;10;5000;0.0;0.0;17;5;3;2;0;0;;;;;;;1,00E+01;0.0;1.0;1,00E+01;0.0;1,00E+01;1,00E+01;0.0;0.006967526;1,00E+01;0.01931858;1,00E+01;-0.1;0.020000001;0.0;0.0;0.0;180.0;0.0;0.0;0.0;0;0.9999905;0.0018298163;0.0039204336;-5,66E+03;-0.20993429363087476;-0.4491331709724592;0.06405087200420645;35.169.384;-0.06462476;-0.012826052;0;0;2472;GPS_Atti;OTHER;NONE;GPS_POSITION_NONMATCH;FALSE;Connected;;P;FALSE;FALSE;FALSE;0;0;0.1;0.0;0.1;;;;;;;
36984045;6.409;;;35.090.008;3.507.882;;;0;0.21323891440562823;0.42309071283019395;-0.04081090224729433;0.007452065;-0.004127545;-10.039.291;10.039.654;-0.9040509;0.83572304;0.50806594;13.318.678;1,33E+03;1,93E+03;0.0012852069;0.0013064769;2,35E+12;0;0;0;0.0;56.9;-0.04081090224729433;0.47378611216600275;15.321.126.810.862.800;15.325.207.901.087.500;3.599.591.890.977.520;NaN;NaN;0.0;0.0;0.0;-0.0;NaN;NaN;NaN;NaN;NaN;NaN;NaN;NaN;FALSE;FALSE;3.161.822.597.554.360;-6.344.917.258.909.050;5.007.264.784.069.790;;0.0;;;0.9999914;0.0018621617;0.0036914852;-3,49E+03;-7,12E+03;-0.0029180162;-0.004875183;-0.018249702;0.01485531;0.00920465;900;5150;0;0;4971;620;0.0;0.0;0.0;0.0;GPS_Atti;2;0;0;0;0;10;5000;0.0;0.0;17;5;3;2;0;0;;;;;;;1,00E+01;0.0;1.0;1,00E+01;0.0;1,00E+01;1,00E+01;0.0;0.006967526;1,00E+01;0.01931858;1,00E+01;-0.1;0.020000001;0.0;0.0;0.0;180.0;0.0;0.0;0.0;0;0.9999905;0.0018347779;0.0039117853;-5,84E+03;-0.21051036897605102;-0.44813806001871315;0.066113967030382;35.169.933;-0.06443983;-0.026280334;0;0;2492;GPS_Atti;OTHER;NONE;GPS_POSITION_NONMATCH;FALSE;Connected;;P;FALSE;FALSE;FALSE;0;0;0.1;0.0;0.1;;;;;;;
37206572;6.459;;;35.055.656;35.079.216;;;0;0.21568605489035275;0.4245888099890355;-0.03988193949079098;0.008279401;-0.0024314697;-10.013.939;10.014.311;-0.9605419;0.95297533;0.45201504;14.265.764;-3,34E+01;5,23E+03;0.0017493776;0.0018259411;5,23E+11;0;0;0;0.0;57.02;-0.03988193949079098;0.476227598654389;15.303.040.556.070.100;1.530.702.875.001.920;3.599.601.180.605.090;NaN;NaN;0.0;0.0;0.0;-0.0;NaN;NaN;NaN;NaN;NaN;NaN;NaN;NaN;FALSE;FALSE;31.867.998.325.169.500;-63.934.260.546.770.900;50.537.991.290.547.500;;0.0;;;0.9999913;0.0018834913;0.003704566;-3,41E+03;0.007545799;0.014240378;0.020941734;-0.01824473;0.014854797;0.009201282;800;5151;0;0;5011;620;0.0;0.0;0.0;0.0;GPS_Atti;2;0;0;0;0;10;5000;0.0;0.0;17;5;3;2;0;0;;;;;;;1,00E+01;0.0;1.0;1,00E+01;0.0;1,00E+01;1,00E+01;0.0;0.006967526;1,00E+01;0.01931858;1,00E+01;-0.1;0.020000001;0.0;0.0;0.0;180.0;0.0;0.0;0.0;0;0.9999905;0.0018347779;0.0039117853;-5,84E+03;-0.21051036897605102;-0.44813806001871315;0.066113967030382;35.169.933;-0.06443983;-0.026280334;0;0;2492;GPS_Atti;OTHER;NONE;GPS_POSITION_NONMATCH;FALSE;Connected;;P;FALSE;FALSE;FALSE;0;0;0.1;0.0;0.1;;;;;;;
37408239;6.504;;;35.055.656;35.079.216;;;0;0.21568605489035275;0.4245888099890355;-0.03988193949079098;0.008279401;-0.0024314697;-10.013.939;10.014.311;-0.9605419;0.95297533;0.45201504;14.265.764;-3,34E+01;5,23E+03;0.0017493776;0.0018259411;5,23E+11;0;0;0;0.0;57.02;-0.03988193949079098;0.476227598654389;15.303.040.556.070.100;1.530.702.875.001.920;3.599.601.180.605.090;NaN;NaN;0.0;0.0;0.0;-0.0;NaN;NaN;NaN;NaN;NaN;NaN;NaN;NaN;FALSE;FALSE;31.867.998.325.169.500;-63.934.260.546.770.900;50.537.991.290.547.500;;0.0;;;0.9999913;0.0018834913;0.003704566;-3,41E+03;0.007545799;0.014240378;0.020941734;-0.01824473;0.014854797;0.009201282;800;5151;0;0;5011;630;0.0;0.0;0.0;0.0;GPS_Atti;2;0;0;0;0;10;5000;0.0;0.0;17;5;3;2;0;0;;;;;;;1,00E+01;0.0;1.0;1,00E+01;0.0;1,00E+01;1,00E+01;0.0;0.02702777;1,00E+01;0.019465446;1,00E+01;-0.1;0.020000001;0.0;0.0;0.0;180.0;0.0;0.0;0.0;0;0.99999046;0.0018487012;0.003915295;-5,96E+03;-0.21211144205622176;-0.4485368320980654;0.06747597842924151;3.517.009;-0.06299845;-1,28E+02;0;0;2512;GPS_Atti;OTHER;NONE;GPS_POSITION_NONMATCH;FALSE;Connected;;P;FALSE;FALSE;FALSE;0;0;0.1;0.0;0.1;;;;;;;
